Fips,Name,Population,Longitude,Latitude,Km2,UrbanDensity,PercentUrban,Emp-11,Est-11,Pay-11,Emp-21,Est-21,Pay-21,Emp-22,Est-22,Pay-22,Emp-23,Est-23,Pay-23,Emp-42,Est-42,Pay-42,Emp-51,Est-51,Pay-51,Emp-52,Est-52,Pay-52,Emp-53,Est-53,Pay-53,Emp-54,Est-54,Pay-54,Emp-55,Est-55,Pay-55,Emp-56,Est-56,Pay-56,Emp-61,Est-61,Pay-61,Emp-62,Est-62,Pay-62,Emp-71,Est-71,Pay-71,Emp-72,Est-72,Pay-72,Emp-81,Est-81,Pay-81,Emp-99,Est-99,Pay-99
12001,Alachua County,276,-82.36,29.68,2509.29,3.59,1.25,53,15,4610,43,3,3854,314,8,18890,5348,532,276876,3260,208,262876,2007,130,156449,3032,311,217811,1763,425,84054,6400,925,444209,1202,29,104275,4253,403,167744,1992,120,63228,29106,885,1782512,1116,111,21628,11984,635,248899,4513,602,204599,8,6,556
12003,Baker County,28,-82.28,30.31,1524.74,0.0,0.0,,,,,,,,,,352,65,16358,49,10,2793,77,7,3727,135,21,6140,10,10,202,113,28,4580,,,,156,26,5160,24,3,551,1780,44,70755,30,6,351,811,40,13715,243,56,6771,,,
12005,Bay County,181,-85.66,30.25,2285.7,1.71,0.21,148,14,7232,,,,266,10,26808,4658,651,236430,1959,173,115303,669,76,43986,1542,243,112536,1221,361,57609,3623,490,231445,223,17,20600,3540,309,108032,385,35,11605,8506,561,488635,930,81,26831,10507,535,264695,2378,419,75901,,,
12011,Broward County,1935,-80.46,26.16,3173.48,3.29,16.94,134,43,4913,81,10,5284,1076,37,103203,43870,5375,2736854,42415,4475,3067144,20410,1116,2940665,33146,3920,3039766,16996,4765,984109,59136,12046,4579378,16289,332,1772053,67484,4387,3156914,19703,983,932477,107038,7269,6279810,12827,1182,562617,78024,4396,2084661,28647,5627,1095878,173,122,10230
12007,Bradford County,28,-76.53,41.77,778.47,0.0,0.0,25,7,1186,,,,,,,250,43,12846,37,13,1500,36,10,1369,124,21,5238,26,14,737,98,30,3510,,,,156,28,7319,45,3,987,676,37,20933,18,5,255,632,43,10678,226,66,5864,,,
12009,Brevard County,602,-80.8,28.21,3353.88,2.08,2.74,17,12,751,33,5,1863,371,27,40786,12742,1729,655184,4583,506,267755,2668,238,226508,5296,756,385980,3038,1024,134137,21817,2040,1871736,3421,43,380906,16067,1090,613115,5279,199,158534,30959,1744,1608028,2509,207,81690,23379,1254,509023,8284,1400,285903,11,10,131
12015,Charlotte County,185,-81.92,26.9,1934.12,1.78,0.27,3,4,198,91,4,4706,80,16,4841,3392,615,171072,1223,127,71573,443,55,19380,999,225,73186,1120,357,44392,1451,430,81940,254,11,20697,1783,358,72964,258,30,8926,8411,514,508337,788,57,13903,5366,317,125221,1920,418,61530,,,
12013,Calhoun County,14,-96.67,28.5,1487.01,0.0,0.0,43,9,2466,,,,,,,126,27,4791,21,7,1141,19,7,986,57,10,2346,4,4,161,13,8,912,,,,10,3,239,,,,557,26,21734,,,,187,13,3102,70,20,1805,,,
12017,Citrus County,152,-82.51,28.85,1710.33,1.83,0.15,27,13,564,42,5,2773,812,26,84142,2385,371,110442,698,72,30170,317,44,16005,654,160,39624,910,195,26258,793,250,45226,15,3,641,1402,198,61404,79,17,2294,9750,389,453186,324,35,5875,3413,220,67425,1524,332,40911,,,
12039,Gadsden County,44,-84.64,30.59,1369.07,0.0,0.0,5,5,107,,,,,,,725,125,35950,812,42,37385,54,13,2482,85,18,3503,80,23,2101,188,43,7162,,,,716,48,26019,115,10,3154,1521,69,129106,108,5,2512,1025,59,27647,222,75,5584,5,4,178
12019,Clay County,216,-98.21,33.69,1666.51,1.94,0.95,109,17,5118,,,,331,5,28930,3648,620,164730,1011,105,57398,801,58,45545,1119,194,63413,620,288,27871,2541,465,160271,149,14,11498,4807,268,197992,614,55,20680,9425,563,525707,1024,48,22343,6373,319,125234,2145,432,64058,5,6,152
12021,Collier County,373,-81.38,26.09,5449.25,2.9,0.58,150,23,5004,27,5,2834,450,18,50861,15107,1902,847499,4334,391,506978,1233,167,145870,4385,760,681552,4522,1476,266239,6635,1804,583427,574,34,54374,8516,1151,359679,2246,141,83967,21789,1249,1317317,7060,235,296622,22764,912,639240,8135,1302,306256,2,8,226
12027,DeSoto County,34,-81.82,27.19,1654.88,2.15,0.09,119,11,5059,,,,,,,284,83,10811,176,19,7593,28,5,1417,112,20,4939,61,20,1708,136,42,6652,,,,289,43,12157,11,4,238,994,46,44089,25,5,287,524,34,9578,202,60,5194,,,
12023,Columbia County,69,-76.42,41.04,2075.52,0.0,0.0,98,13,3522,,,,68,3,6172,2047,170,92838,1074,80,60296,120,22,5698,442,68,30466,158,57,6061,581,115,30717,135,6,3109,908,64,29949,552,18,11849,4420,186,278706,96,14,1955,3178,142,56404,493,130,13556,1,3,57
12029,Dixie County,17,-83.17,29.62,1865.11,0.0,0.0,70,10,3892,,,,,,,97,19,3143,9,4,183,4,4,237,28,8,1219,7,6,202,42,15,1109,,,,44,9,1078,,,,106,11,4115,,,,207,22,3488,108,23,3318,,,
12031,Duval County,983,-98.51,27.67,2200.28,2.36,8.66,105,24,4490,33,7,5748,289,15,35642,30595,2955,1935582,25931,1216,1657635,11930,436,1481646,47590,1577,4468315,8046,1728,533751,34145,3420,2565407,12539,209,1287807,39694,1845,1659640,9663,393,383424,67935,3150,3969251,6900,363,473646,42745,2237,919247,17276,2541,635796,37,32,1703
12033,Escambia County,319,-87.35,30.66,1932.17,2.1,0.94,54,15,2061,167,8,12602,1144,25,124692,7690,806,429098,3690,304,226841,1214,120,88684,10732,418,778210,1810,439,82405,9075,877,580383,1144,35,82607,6850,452,252280,2210,85,106383,21781,938,1345162,1109,100,24516,14044,624,292362,4383,717,140113,14,11,440
12035,Flagler County,114,-81.29,29.48,1314.34,0.0,0.0,,,,,,,52,3,6131,1692,382,63262,342,65,21026,165,33,10747,623,135,40768,557,220,28885,1441,265,94266,,,,1560,200,61708,204,26,6310,3671,266,189736,374,38,10002,3366,184,67879,1184,241,33228,4,6,75
12037,Franklin County,12,-95.22,33.2,1469.18,0.0,0.0,21,3,947,,,,,,,166,33,5465,133,11,6686,28,8,1082,48,10,1557,91,20,3927,65,25,3625,,,,43,7,1278,,,,254,20,10593,100,16,1752,613,44,19206,105,33,2984,,,
12041,Gilchrist County,18,-82.8,29.71,919.88,0.0,0.0,75,6,2936,,,,37,4,2241,321,51,14890,68,14,3237,10,3,260,42,10,2870,7,7,302,44,23,2325,,,,123,18,2565,,,,586,23,28103,,,,331,22,6627,104,27,3937,,,
12051,Hendry County,39,-81.15,26.6,3080.27,1.89,0.03,30,5,1758,45,3,2183,,,,739,92,36133,258,32,12737,38,9,1716,235,32,11828,50,26,1866,211,54,10895,,,,185,38,7408,14,6,690,1281,74,51063,31,6,945,1070,68,19356,225,66,6387,,,
12043,Glades County,12,-81.19,26.93,2557.38,0.0,0.0,37,5,1288,,,,,,,86,17,3727,,,,,,,,,,26,7,671,5,3,159,,,,239,10,8462,,,,40,4,1652,23,5,746,117,14,2074,40,12,540,,,
12045,Gulf County,15,-85.22,29.97,1477.76,0.0,0.0,19,3,1245,,,,75,4,5514,301,69,11164,49,7,1167,40,9,2162,85,12,4752,96,34,3960,139,27,8175,,,,48,14,1186,,,,216,23,6787,,,,388,36,9480,152,35,3232,,,
12047,Hamilton County,14,-97.97,31.64,1344.06,0.0,0.0,23,4,1157,,,,,,,42,16,1511,,,,,,,24,8,625,15,6,254,48,14,1750,,,,,,,33,4,772,207,19,6251,,,,130,11,2254,50,22,1086,,,
12049,Hardee County,26,-81.82,27.49,1652.94,0.0,0.0,74,10,3249,,,,151,4,15549,334,32,15019,211,17,8646,41,9,1211,279,15,15811,125,22,9162,77,21,2976,,,,130,25,4235,51,8,1285,1004,60,30244,432,4,16694,557,36,14496,125,45,3127,,,
12053,Hernando County,192,-82.46,28.57,1288.11,1.6,0.43,18,9,709,98,3,4866,,,,2478,473,105514,573,91,28335,400,55,45820,1002,197,69196,658,231,21194,1539,354,64672,20,6,2416,1061,248,34981,493,36,9486,9031,564,488555,530,56,9537,5390,293,104764,1756,335,47971,4,7,228
12055,Highlands County,101,-81.36,27.35,2865.11,1.81,0.03,155,21,6895,,,,92,10,6839,1250,237,48685,484,64,24682,181,29,10139,499,99,29238,267,106,9274,674,143,26973,23,3,924,1353,121,44546,277,22,8669,5912,335,318423,515,35,8356,2553,144,47689,923,227,24603,,,
12071,Lee County,752,-96.96,30.3,2300.25,2.13,3.1,304,21,8745,236,9,15106,922,37,83917,27223,3209,1471368,7516,756,461876,3448,272,215587,6191,1142,509860,8369,1939,546714,14196,2442,1273706,3167,89,263789,17218,1741,619025,3079,195,108337,39720,1985,2570744,7055,353,209259,31585,1604,756672,10010,1879,359137,38,22,761
12057,Hillsborough County,1444,-82.35,27.92,2808.22,3.05,9.15,67,23,2995,33,11,1050,2675,47,302500,44296,4062,2636797,32599,2023,2319757,16580,787,1583683,61867,2969,5898403,12904,2887,822767,67757,6544,6276738,19931,286,1863949,57290,2720,2310327,15111,630,662815,92280,4765,5564005,12945,576,786791,54312,2807,1309285,21210,3307,733422,48,52,2074
12059,Holmes County,20,-85.81,30.89,1266.73,0.0,0.0,15,5,1005,,,,,,,217,51,6930,36,7,838,,,,42,7,1946,12,7,227,48,18,2014,,,,27,11,681,,,,560,28,20588,,,,257,21,4617,130,48,2892,,,
12061,Indian River County,158,-80.59,27.7,1399.28,1.86,0.82,653,29,18686,14,3,597,30,7,1125,3595,560,171979,847,145,79718,472,60,28734,1572,264,185066,1533,330,75971,2766,574,161649,205,14,18186,4106,411,151522,771,50,28231,10032,530,590987,2034,85,75580,5832,309,124256,2487,429,79438,4,10,274
12063,Jackson County,48,-96.56,28.92,2472.48,0.0,0.0,32,8,1500,29,3,1553,121,5,9372,617,76,33508,273,25,10375,56,15,2375,290,49,15652,107,37,3584,302,54,19355,,,,446,49,15550,204,6,3119,1629,88,73674,43,6,914,1158,86,18514,487,96,12580,,,
12065,Jefferson County,14,-94.17,29.83,1587.14,0.0,0.0,85,9,6177,,,,45,5,4796,195,50,10968,44,7,2626,,,,73,15,3181,31,9,516,88,27,3236,,,,53,20,1148,,,,198,20,6470,18,5,306,153,22,2838,91,34,1898,,,
12067,Lafayette County,8,-83.22,30.0,1418.64,0.0,0.0,,,,,,,,,,38,8,1196,78,7,4471,,,,22,6,799,,,,32,7,773,,,,,,,,,,120,10,3587,,,,55,8,752,44,17,910,,,
12069,Lake County,375,-122.78,39.05,2995.27,2.83,0.33,71,19,2742,111,9,6849,150,19,13127,9061,1163,473826,1933,278,108479,765,122,46933,2105,419,136801,2294,577,98274,2532,789,136128,365,14,16582,4591,666,176146,1595,115,55021,19840,1018,991994,1215,144,29836,11746,649,240649,4986,770,153896,4,9,94
12073,Leon County,291,-96.0,31.27,1817.67,2.78,1.98,53,11,1824,,,,114,16,19087,6786,706,356350,3036,236,212734,2465,187,208020,4657,459,455235,2552,481,110782,10015,1444,1009418,1237,44,81001,6904,489,213479,1742,120,65031,18970,830,1068201,1322,125,25911,14491,737,265261,6134,850,284488,2,7,139
12087,Monroe County,82,-90.18,38.27,3546.02,3.42,0.26,45,34,2017,,,,126,7,13160,1965,399,107665,402,91,20517,218,40,12618,623,124,49430,1160,430,62180,1207,429,79730,104,5,6545,1087,246,50325,262,41,12609,2258,236,144272,1251,153,47683,12679,566,512294,1332,344,54503,,,
12075,Levy County,42,-82.78,29.3,2996.71,0.0,0.0,187,31,6567,,,,,,,916,123,34740,187,28,8668,30,8,1895,224,33,13718,73,30,2271,260,55,11004,,,,145,45,5450,60,10,1562,554,54,21882,94,15,3313,1034,86,19559,302,97,7368,,,
12077,Liberty County,8,-94.79,30.09,2183.16,0.0,0.0,103,10,3925,,,,,,,60,18,2106,8,3,372,,,,,,,,,,27,3,1089,,,,3,4,167,,,,261,10,10039,,,,,,,27,10,727,,,
12079,Madison County,18,-95.95,30.96,1854.13,0.0,0.0,59,7,3054,,,,66,6,5082,104,32,3150,106,11,5418,29,5,1045,75,16,4098,25,10,843,85,13,2553,,,,16,9,681,56,3,2361,980,50,31338,4,3,147,170,25,3383,117,41,2107,,,
12081,Manatee County,395,-82.38,27.52,2060.79,2.44,2.41,1217,27,36824,,,,227,14,24717,9231,1295,510469,3993,428,261481,1517,133,107042,3337,563,311970,2788,826,138028,5128,1260,332875,2114,73,124808,8078,846,437475,2477,141,108695,15966,1084,837073,2653,178,107660,13165,711,302458,4505,919,144178,13,10,575
12083,Marion County,370,-94.34,32.79,4306.34,1.79,0.11,416,81,17036,65,6,4540,182,9,17941,6562,993,316973,4435,328,293522,845,109,46189,2045,380,142218,1843,507,69034,2985,740,163554,1074,25,61871,4758,540,153910,1035,60,36937,16320,970,869949,1514,122,42221,9548,533,188595,4568,750,143066,4,8,356
12085,Martin County,158,-101.92,32.27,1756.64,1.87,0.88,31,18,1287,51,3,2063,319,10,34743,4720,734,247918,1256,212,99773,808,77,56292,1971,334,194105,1288,405,77393,3043,855,198801,287,16,23346,5245,485,227931,600,64,22274,14349,630,776234,2355,120,78856,7631,424,166449,3122,553,110981,9,6,305
12086,Miami-Dade County,2690,-80.5,25.64,5230.16,5.65,11.96,264,50,7986,673,19,62901,3165,64,356561,42983,6394,2319204,66375,8505,4489306,23947,1653,2649405,50450,5270,6377570,24070,6868,1558005,78544,16690,7403009,18302,358,2009303,65686,4632,2708370,36266,1212,2174923,148943,10730,8904684,13436,1451,1033841,110764,6252,3323855,37877,6892,1360195,208,136,9715
12089,Nassau County,88,-73.56,40.74,1736.22,1.93,0.07,133,19,10040,,,,136,8,10595,1144,264,48925,341,39,16881,122,27,8840,434,90,30902,543,159,29316,714,232,40975,258,5,36867,789,120,29376,175,25,5756,3025,227,142526,646,48,18285,4664,190,121102,1236,212,40781,,,
12105,Polk County,713,-94.82,30.76,5206.76,2.13,0.96,322,39,13958,842,19,77963,404,27,47722,12479,1631,619812,9643,626,576434,2384,188,125074,10702,683,820907,4205,871,186496,7345,1205,430796,11743,58,848377,12988,940,427567,4829,182,168708,30087,1287,1635971,3148,155,68358,19094,1004,364188,7951,1270,260098,18,19,570
12091,Okaloosa County,209,-86.6,30.68,2576.25,2.07,0.66,27,11,727,,,,271,17,21167,3074,601,145811,1062,139,80663,506,76,22561,1946,291,160994,2081,506,97696,7576,781,630883,115,16,8395,3876,374,198041,417,54,17867,8865,650,492595,1124,104,29504,11078,570,271379,4287,531,124002,15,8,195
12093,Okeechobee County,40,-80.89,27.39,2308.78,0.0,0.0,23,8,775,,,,24,4,2342,541,128,22038,256,26,12286,79,12,3233,193,37,9660,124,49,4773,218,61,9307,,,,386,63,16281,50,3,1315,1408,113,73331,287,16,10178,978,59,17384,403,92,11693,,,
12095,Orange County,1410,-117.87,33.75,2598.6,3.05,11.49,152,20,5482,26,5,1202,1376,43,91178,38065,4124,2380259,33604,1979,2439465,21647,972,1926863,26220,2268,2517367,22135,3584,1534823,64674,6491,6187193,25821,389,2494025,56135,2914,2208351,13834,641,677443,87173,4119,5452827,58701,892,1991311,103784,3672,2954737,35406,3408,1362045,84,56,2286
12097,Osceola County,380,-81.14,28.04,3900.98,2.56,1.79,19,7,785,,,,61,8,5506,7288,1016,301975,2608,193,114786,745,116,37451,1414,319,79229,4931,701,180021,2177,649,111466,120,15,9360,4289,587,127573,1538,121,45001,13763,820,851598,5526,109,156469,16818,806,424484,3086,664,102714,6,11,135
12099,Palm Beach County,1481,-80.45,26.63,5765.74,2.88,6.28,553,201,29166,95,9,7048,5545,87,987465,37603,5150,2360509,21374,2387,1713468,11670,857,1409859,22973,3369,3581746,15005,3859,1069718,45994,9462,3996003,17769,252,1897452,44016,3959,1930968,11587,747,494823,90619,6530,5056125,19666,1027,784395,63953,3232,1646891,26599,4651,1031372,151,84,7665
12101,Pasco County,552,-82.45,28.3,1991.87,2.23,2.45,71,22,2914,,,,1186,23,82714,9227,1302,471154,2866,368,196317,1193,157,81724,2895,594,175300,1988,735,78200,5236,1295,305402,1148,37,132975,6846,840,257291,2642,151,111436,23633,1486,1359844,1181,157,25751,14091,823,275930,4700,968,141647,8,16,665
12103,Pinellas County,958,-82.73,27.88,849.73,2.47,33.22,66,28,2415,,,,1268,47,135575,21844,2666,1205093,13169,1276,899894,10761,505,814445,28433,1989,2961960,8334,2255,422932,32597,4868,2385826,10565,148,1054180,24175,1966,1096693,6959,402,420308,73563,3797,4339744,7123,561,263913,44775,2474,1108024,17200,2649,556276,32,31,1779
12107,Putnam County,73,-89.27,41.2,2141.78,1.8,0.1,137,10,5642,23,4,1466,315,8,33571,1057,196,41821,176,33,7593,126,20,6207,279,51,14177,146,51,4297,307,87,11644,,,,437,87,16503,95,9,3790,2607,151,110156,54,16,1170,1637,103,26514,731,159,17983,,,
12117,Seminole County,467,-81.24,28.72,894.38,2.29,10.09,41,8,2176,,,,614,24,60962,19154,1735,1177508,6175,670,441773,6077,302,543065,16641,1032,1312464,3750,994,204547,16002,2224,1414039,6421,105,679328,15273,1041,594508,2849,241,100321,21350,1543,1116220,2428,269,67213,17413,966,364285,9489,1184,321039,20,17,553
12109,St. Johns County,266,-81.41,29.9,1744.26,1.94,0.41,24,6,733,17,4,839,72,7,8578,5449,762,329044,1851,248,187141,630,111,47064,1944,444,255142,2032,688,105140,4350,1195,264880,285,23,27348,3987,525,158037,2813,129,97991,9336,818,485917,1779,162,50004,13976,695,338805,4675,614,270544,7,6,97
12111,St. Lucie County,325,-80.46,27.39,1583.72,1.91,3.16,108,8,5877,,,,758,15,109327,5605,1047,256396,2243,293,125580,641,76,39285,1344,285,85599,1088,368,42789,2252,656,124071,278,18,13395,6710,548,191623,1341,79,46302,12987,899,735977,928,95,20979,9459,513,182691,2688,616,83748,4,10,153
12113,Santa Rosa County,184,-87.01,30.7,2974.5,1.88,0.2,99,13,3413,,,,306,18,20725,2756,469,156297,740,74,34352,562,44,30811,735,170,50587,513,273,21129,1576,387,91771,84,6,4137,3155,227,124091,416,32,18234,4672,360,234446,428,45,8168,5333,257,96271,1582,306,45922,,,
12115,Sarasota County,429,-82.36,27.18,1568.5,2.08,2.98,37,11,1417,34,4,2278,316,19,34233,13495,1995,761398,4618,514,288055,2222,197,189814,5060,918,582457,4196,1285,222728,10153,2063,700130,2259,67,246652,9402,1224,395898,2513,181,93955,29380,1737,1740445,3388,227,101776,18649,1017,483379,7555,1389,268203,19,15,2447
12119,Sumter County,127,-82.08,28.67,1502.06,1.83,0.31,28,5,870,83,4,5858,680,9,60484,3843,171,228437,567,62,30184,96,19,5229,1014,133,79602,2348,191,71682,714,175,44704,,,,1310,121,52168,590,18,19793,6010,254,321242,176,25,3756,3740,167,83177,711,137,22175,3,5,137
12133,Washington County,25,-96.39,30.22,1595.37,0.0,0.0,73,7,3998,,,,23,3,1878,385,75,14935,157,11,8480,36,11,1513,88,22,4600,25,19,602,266,34,16131,,,,342,20,12791,38,3,902,738,42,33197,87,8,2929,484,36,7450,296,53,5554,,,
12121,Suwannee County,44,-82.99,30.21,1792.88,0.0,0.0,71,11,3535,26,3,1258,166,4,13505,616,89,36942,300,23,12023,78,12,4306,122,22,7084,72,33,2444,203,59,6649,53,3,3266,211,32,7976,23,5,669,1195,65,42306,22,7,304,1046,55,16644,325,73,9777,,,
12123,Taylor County,22,-99.88,32.28,2728.62,0.0,0.0,222,15,11838,,,,16,4,1597,85,25,3191,102,18,4772,36,7,1531,54,14,2761,36,18,981,314,31,24127,,,,59,15,1168,,,,525,41,22571,11,3,161,550,42,9634,341,49,7815,,,
12125,Union County,16,-89.25,37.46,647.07,0.0,0.0,36,3,1735,,,,,,,159,25,7095,41,6,2001,,,,12,3,394,20,6,538,7,5,350,,,,70,7,4005,,,,300,11,13057,,,,62,5,1393,37,18,1098,,,
12129,Wakulla County,33,-84.35,30.15,1633.01,0.0,0.0,23,5,479,,,,67,7,5064,473,108,18266,14,7,565,169,8,7208,71,17,5012,36,18,1093,159,41,9390,,,,124,31,3741,7,4,240,156,32,5793,57,7,1212,675,40,11420,230,57,6327,,,
12127,Volusia County,549,-81.13,29.05,3279.19,2.0,1.24,45,16,824,25,6,1219,444,22,46211,10801,1734,516838,3762,447,212115,2167,200,97965,5575,724,413968,3168,918,138408,7997,1457,602409,1373,36,251942,8151,1005,324700,7160,161,271560,28448,1548,1513362,5365,236,169513,23369,1315,494296,7287,1377,209642,6,8,220
12131,Walton County,73,-86.19,30.62,2972.83,0.0,0.0,24,7,901,22,6,1262,314,16,20369,2850,429,146079,729,80,44299,224,41,17821,533,141,59740,1656,457,95547,941,330,59360,5,5,816,1411,195,64456,175,17,6495,2241,166,120613,252,44,7241,6192,286,209055,871,206,31174,0,4,118
