Fips,Name,Population,Longitude,Latitude,Km2,UrbanDensity,PercentUrban,Emp-11,Est-11,Pay-11,Emp-21,Est-21,Pay-21,Emp-22,Est-22,Pay-22,Emp-23,Est-23,Pay-23,Emp-42,Est-42,Pay-42,Emp-51,Est-51,Pay-51,Emp-52,Est-52,Pay-52,Emp-53,Est-53,Pay-53,Emp-54,Est-54,Pay-54,Emp-55,Est-55,Pay-55,Emp-56,Est-56,Pay-56,Emp-61,Est-61,Pay-61,Emp-62,Est-62,Pay-62,Emp-71,Est-71,Pay-71,Emp-72,Est-72,Pay-72,Emp-81,Est-81,Pay-81,Emp-99,Est-99,Pay-99
41001,Baker County,17,-82.28,30.31,7999.18,0.0,0.0,7,8,250,141,3,6308,146,6,14244,254,75,9086,59,14,1957,57,9,2608,98,24,4955,30,17,1389,219,44,8664,,,,81,19,2879,196,3,10837,674,53,36543,84,10,2073,522,58,11403,157,50,4079,,,
41003,Benton County,95,-94.05,45.72,1756.98,3.46,0.75,473,48,30024,10,3,778,,,,1146,204,69084,304,52,19001,380,49,22950,642,115,60319,512,137,21573,2762,261,255201,2948,8,497696,603,93,24222,457,36,14759,6037,294,383348,234,35,5420,3147,234,65481,1399,205,55138,,,
41005,Clackamas County,419,-122.23,45.16,4875.09,2.32,1.75,890,67,35278,173,11,11762,351,23,34035,13937,1941,913889,10623,657,781695,3673,200,411345,5652,801,661753,3151,763,198966,7882,1427,668325,1632,81,172525,8718,684,391746,1461,151,50269,22935,1409,1446009,1813,207,53516,12990,910,326989,6908,989,229887,12,14,699
41071,Yamhill County,107,-123.22,45.23,1860.49,2.22,0.92,864,50,38075,29,3,1862,58,8,4814,2131,411,127310,844,84,61336,284,39,24165,655,110,52285,355,132,16888,829,213,47813,247,8,15685,1093,137,36817,2957,42,72943,5168,299,238089,91,21,3331,2924,245,76655,1418,248,42168,,,
41007,Clatsop County,41,-123.67,45.98,2209.13,2.03,0.05,247,37,14993,,,,36,6,3718,942,209,51192,189,30,13187,110,25,6097,262,51,19411,404,91,17616,328,102,12680,83,5,5784,315,65,11210,56,15,1321,2534,142,140523,273,30,8960,3837,282,106288,558,125,14548,7,3,163
41009,Columbia County,52,-76.42,41.04,1784.87,1.82,0.14,162,28,10597,74,7,6840,143,7,17131,619,149,38073,92,15,4571,47,15,2467,327,49,24064,67,38,2947,328,84,15835,,,,326,39,12989,131,14,9219,1185,127,45920,49,15,720,1197,101,26318,408,93,11863,,,
41011,Coos County,65,-124.11,43.22,4214.04,1.95,0.06,638,71,36392,56,6,3332,33,3,4416,1018,193,56911,361,45,18559,212,40,9729,469,72,30998,292,76,9326,469,109,22818,28,3,1462,1691,84,61314,59,13,2056,4138,209,231938,799,26,31303,1866,169,53795,571,134,14409,,,
41013,Crook County,24,-120.38,44.15,7736.14,3.64,0.01,48,17,3884,16,4,996,3,3,263,782,112,68677,148,17,9816,93,12,8847,94,23,5414,68,31,4961,160,49,8606,,,,151,31,5371,72,8,1462,590,43,31550,21,9,549,595,48,13621,235,64,7722,,,
41015,Curry County,23,-124.22,42.43,4237.46,1.59,0.02,121,31,5808,,,,65,3,7214,398,100,16781,25,9,976,39,16,2172,197,28,12699,101,49,2816,139,34,5800,,,,86,20,3931,19,3,421,1104,98,51647,30,12,1787,969,113,24109,158,44,4328,,,
41017,Deschutes County,195,-121.17,43.82,7907.49,2.26,0.28,279,48,18025,73,5,4383,391,30,37535,7540,1350,483495,1678,283,116998,1890,158,131460,2406,360,222829,1424,646,75575,4331,1037,301593,156,29,14222,5373,461,268440,1024,103,32396,11921,897,794076,2197,170,51110,9713,672,282714,3006,587,112581,8,13,487
41019,Douglas County,111,-88.22,39.76,13130.5,2.21,0.06,1090,120,64934,43,6,2648,149,11,17449,1900,348,101937,746,61,44219,339,30,15966,808,126,51950,281,118,10033,945,165,45294,82,9,6564,2456,131,81122,177,17,5041,6675,328,502074,316,29,8242,3562,264,82537,1063,243,32464,9,6,254
41021,Gilliam County,2,-120.22,45.33,3166.28,0.0,0.0,,,,,,,41,5,3101,23,3,594,26,6,1100,,,,13,4,708,,,,,,,,,,226,5,12337,,,,80,9,2285,,,,29,7,624,15,7,348,,,
41025,Harney County,7,-119.02,43.06,26494.21,0.0,0.0,68,9,3566,,,,22,3,2159,80,32,3462,40,7,1714,13,6,453,30,9,1372,16,7,536,86,12,3693,,,,60,5,1430,56,3,2558,349,19,20927,12,3,266,219,31,4372,50,19,1946,,,
41023,Grant County,7,-96.03,45.94,11723.16,0.0,0.0,86,19,4776,,,,,,,135,34,6339,28,4,1260,50,6,3097,58,11,2624,12,12,352,79,17,3439,,,,43,6,773,,,,376,18,18929,8,3,192,171,25,3688,68,18,1966,,,
41027,Hood River County,24,-121.65,45.53,1381.43,1.8,0.12,94,13,4970,,,,38,7,3743,501,117,26019,903,40,42824,128,20,8522,148,29,17167,113,43,5348,525,133,33070,83,3,3437,169,36,5936,67,20,1712,1924,139,99141,1261,23,14670,1319,107,41864,341,68,11626,,,
41029,Jackson County,222,-96.56,28.92,7255.37,2.55,0.55,1342,112,92118,110,14,6806,233,10,22509,4838,870,299681,2805,255,190544,1186,119,77871,2332,321,208924,1190,382,51476,2610,587,150633,4335,34,279118,3391,341,124406,1166,90,41753,16903,793,1022274,990,113,34331,8565,645,187431,2727,462,103208,11,10,353
41031,Jefferson County,24,-94.17,29.83,4640.32,0.0,0.0,26,8,1515,4,3,166,48,4,4551,141,51,7026,169,19,9536,39,11,1547,71,14,2882,57,27,2289,75,29,3592,,,,141,22,7018,12,3,117,735,39,32803,197,9,8928,528,50,12059,163,38,4456,,,
41033,Josephine County,88,-123.56,42.36,4250.0,2.17,0.14,361,28,23035,,,,47,5,7055,1156,293,53114,537,57,32235,176,35,9779,732,103,52182,505,117,27152,920,151,36851,113,8,11131,1692,116,65014,255,26,7723,5236,294,283434,261,27,7778,2805,216,69067,728,159,23185,9,4,96
41035,Klamath County,69,-121.74,42.61,15895.99,2.07,0.03,166,24,10088,,,,99,14,11319,894,190,48981,466,60,25081,178,23,6896,452,60,30032,250,81,9379,739,98,33847,1280,8,105255,563,72,17780,152,13,4683,3583,189,200511,346,26,8855,2147,186,49692,662,152,18305,,,
41039,Lane County,381,-100.48,38.47,11964.55,2.82,0.66,1295,138,78212,188,13,12453,132,10,12669,7949,1157,484883,5808,388,371544,1643,185,99843,5208,495,444598,2256,647,97836,5894,985,355563,2299,60,186280,7004,501,277022,1563,140,48677,23596,1302,1421479,1397,170,37316,12676,988,314402,4791,917,176416,10,10,176
41041,Lincoln County,50,-81.21,35.49,2572.33,2.12,0.03,231,83,12599,,,,27,3,3637,719,187,35032,116,32,6385,164,29,7452,252,55,16223,427,78,14816,254,87,15232,179,4,8875,589,73,21711,99,11,3692,1672,108,105879,657,24,30133,3641,288,106006,429,123,11593,,,
41037,Lake County,8,-122.78,39.05,21651.87,1.58,0.0,33,6,1691,,,,18,3,913,63,24,3324,28,7,1741,11,5,683,24,6,1193,12,5,423,70,14,3383,,,,18,6,568,,,,411,14,22209,22,5,302,207,27,3498,56,16,1248,,,
41043,Linn County,127,-91.6,42.06,5980.01,2.97,0.18,628,80,38472,29,6,2132,120,8,15616,3077,392,184263,1386,109,97139,244,44,10851,911,139,55516,333,143,12662,1237,179,95346,181,6,21135,1685,142,55555,382,24,15719,5788,240,291442,179,38,3823,3204,244,65802,1763,263,50508,,,
41045,Malheur County,31,-117.69,43.1,25717.98,0.0,0.0,127,8,4648,70,4,4856,41,4,2245,222,56,9805,468,35,17616,178,10,10841,178,31,10928,77,30,3219,388,53,20854,,,,95,22,3399,53,3,2057,1479,94,68022,22,3,625,1023,86,21275,275,82,7206,,,
41047,Marion County,344,-94.34,32.79,3087.12,2.68,2.64,1681,90,100940,80,10,5351,204,8,26670,10493,1443,714370,3148,300,197241,1903,115,115127,2840,452,227642,2012,488,87354,4117,716,248497,1009,41,72863,6757,517,263875,2949,102,101567,21754,1172,1276001,1091,127,28969,10721,797,245310,4889,735,173566,15,15,587
41049,Morrow County,12,-82.78,40.46,5301.49,0.0,0.0,65,9,3884,,,,96,8,13377,40,16,2036,68,13,3973,110,5,9630,89,12,5697,20,8,480,27,4,3037,,,,633,12,11399,,,,429,19,20682,,,,195,22,4168,50,17,1864,,,
41051,Multnomah County,810,-122.4,45.51,1205.43,4.01,19.69,401,24,38879,70,7,4037,4351,57,489409,24066,1998,2056949,22791,1272,1774603,12624,670,1489499,20413,1157,2344106,10710,1757,656923,36583,4098,3506771,11962,183,1343254,22414,1213,1004931,12430,506,540641,72811,3608,4750451,5017,546,228327,35772,3107,1076687,18033,2563,834378,38,26,1176
41053,Polk County,86,-94.82,30.76,1926.86,2.24,0.88,580,47,47199,,,,62,6,6284,1579,250,91385,412,40,21160,103,23,5585,261,70,16341,219,91,8869,460,122,22580,33,5,1675,716,81,24577,111,12,3339,3248,227,133398,216,25,3010,2915,143,93721,656,146,22101,,,
41055,Sherman County,2,-101.89,36.25,2152.64,0.0,0.0,,,,,,,34,6,2640,12,3,554,34,6,2811,,,,,,,,,,,,,,,,,,,,,,10,3,160,,,,67,7,2062,17,6,587,,,
41057,Tillamook County,27,-123.73,45.46,2913.89,1.7,0.01,245,26,14227,,,,8,3,104,489,104,30458,243,14,11831,49,14,2375,98,26,5197,183,47,6781,146,44,8101,,,,183,25,6328,23,10,516,1042,50,59783,78,11,1846,1209,133,35441,219,68,6851,,,
41059,Umatilla County,80,-118.77,45.64,8369.13,2.33,0.05,714,31,33094,176,5,14456,154,6,17300,1071,179,60476,962,66,55508,200,29,11519,513,93,36509,190,76,7796,583,86,36535,38,4,2427,1555,72,68750,289,5,9163,3404,199,186568,85,18,2457,3077,175,84464,1830,164,41469,,,
41061,Union County,26,-89.25,37.46,5281.11,2.23,0.04,48,21,5171,,,,37,4,3946,564,122,27487,242,21,13358,92,20,4099,170,38,11191,82,24,3420,355,57,17813,,,,225,40,9517,7,5,292,1401,84,90200,39,10,890,839,68,16645,332,85,8949,,,
41063,Wallowa County,7,-117.2,45.56,8162.57,0.0,0.0,48,17,3210,,,,,,,170,65,9662,67,6,3817,,,,55,8,2834,235,20,8743,100,26,4223,,,,24,18,1338,17,4,386,460,31,23837,15,11,833,202,45,5759,84,29,3029,,,
41065,Wasco County,27,-121.22,45.04,6201.49,2.39,0.03,45,6,3475,,,,32,5,3446,325,77,18196,165,30,9758,222,21,33851,250,34,15865,77,42,2966,241,41,14922,100,4,5023,138,38,5951,54,7,2178,2069,86,100048,37,14,1236,878,70,21989,318,71,8312,,,
41067,Washington County,597,-96.39,30.22,1882.09,2.99,8.93,344,41,17270,,,,1054,16,101853,18100,1765,1340628,17650,831,1845177,7250,331,976753,12913,918,1162830,4536,1040,263086,21156,1976,2437340,26937,138,4047563,19465,1114,920275,5224,284,193633,33354,2195,1853498,2720,267,211025,20035,1313,503372,8951,1204,461751,27,19,485
41069,Wheeler County,1,-100.26,35.39,4446.93,0.0,0.0,,,,,,,,,,,,,,,,,,,,,,,,,,,,,,,,,,,,,,,,,,,8,4,115,,,,,,
