Fips,Name,Population,Longitude,Latitude,Km2,UrbanDensity,UrbanPercent,Emp-11,Est-11,Pay-11,Emp-21,Est-21,Pay-21,Emp-22,Est-22,Pay-22,Emp-23,Est-23,Pay-23,Emp-42,Est-42,Pay-42,Emp-51,Est-51,Pay-51,Emp-52,Est-52,Pay-52,Emp-53,Est-53,Pay-53,Emp-54,Est-54,Pay-54,Emp-55,Est-55,Pay-55,Emp-56,Est-56,Pay-56,Emp-61,Est-61,Pay-61,Emp-62,Est-62,Pay-62,Emp-71,Est-71,Pay-71,Emp-72,Est-72,Pay-72,Emp-81,Est-81,Pay-81,Emp-99,Est-99,Pay-99
19001,Adair County,7,-92.62,40.18,1476.99,0.0,0.0,,,,,,,,,,126.0,27.0,4800.0,115.0,11.0,5213.0,,,,73.0,15.0,4025.0,25.0,6.0,328.0,41.0,12.0,1254.0,,,,48.0,6.0,380.0,,,,388.0,27.0,11991.0,25.0,8.0,298.0,219.0,18.0,2303.0,66.0,20.0,1625.0,,,
19003,Adams County,4,-91.21,39.98,1102.19,0.0,0.0,,,,,,,,,,11.0,10.0,677.0,77.0,6.0,4334.0,,,,27.0,7.0,1334.0,,,,20.0,7.0,683.0,,,,8.0,4.0,180.0,,,,396.0,14.0,17800.0,,,,39.0,7.0,390.0,41.0,15.0,652.0,,,
19005,Allamakee County,14,-91.4,43.3,1706.11,0.01,0.01,3.0,4.0,85.0,,,,,,,157.0,37.0,10236.0,287.0,30.0,13795.0,28.0,6.0,705.0,241.0,20.0,11869.0,25.0,14.0,744.0,91.0,20.0,3644.0,,,,20.0,13.0,699.0,0.0,3.0,0.0,893.0,43.0,29817.0,30.0,7.0,314.0,235.0,35.0,2479.0,184.0,51.0,4355.0,,,
19007,Appanoose County,13,-92.86,40.75,1337.01,0.01,0.0,,,,32.0,5.0,979.0,0.0,5.0,0.0,51.0,16.0,1307.0,100.0,15.0,3488.0,43.0,11.0,1637.0,108.0,19.0,4081.0,11.0,6.0,233.0,90.0,21.0,3073.0,,,,66.0,10.0,1728.0,10.0,3.0,92.0,643.0,31.0,24818.0,50.0,5.0,599.0,541.0,32.0,6919.0,108.0,34.0,2364.0,,,
19009,Audubon County,6,-94.91,41.67,1148.26,0.01,0.0,,,,,,,,,,75.0,24.0,2782.0,117.0,15.0,5537.0,,,,79.0,14.0,3841.0,,,,23.0,10.0,750.0,0.0,3.0,0.0,19.0,8.0,465.0,,,,309.0,17.0,10757.0,,,,61.0,9.0,510.0,91.0,29.0,1956.0,,,
19011,Benton County,26,-94.05,45.72,1860.91,0.01,0.15,40.0,6.0,1850.0,,,,,,,288.0,72.0,16556.0,437.0,37.0,21612.0,75.0,14.0,2986.0,198.0,44.0,10514.0,29.0,13.0,597.0,72.0,28.0,2674.0,,,,126.0,28.0,3693.0,0.0,4.0,0.0,825.0,55.0,27165.0,38.0,7.0,772.0,279.0,33.0,3309.0,246.0,71.0,5185.0,,,
19013,Black Hawk County,133,-92.3,42.46,1483.05,0.09,0.19,15.0,3.0,1325.0,0.0,8.0,0.0,0.0,6.0,0.0,2354.0,250.0,137425.0,2863.0,158.0,153767.0,787.0,51.0,38948.0,2194.0,261.0,130244.0,778.0,147.0,26404.0,3136.0,212.0,202553.0,831.0,22.0,62123.0,3782.0,163.0,144275.0,668.0,45.0,20983.0,10909.0,377.0,496803.0,709.0,60.0,11233.0,6799.0,319.0,99006.0,2625.0,337.0,61368.0,3.0,3.0,15.0
19015,Boone County,26,-88.82,42.32,1485.79,0.02,0.51,,,,,,,0.0,4.0,0.0,863.0,84.0,44718.0,250.0,28.0,14993.0,440.0,13.0,11826.0,164.0,37.0,8434.0,52.0,18.0,1175.0,138.0,37.0,6356.0,,,,112.0,29.0,4470.0,54.0,5.0,565.0,1637.0,53.0,55025.0,141.0,21.0,2206.0,521.0,42.0,6424.0,332.0,77.0,8286.0,,,
19017,Bremer County,25,-92.31,42.77,1138.02,0.02,0.16,,,,,,,,,,513.0,78.0,24621.0,251.0,26.0,11064.0,135.0,15.0,3945.0,918.0,72.0,56447.0,25.0,12.0,388.0,235.0,33.0,7540.0,0.0,5.0,0.0,378.0,17.0,14218.0,0.0,5.0,0.0,1901.0,64.0,69983.0,32.0,12.0,367.0,578.0,52.0,7056.0,406.0,91.0,9651.0,,,
19019,Buchanan County,21,-94.79,39.67,1484.54,0.01,0.08,,,,,,,,,,332.0,64.0,15728.0,326.0,33.0,16098.0,60.0,9.0,1942.0,235.0,39.0,12808.0,20.0,9.0,943.0,110.0,22.0,3823.0,,,,471.0,25.0,15260.0,,,,956.0,40.0,36709.0,63.0,7.0,679.0,347.0,38.0,3980.0,215.0,43.0,4408.0,,,
19021,Buena Vista County,20,-95.11,42.74,1502.82,0.01,0.15,13.0,8.0,354.0,,,,72.0,6.0,5779.0,211.0,58.0,11718.0,265.0,28.0,14629.0,90.0,11.0,2926.0,293.0,54.0,15777.0,68.0,18.0,3019.0,208.0,34.0,10343.0,7.0,3.0,709.0,246.0,21.0,8345.0,0.0,5.0,0.0,1291.0,51.0,46857.0,64.0,15.0,1206.0,656.0,42.0,7391.0,236.0,68.0,5399.0,,,
19023,Butler County,15,-79.93,40.92,1506.74,0.01,0.38,18.0,5.0,739.0,,,,,,,85.0,36.0,4223.0,189.0,29.0,9224.0,0.0,4.0,0.0,133.0,32.0,5859.0,,,,45.0,19.0,1367.0,,,,13.0,11.0,456.0,,,,503.0,29.0,12399.0,4.0,5.0,160.0,125.0,19.0,829.0,141.0,50.0,3460.0,,,
19025,Calhoun County,10,-96.67,28.5,1482.18,0.01,0.3,,,,,,,,,,86.0,30.0,3370.0,224.0,22.0,10879.0,9.0,4.0,440.0,107.0,23.0,4870.0,0.0,3.0,0.0,39.0,13.0,1492.0,,,,13.0,7.0,260.0,,,,646.0,31.0,21952.0,12.0,4.0,194.0,107.0,14.0,964.0,170.0,38.0,3207.0,,,
19027,Carroll County,20,-89.96,42.06,1476.8,0.01,0.01,18.0,10.0,1028.0,,,,46.0,5.0,3429.0,408.0,115.0,16900.0,1305.0,62.0,51867.0,149.0,14.0,5557.0,803.0,74.0,38082.0,113.0,20.0,4172.0,195.0,40.0,8133.0,,,,218.0,24.0,7000.0,0.0,7.0,0.0,2213.0,110.0,80841.0,56.0,10.0,778.0,711.0,53.0,8913.0,381.0,92.0,7792.0,,,
19029,Cass County,13,-94.35,33.06,1463.09,0.01,0.0,11.0,4.0,328.0,,,,,,,411.0,46.0,23004.0,259.0,25.0,9950.0,106.0,15.0,2911.0,207.0,46.0,9210.0,74.0,15.0,3345.0,136.0,23.0,5906.0,11.0,3.0,429.0,65.0,20.0,1776.0,0.0,5.0,0.0,1146.0,48.0,40845.0,35.0,5.0,559.0,377.0,31.0,4330.0,349.0,61.0,6032.0,,,
19031,Cedar County,18,-91.13,41.76,1507.05,0.01,0.0,,,,,,,,,,287.0,71.0,13159.0,463.0,31.0,22717.0,157.0,7.0,4191.0,130.0,26.0,5375.0,22.0,13.0,678.0,107.0,24.0,4149.0,,,,52.0,13.0,1537.0,,,,627.0,52.0,16706.0,65.0,13.0,652.0,304.0,35.0,3217.0,147.0,56.0,3430.0,,,
19033,Cerro Gordo County,43,-93.25,43.07,1489.63,0.03,0.06,27.0,8.0,2180.0,0.0,4.0,0.0,,,,872.0,116.0,50259.0,1180.0,98.0,60621.0,422.0,23.0,21324.0,996.0,136.0,54172.0,162.0,65.0,4806.0,613.0,104.0,34778.0,,,,748.0,77.0,21905.0,217.0,11.0,5640.0,3889.0,140.0,174283.0,231.0,37.0,2959.0,2084.0,126.0,30232.0,827.0,164.0,20155.0,,,
19035,Cherokee County,12,-95.18,31.84,1494.81,0.01,0.0,,,,0.0,3.0,0.0,19.0,3.0,1358.0,209.0,39.0,11629.0,191.0,22.0,9171.0,39.0,7.0,1157.0,165.0,24.0,7227.0,13.0,8.0,159.0,79.0,16.0,2909.0,,,,58.0,12.0,1720.0,0.0,3.0,0.0,870.0,42.0,38035.0,7.0,4.0,171.0,289.0,27.0,3496.0,118.0,38.0,2641.0,,,
19037,Chickasaw County,12,-92.32,43.06,1309.81,0.01,0.01,,,,,,,,,,230.0,59.0,13994.0,376.0,36.0,18873.0,22.0,4.0,672.0,157.0,29.0,6512.0,11.0,8.0,358.0,56.0,19.0,2177.0,,,,9.0,5.0,374.0,,,,547.0,34.0,18839.0,58.0,7.0,751.0,245.0,27.0,2506.0,173.0,48.0,3718.0,,,
19039,Clarke County,9,-93.78,41.02,1118.24,0.01,0.0,,,,,,,,,,23.0,11.0,648.0,84.0,12.0,3361.0,,,,84.0,15.0,4091.0,11.0,5.0,127.0,35.0,11.0,1900.0,,,,73.0,9.0,2162.0,,,,506.0,27.0,17720.0,9.0,3.0,121.0,526.0,18.0,11276.0,108.0,23.0,1722.0,,,
19041,Clay County,16,-98.21,33.69,1483.23,0.01,0.02,6.0,3.0,204.0,,,,49.0,4.0,3599.0,401.0,68.0,17630.0,713.0,56.0,26504.0,180.0,14.0,7053.0,288.0,41.0,15087.0,97.0,23.0,2945.0,181.0,37.0,9184.0,,,,278.0,21.0,5837.0,58.0,3.0,1401.0,1560.0,61.0,70767.0,175.0,8.0,2075.0,682.0,53.0,9179.0,331.0,65.0,7416.0,,,
19043,Clayton County,18,-84.36,33.52,2053.31,0.01,0.0,10.0,5.0,272.0,,,,,,,467.0,64.0,38930.0,367.0,26.0,20058.0,88.0,10.0,2761.0,184.0,37.0,9042.0,15.0,10.0,757.0,93.0,24.0,3087.0,,,,51.0,14.0,1244.0,40.0,3.0,816.0,1134.0,69.0,32116.0,170.0,11.0,4949.0,337.0,52.0,3448.0,205.0,64.0,3736.0,,,
19045,Clinton County,48,-89.42,38.59,1839.48,0.03,0.09,15.0,9.0,398.0,,,,104.0,4.0,9519.0,892.0,117.0,42192.0,340.0,44.0,19674.0,493.0,26.0,15505.0,719.0,88.0,38619.0,106.0,36.0,4283.0,289.0,60.0,12992.0,124.0,3.0,6801.0,1152.0,56.0,29794.0,88.0,6.0,1383.0,2830.0,129.0,98758.0,206.0,22.0,2897.0,2031.0,109.0,26605.0,631.0,148.0,12899.0,,,
19047,Crawford County,17,-80.14,41.7,1851.89,0.01,0.01,,,,,,,47.0,4.0,3590.0,288.0,58.0,15937.0,256.0,22.0,12651.0,104.0,13.0,3613.0,209.0,41.0,11346.0,10.0,10.0,381.0,93.0,21.0,3131.0,,,,61.0,9.0,3010.0,70.0,6.0,1498.0,892.0,39.0,34514.0,33.0,8.0,546.0,417.0,35.0,4470.0,194.0,46.0,4260.0,,,
19049,Dallas County,81,-96.78,32.76,1532.27,0.05,0.31,44.0,7.0,2181.0,,,,,,,1440.0,243.0,69014.0,1253.0,90.0,89283.0,640.0,42.0,36867.0,13863.0,213.0,1064454.0,968.0,125.0,60369.0,1450.0,251.0,90556.0,417.0,7.0,36522.0,1579.0,111.0,82197.0,234.0,23.0,4992.0,4106.0,200.0,169167.0,597.0,33.0,9684.0,3403.0,168.0,57887.0,951.0,166.0,22853.0,5.0,4.0,143.0
19051,Davis County,9,-92.4,40.75,1307.57,0.01,0.38,,,,,,,,,,63.0,21.0,2326.0,106.0,14.0,3617.0,27.0,3.0,1360.0,66.0,12.0,4164.0,10.0,6.0,308.0,49.0,11.0,1687.0,,,,54.0,7.0,1015.0,,,,427.0,20.0,17704.0,16.0,4.0,402.0,86.0,11.0,1034.0,56.0,20.0,1171.0,,,
19053,Decatur County,8,-84.57,30.87,1381.5,0.01,0.0,,,,,,,,,,52.0,17.0,2213.0,85.0,11.0,3021.0,0.0,3.0,0.0,34.0,9.0,1447.0,8.0,4.0,326.0,29.0,7.0,600.0,,,,0.0,4.0,0.0,,,,328.0,16.0,12574.0,14.0,3.0,98.0,88.0,9.0,1132.0,38.0,14.0,1168.0,,,
19055,Delaware County,17,-75.4,39.92,1499.53,0.01,0.0,3.0,7.0,200.0,,,,,,,274.0,72.0,13290.0,426.0,33.0,21047.0,49.0,8.0,1705.0,271.0,37.0,14975.0,39.0,8.0,1111.0,96.0,25.0,4807.0,,,,216.0,27.0,4630.0,46.0,4.0,509.0,1152.0,37.0,40451.0,54.0,8.0,848.0,259.0,29.0,2936.0,247.0,59.0,5986.0,,,
19057,Des Moines County,40,-91.2,40.92,1113.16,0.04,0.39,,,,0.0,5.0,0.0,,,,819.0,88.0,49312.0,708.0,56.0,28370.0,238.0,16.0,8106.0,525.0,71.0,26637.0,596.0,47.0,25190.0,374.0,53.0,14266.0,151.0,11.0,11555.0,527.0,52.0,16251.0,128.0,6.0,2238.0,3704.0,147.0,174124.0,452.0,16.0,11093.0,2023.0,103.0,28238.0,652.0,144.0,13855.0,,,
19059,Dickinson County,17,-97.19,38.88,1045.63,0.02,0.03,2.0,3.0,57.0,,,,52.0,3.0,4770.0,511.0,114.0,24656.0,223.0,24.0,12676.0,90.0,14.0,2597.0,231.0,47.0,17690.0,63.0,37.0,2075.0,177.0,50.0,7788.0,,,,178.0,56.0,8673.0,22.0,6.0,322.0,1246.0,65.0,45088.0,227.0,32.0,9464.0,1082.0,105.0,23712.0,335.0,63.0,7916.0,,,
19061,Dubuque County,97,-90.87,42.47,1596.75,0.06,0.34,92.0,17.0,3017.0,,,,0.0,4.0,0.0,2065.0,299.0,124804.0,2718.0,165.0,139956.0,1715.0,55.0,133162.0,3609.0,206.0,229953.0,405.0,121.0,14637.0,2130.0,183.0,118873.0,1044.0,28.0,99170.0,2299.0,125.0,75186.0,2546.0,39.0,64009.0,7880.0,282.0,378629.0,1787.0,58.0,35557.0,4508.0,250.0,65016.0,2404.0,271.0,59171.0,,,
19063,Emmet County,10,-94.67,43.37,1041.24,0.01,0.0,,,,,,,,,,192.0,41.0,9185.0,101.0,21.0,5787.0,57.0,7.0,1279.0,143.0,21.0,8050.0,,,,57.0,16.0,2967.0,,,,39.0,6.0,961.0,,,,811.0,34.0,21065.0,3.0,5.0,91.0,220.0,20.0,2870.0,150.0,43.0,3485.0,,,
19065,Fayette County,20,-96.96,29.84,1893.92,0.01,0.12,25.0,7.0,617.0,,,,,,,290.0,53.0,16915.0,491.0,42.0,24009.0,84.0,9.0,2096.0,194.0,51.0,7994.0,26.0,15.0,999.0,121.0,31.0,4348.0,,,,147.0,16.0,3615.0,,,,1076.0,51.0,31812.0,35.0,12.0,674.0,409.0,42.0,4839.0,325.0,77.0,7880.0,0.0,3.0,0.0
19067,Floyd County,16,-101.28,34.03,1298.62,0.01,0.0,,,,,,,,,,183.0,38.0,9564.0,358.0,24.0,19013.0,83.0,7.0,2955.0,216.0,37.0,9161.0,23.0,9.0,542.0,77.0,24.0,3047.0,36.0,3.0,2341.0,85.0,13.0,3233.0,,,,1227.0,50.0,45711.0,60.0,6.0,778.0,346.0,31.0,3856.0,292.0,61.0,6449.0,,,
19069,Franklin County,10,-95.22,33.2,1508.74,0.01,0.0,18.0,6.0,627.0,,,,36.0,3.0,2699.0,244.0,39.0,14232.0,283.0,28.0,15762.0,76.0,5.0,1862.0,108.0,28.0,5110.0,32.0,10.0,681.0,49.0,14.0,1644.0,0.0,3.0,0.0,11.0,7.0,340.0,,,,472.0,27.0,13322.0,29.0,8.0,361.0,166.0,16.0,1732.0,153.0,45.0,3043.0,,,
19071,Fremont County,7,-95.59,40.73,1338.22,0.01,0.0,,,,,,,,,,26.0,17.0,931.0,138.0,16.0,7076.0,18.0,4.0,723.0,72.0,17.0,2998.0,7.0,4.0,125.0,41.0,9.0,1557.0,,,,42.0,5.0,849.0,,,,298.0,16.0,10082.0,,,,199.0,19.0,2616.0,37.0,14.0,376.0,,,
19073,Greene County,9,-90.39,39.36,1479.55,0.01,0.01,,,,,,,,,,97.0,23.0,3669.0,376.0,18.0,18975.0,30.0,6.0,1457.0,155.0,19.0,7561.0,10.0,6.0,237.0,64.0,18.0,3345.0,,,,66.0,10.0,1996.0,,,,606.0,32.0,18611.0,0.0,3.0,0.0,162.0,20.0,2370.0,165.0,49.0,3320.0,,,
19075,Grundy County,12,-88.41,41.27,1300.01,0.01,0.0,121.0,6.0,7737.0,,,,0.0,3.0,0.0,421.0,31.0,40267.0,271.0,23.0,14941.0,30.0,6.0,458.0,185.0,27.0,10763.0,0.0,4.0,0.0,33.0,8.0,1041.0,,,,98.0,16.0,4283.0,0.0,3.0,0.0,503.0,26.0,18081.0,19.0,5.0,276.0,160.0,20.0,1294.0,130.0,37.0,2309.0,,,
19077,Guthrie County,11,-94.5,41.67,1536.04,0.01,0.17,3.0,3.0,122.0,,,,,,,253.0,46.0,9709.0,153.0,20.0,7508.0,55.0,11.0,2134.0,156.0,34.0,6953.0,16.0,4.0,652.0,82.0,21.0,3751.0,,,,48.0,10.0,1601.0,,,,355.0,26.0,10490.0,51.0,7.0,982.0,148.0,16.0,1713.0,146.0,48.0,3528.0,,,
19079,Hamilton County,15,-97.97,31.64,1495.56,0.01,0.0,,,,,,,26.0,3.0,1948.0,213.0,42.0,9377.0,998.0,34.0,52668.0,114.0,12.0,4817.0,185.0,21.0,13241.0,20.0,9.0,406.0,72.0,21.0,5040.0,,,,128.0,24.0,5132.0,0.0,3.0,0.0,710.0,37.0,29990.0,13.0,6.0,580.0,237.0,26.0,2932.0,228.0,53.0,5983.0,,,
19081,Hancock County,11,-91.15,40.39,1484.24,0.01,0.0,,,,0.0,3.0,0.0,0.0,4.0,0.0,62.0,22.0,2386.0,204.0,28.0,10382.0,0.0,3.0,0.0,99.0,25.0,4067.0,35.0,8.0,2391.0,497.0,18.0,22190.0,,,,9.0,6.0,550.0,,,,540.0,21.0,15541.0,30.0,7.0,233.0,143.0,16.0,1521.0,313.0,48.0,9178.0,,,
19083,Hardin County,17,-94.4,30.3,1476.21,0.01,0.0,46.0,8.0,2029.0,0.0,12.0,0.0,,,,465.0,63.0,24359.0,851.0,42.0,58305.0,124.0,13.0,5011.0,260.0,39.0,13191.0,45.0,15.0,1680.0,141.0,34.0,4116.0,,,,41.0,17.0,1197.0,,,,991.0,51.0,31358.0,47.0,11.0,638.0,318.0,31.0,3673.0,263.0,74.0,6416.0,,,
19085,Harrison County,14,-94.4,32.52,1816.65,0.01,0.01,,,,,,,,,,172.0,42.0,7745.0,559.0,34.0,28510.0,28.0,7.0,778.0,139.0,30.0,6881.0,13.0,7.0,307.0,53.0,18.0,1876.0,,,,107.0,10.0,3807.0,0.0,3.0,0.0,816.0,32.0,28193.0,6.0,4.0,262.0,295.0,29.0,3684.0,114.0,43.0,2537.0,,,
19087,Henry County,20,-90.12,41.34,1130.69,0.02,0.14,10.0,5.0,570.0,,,,,,,248.0,46.0,9862.0,265.0,27.0,10807.0,58.0,11.0,1942.0,173.0,37.0,9459.0,31.0,11.0,615.0,106.0,34.0,4821.0,,,,213.0,21.0,7051.0,0.0,4.0,0.0,1112.0,59.0,39719.0,65.0,11.0,1044.0,496.0,41.0,5503.0,268.0,63.0,6418.0,,,
19089,Howard County,9,-101.43,32.3,1226.4,0.01,0.0,,,,,,,,,,125.0,36.0,6529.0,143.0,21.0,7630.0,25.0,3.0,611.0,124.0,18.0,5878.0,4.0,4.0,201.0,44.0,12.0,1190.0,,,,37.0,3.0,1270.0,26.0,4.0,326.0,564.0,20.0,15492.0,15.0,4.0,119.0,182.0,22.0,1435.0,170.0,31.0,2511.0,,,
19091,Humboldt County,10,-123.9,40.6,1128.43,0.01,0.02,102.0,7.0,5400.0,,,,,,,192.0,34.0,10980.0,386.0,34.0,20941.0,52.0,6.0,1034.0,106.0,28.0,3773.0,0.0,4.0,0.0,59.0,16.0,2361.0,,,,105.0,12.0,3993.0,,,,487.0,23.0,15283.0,,,,214.0,19.0,2181.0,153.0,30.0,3443.0,,,
19093,Ida County,7,-95.49,42.38,1119.27,0.01,0.09,,,,,,,,,,132.0,23.0,10207.0,213.0,25.0,12904.0,18.0,4.0,510.0,173.0,23.0,9017.0,14.0,8.0,217.0,50.0,11.0,1163.0,,,,67.0,4.0,1955.0,,,,485.0,20.0,15555.0,26.0,4.0,306.0,63.0,12.0,781.0,109.0,30.0,1801.0,,,
19095,Iowa County,16,-92.06,41.68,1521.58,0.01,0.01,5.0,5.0,180.0,,,,,,,277.0,65.0,15237.0,269.0,24.0,20909.0,30.0,5.0,904.0,111.0,25.0,5670.0,12.0,6.0,386.0,199.0,25.0,23240.0,0.0,3.0,0.0,170.0,16.0,5099.0,,,,695.0,37.0,24573.0,56.0,13.0,1533.0,453.0,36.0,7133.0,156.0,51.0,4024.0,,,
19097,Jackson County,19,-96.56,28.92,1682.49,0.01,0.01,14.0,5.0,530.0,,,,,,,282.0,78.0,18975.0,242.0,34.0,11537.0,71.0,12.0,2527.0,260.0,42.0,11252.0,12.0,8.0,311.0,102.0,35.0,4139.0,,,,12.0,14.0,668.0,,,,1082.0,41.0,26569.0,99.0,18.0,1645.0,510.0,43.0,5356.0,233.0,62.0,4880.0,,,
19099,Jasper County,37,-94.0,30.75,1898.33,0.02,0.08,0.0,5.0,0.0,,,,,,,554.0,89.0,30408.0,400.0,44.0,16163.0,247.0,14.0,8890.0,254.0,56.0,13802.0,55.0,24.0,1440.0,505.0,50.0,21952.0,0.0,4.0,0.0,229.0,36.0,6994.0,53.0,5.0,760.0,1606.0,72.0,49875.0,146.0,12.0,2917.0,773.0,61.0,10005.0,398.0,108.0,8857.0,,,
19101,Jefferson County,18,-94.17,29.83,1131.55,0.02,0.19,0.0,3.0,0.0,,,,0.0,3.0,0.0,212.0,46.0,7840.0,370.0,45.0,15480.0,111.0,24.0,5012.0,1007.0,51.0,59649.0,49.0,30.0,1480.0,531.0,136.0,30389.0,61.0,5.0,4834.0,364.0,29.0,22547.0,788.0,14.0,14729.0,796.0,48.0,28147.0,44.0,10.0,675.0,525.0,42.0,7598.0,275.0,64.0,8486.0,,,
19103,Johnson County,144,-97.36,32.38,1614.0,0.09,0.31,10.0,5.0,421.0,0.0,5.0,0.0,113.0,5.0,9944.0,2669.0,368.0,141214.0,1395.0,111.0,78481.0,2233.0,59.0,146942.0,2518.0,189.0,144958.0,680.0,149.0,33885.0,2963.0,297.0,147354.0,268.0,19.0,15643.0,2681.0,175.0,82582.0,1588.0,60.0,111096.0,18914.0,437.0,997865.0,525.0,59.0,7377.0,8178.0,431.0,128836.0,2303.0,303.0,72379.0,,,
19105,Jones County,20,-99.86,32.71,1494.38,0.01,0.01,17.0,6.0,546.0,,,,,,,448.0,89.0,20839.0,259.0,26.0,10057.0,68.0,10.0,2037.0,200.0,35.0,10110.0,21.0,14.0,396.0,106.0,23.0,3468.0,,,,112.0,21.0,4216.0,89.0,5.0,1255.0,863.0,41.0,26609.0,82.0,9.0,2804.0,344.0,38.0,3596.0,161.0,62.0,3576.0,,,
19107,Keokuk County,10,-92.19,41.32,1502.01,0.01,0.0,0.0,3.0,0.0,0.0,3.0,0.0,,,,100.0,33.0,3844.0,211.0,29.0,8493.0,16.0,3.0,787.0,90.0,20.0,3841.0,17.0,7.0,140.0,36.0,8.0,1371.0,,,,,,,,,,313.0,17.0,11547.0,,,,71.0,12.0,1147.0,99.0,33.0,2069.0,,,
19109,Kossuth County,15,-94.21,43.18,2524.28,0.01,0.0,120.0,8.0,7156.0,,,,,,,368.0,73.0,19488.0,385.0,40.0,17035.0,62.0,9.0,1493.0,506.0,42.0,33512.0,57.0,16.0,1116.0,256.0,38.0,11060.0,,,,99.0,22.0,2652.0,0.0,6.0,0.0,694.0,34.0,22441.0,86.0,6.0,762.0,351.0,32.0,4474.0,241.0,75.0,4543.0,,,
19111,Lee County,35,-96.96,30.3,1395.46,0.03,0.04,14.0,3.0,311.0,12.0,5.0,350.0,56.0,3.0,5270.0,913.0,93.0,48126.0,458.0,37.0,24489.0,81.0,12.0,3173.0,363.0,64.0,16650.0,71.0,25.0,1930.0,1907.0,41.0,70575.0,,,,706.0,34.0,18803.0,49.0,6.0,617.0,2250.0,102.0,77338.0,72.0,13.0,1091.0,1054.0,95.0,13106.0,412.0,116.0,7674.0,,,
19113,Linn County,220,-91.6,42.06,1876.46,0.12,0.5,41.0,8.0,3421.0,0.0,3.0,0.0,1267.0,15.0,122744.0,6422.0,509.0,392383.0,5754.0,349.0,364074.0,4712.0,127.0,289447.0,10297.0,448.0,722577.0,1111.0,247.0,45728.0,6497.0,529.0,465529.0,1898.0,58.0,115753.0,8181.0,297.0,232021.0,3543.0,75.0,85129.0,15844.0,687.0,736430.0,1634.0,86.0,28383.0,9880.0,539.0,152761.0,4034.0,549.0,117438.0,0.0,6.0,0.0
19115,Louisa County,11,-91.27,41.21,1081.53,0.01,0.01,,,,,,,,,,43.0,16.0,1487.0,211.0,11.0,10875.0,39.0,5.0,1153.0,59.0,15.0,2244.0,6.0,6.0,186.0,28.0,12.0,800.0,,,,147.0,8.0,5214.0,,,,409.0,26.0,9248.0,6.0,5.0,172.0,86.0,16.0,915.0,84.0,31.0,1289.0,,,
19117,Lucas County,9,-83.62,41.65,1124.77,0.01,0.0,,,,,,,,,,71.0,24.0,3201.0,33.0,7.0,768.0,25.0,3.0,370.0,103.0,12.0,5458.0,12.0,4.0,472.0,43.0,15.0,1138.0,,,,11.0,3.0,97.0,,,,499.0,24.0,16578.0,22.0,3.0,141.0,85.0,14.0,1133.0,90.0,26.0,2143.0,,,
19119,Lyon County,12,-95.83,44.39,1522.13,0.01,0.0,6.0,5.0,245.0,,,,,,,180.0,61.0,7928.0,245.0,28.0,12396.0,202.0,6.0,6484.0,171.0,25.0,9100.0,43.0,10.0,3404.0,128.0,24.0,13114.0,,,,38.0,9.0,1650.0,33.0,5.0,541.0,524.0,24.0,14043.0,8.0,3.0,266.0,571.0,20.0,14447.0,204.0,58.0,4295.0,,,
19121,Madison County,16,-95.95,30.96,1456.2,0.01,0.25,4.0,4.0,96.0,37.0,8.0,2142.0,,,,363.0,77.0,15489.0,233.0,22.0,13279.0,88.0,10.0,5372.0,126.0,30.0,7629.0,16.0,13.0,721.0,95.0,30.0,3735.0,,,,59.0,19.0,1449.0,,,,531.0,30.0,18558.0,18.0,9.0,328.0,226.0,19.0,2959.0,149.0,48.0,3711.0,,,
19123,Mahaska County,22,-92.65,41.31,1485.07,0.01,0.35,0.0,3.0,0.0,,,,,,,393.0,65.0,19072.0,425.0,34.0,19452.0,124.0,14.0,5001.0,176.0,38.0,8877.0,43.0,15.0,1147.0,135.0,27.0,6339.0,,,,76.0,26.0,3945.0,636.0,4.0,10848.0,1004.0,48.0,42120.0,104.0,11.0,1676.0,544.0,38.0,6479.0,269.0,77.0,5985.0,,,
19125,Marion County,33,-94.34,32.79,1477.53,0.02,0.46,,,,0.0,3.0,0.0,,,,412.0,98.0,22034.0,378.0,44.0,20068.0,189.0,19.0,8523.0,298.0,47.0,19022.0,60.0,32.0,1605.0,403.0,58.0,17921.0,22.0,4.0,611.0,202.0,33.0,5966.0,1195.0,7.0,21082.0,2190.0,94.0,90940.0,133.0,20.0,2307.0,1080.0,71.0,11966.0,484.0,109.0,10475.0,,,
19127,Marshall County,40,-89.3,41.03,1484.5,0.03,0.02,10.0,4.0,522.0,,,,0.0,4.0,0.0,407.0,70.0,26749.0,419.0,49.0,24097.0,217.0,13.0,7912.0,325.0,58.0,18890.0,442.0,26.0,18052.0,306.0,41.0,13705.0,,,,420.0,24.0,10604.0,74.0,7.0,1426.0,1927.0,97.0,99488.0,103.0,11.0,2186.0,1016.0,80.0,14582.0,540.0,99.0,10508.0,,,
19129,Mills County,15,-98.55,31.49,1141.08,0.01,0.09,,,,,,,,,,114.0,40.0,6344.0,126.0,18.0,6754.0,,,,115.0,20.0,5624.0,34.0,14.0,642.0,112.0,32.0,5514.0,,,,113.0,19.0,4569.0,,,,587.0,35.0,17842.0,91.0,9.0,923.0,193.0,18.0,2184.0,95.0,33.0,2354.0,,,
19131,Mitchell County,11,-100.92,32.29,1215.66,0.01,0.0,,,,0.0,3.0,0.0,,,,153.0,44.0,6595.0,269.0,21.0,14448.0,20.0,6.0,697.0,126.0,22.0,7014.0,3.0,4.0,66.0,70.0,13.0,2260.0,,,,14.0,4.0,457.0,25.0,4.0,853.0,570.0,25.0,16281.0,0.0,4.0,0.0,161.0,19.0,1722.0,142.0,46.0,2712.0,,,
19133,Monona County,9,-95.94,42.02,1810.25,0.0,0.0,0.0,3.0,0.0,,,,,,,92.0,29.0,4619.0,158.0,18.0,7410.0,,,,114.0,21.0,4813.0,6.0,4.0,132.0,38.0,12.0,1796.0,,,,25.0,7.0,835.0,,,,646.0,26.0,23691.0,0.0,4.0,0.0,146.0,20.0,1912.0,78.0,23.0,2150.0,,,
19135,Monroe County,8,-90.18,38.27,1124.95,0.01,0.0,,,,,,,,,,52.0,16.0,1709.0,62.0,9.0,2387.0,38.0,6.0,719.0,109.0,10.0,5519.0,13.0,6.0,340.0,43.0,13.0,1402.0,,,,50.0,5.0,670.0,,,,405.0,22.0,13727.0,,,,156.0,21.0,1612.0,59.0,19.0,1015.0,,,
19137,Montgomery County,10,-95.51,30.3,1100.94,0.01,0.09,0.0,3.0,0.0,,,,,,,135.0,44.0,5465.0,149.0,15.0,6003.0,180.0,7.0,7771.0,138.0,21.0,6365.0,48.0,11.0,1300.0,54.0,16.0,2573.0,,,,31.0,14.0,1351.0,,,,777.0,29.0,30674.0,50.0,7.0,662.0,280.0,22.0,3344.0,149.0,43.0,3637.0,,,
19139,Muscatine County,43,-91.12,41.48,1163.28,0.04,0.23,35.0,5.0,1114.0,,,,0.0,3.0,0.0,553.0,89.0,27459.0,856.0,61.0,37730.0,300.0,13.0,10579.0,401.0,52.0,18181.0,160.0,47.0,5121.0,704.0,58.0,51427.0,0.0,14.0,0.0,1007.0,44.0,37591.0,0.0,4.0,0.0,2124.0,98.0,74629.0,232.0,9.0,3129.0,1256.0,104.0,15848.0,834.0,106.0,27438.0,,,
19141,O'Brien County,14,-95.63,43.08,1484.56,0.01,0.01,0.0,4.0,0.0,,,,0.0,3.0,0.0,167.0,51.0,6815.0,552.0,40.0,23704.0,81.0,8.0,2279.0,212.0,36.0,12409.0,20.0,7.0,741.0,191.0,29.0,6980.0,,,,116.0,13.0,2943.0,46.0,4.0,889.0,1324.0,47.0,31854.0,27.0,8.0,326.0,391.0,29.0,4026.0,334.0,78.0,9153.0,,,
19143,Osceola County,6,-81.14,28.04,1034.4,0.01,0.0,0.0,4.0,0.0,,,,34.0,4.0,2325.0,107.0,29.0,5592.0,123.0,12.0,7401.0,77.0,4.0,2085.0,86.0,17.0,4212.0,,,,30.0,10.0,1011.0,,,,,,,,,,250.0,12.0,7641.0,,,,66.0,10.0,762.0,73.0,27.0,1719.0,,,
19145,Page County,15,-78.5,38.6,1386.94,0.01,0.0,5.0,3.0,120.0,,,,0.0,3.0,0.0,137.0,38.0,5051.0,189.0,23.0,7605.0,75.0,11.0,3198.0,170.0,24.0,6687.0,21.0,10.0,404.0,119.0,20.0,3066.0,0.0,3.0,0.0,174.0,13.0,4750.0,,,,1496.0,60.0,60570.0,18.0,8.0,263.0,310.0,26.0,3933.0,211.0,57.0,2798.0,,,
19147,Palo Alto County,9,-94.66,43.08,1475.06,0.01,0.0,,,,,,,15.0,3.0,1076.0,123.0,27.0,4204.0,169.0,19.0,8876.0,45.0,6.0,1592.0,121.0,26.0,6871.0,14.0,6.0,315.0,53.0,14.0,2351.0,,,,38.0,7.0,842.0,41.0,3.0,655.0,757.0,33.0,22629.0,7.0,4.0,159.0,473.0,33.0,7126.0,80.0,27.0,865.0,,,
19149,Plymouth County,25,-96.22,42.74,2237.47,0.01,0.13,35.0,6.0,1714.0,,,,78.0,4.0,6542.0,313.0,86.0,16599.0,751.0,44.0,41773.0,57.0,6.0,2645.0,289.0,51.0,15513.0,53.0,27.0,1620.0,283.0,38.0,16144.0,0.0,4.0,0.0,212.0,27.0,5968.0,196.0,9.0,4609.0,1309.0,58.0,37807.0,83.0,16.0,1285.0,786.0,56.0,8412.0,396.0,87.0,11116.0,,,
19151,Pocahontas County,7,-94.65,42.73,1498.4,0.0,0.0,,,,,,,,,,58.0,21.0,2177.0,264.0,17.0,11699.0,49.0,4.0,1547.0,89.0,21.0,4337.0,,,,47.0,15.0,1189.0,,,,0.0,3.0,0.0,,,,269.0,18.0,9656.0,22.0,6.0,205.0,102.0,13.0,1016.0,59.0,24.0,949.0,,,
19153,Polk County,467,-94.82,30.76,1532.09,0.3,0.73,89.0,19.0,6268.0,61.0,9.0,4000.0,0.0,29.0,0.0,15153.0,1188.0,984987.0,15708.0,802.0,967167.0,7586.0,264.0,503252.0,34262.0,1098.0,3044230.0,3925.0,679.0,176744.0,17164.0,1550.0,1216844.0,13926.0,142.0,1040626.0,15752.0,730.0,614651.0,6398.0,169.0,177836.0,34749.0,1306.0,1903028.0,4369.0,203.0,80344.0,24542.0,1197.0,441018.0,11227.0,1388.0,415635.0,4.0,7.0,759.0
19155,Pottawattamie County,93,-95.53,41.31,2483.64,0.04,0.1,26.0,8.0,1191.0,,,,0.0,4.0,0.0,1073.0,215.0,54496.0,1553.0,102.0,89105.0,286.0,19.0,13704.0,707.0,133.0,35685.0,413.0,90.0,14892.0,684.0,122.0,32707.0,224.0,14.0,14982.0,796.0,99.0,24441.0,316.0,14.0,5941.0,5812.0,254.0,249057.0,1027.0,32.0,24836.0,4918.0,208.0,96271.0,1052.0,215.0,28293.0,,,
19157,Poweshiek County,18,-92.54,41.68,1518.0,0.01,0.03,0.0,5.0,0.0,20.0,3.0,1260.0,,,,824.0,80.0,50770.0,163.0,23.0,8045.0,99.0,17.0,3325.0,907.0,39.0,66575.0,20.0,14.0,731.0,118.0,39.0,4064.0,0.0,3.0,0.0,243.0,26.0,6320.0,0.0,4.0,0.0,1074.0,53.0,43135.0,48.0,10.0,717.0,598.0,48.0,7685.0,163.0,50.0,4453.0,,,
19159,Ringgold County,5,-94.25,40.74,1396.03,0.0,0.0,12.0,3.0,667.0,,,,,,,74.0,21.0,4120.0,53.0,6.0,2134.0,,,,42.0,11.0,2243.0,,,,47.0,8.0,1520.0,,,,,,,,,,348.0,12.0,11602.0,16.0,4.0,107.0,86.0,13.0,755.0,63.0,22.0,1356.0,,,
19161,Sac County,10,-95.08,42.38,1497.79,0.01,0.0,27.0,4.0,1159.0,11.0,4.0,795.0,,,,94.0,32.0,4297.0,234.0,35.0,17418.0,38.0,7.0,1963.0,124.0,23.0,5472.0,,,,35.0,18.0,1172.0,,,,40.0,6.0,896.0,,,,508.0,31.0,14872.0,15.0,4.0,245.0,124.0,22.0,1273.0,107.0,43.0,2041.0,,,
19163,Scott County,171,-90.48,39.63,1212.59,0.14,0.23,26.0,5.0,1136.0,0.0,6.0,0.0,0.0,10.0,0.0,5945.0,452.0,386469.0,4009.0,287.0,226947.0,1363.0,65.0,73361.0,2872.0,316.0,181662.0,830.0,198.0,30998.0,2916.0,396.0,158143.0,1285.0,40.0,102725.0,5631.0,237.0,152304.0,2958.0,47.0,78226.0,13535.0,549.0,562286.0,1178.0,75.0,22314.0,10023.0,452.0,155567.0,3291.0,416.0,85583.0,,,
19165,Shelby County,12,-94.13,31.77,1531.71,0.01,0.0,0.0,4.0,0.0,,,,,,,233.0,40.0,17446.0,347.0,28.0,13792.0,367.0,9.0,13456.0,222.0,40.0,12375.0,17.0,9.0,373.0,162.0,21.0,7028.0,,,,54.0,14.0,4645.0,31.0,4.0,643.0,889.0,38.0,25972.0,50.0,9.0,1016.0,212.0,25.0,2239.0,139.0,45.0,3351.0,,,
19167,Sioux County,35,-96.16,43.06,1991.32,0.02,0.34,181.0,10.0,11980.0,,,,45.0,4.0,3256.0,1273.0,199.0,73721.0,1824.0,95.0,88858.0,167.0,16.0,8058.0,581.0,78.0,34235.0,164.0,33.0,8285.0,749.0,80.0,38860.0,169.0,5.0,14779.0,290.0,44.0,9644.0,1117.0,23.0,39525.0,2907.0,92.0,86569.0,67.0,14.0,1603.0,1066.0,71.0,13011.0,689.0,173.0,16366.0,,,
19169,Story County,96,-93.49,42.02,1485.73,0.06,0.19,174.0,16.0,10078.0,,,,0.0,8.0,0.0,1781.0,201.0,102451.0,724.0,84.0,47545.0,1150.0,48.0,91022.0,726.0,131.0,42858.0,555.0,117.0,23977.0,1128.0,217.0,67210.0,524.0,10.0,49731.0,1725.0,106.0,50361.0,150.0,22.0,4198.0,5727.0,216.0,281131.0,544.0,44.0,10657.0,4892.0,250.0,68566.0,1663.0,233.0,47150.0,,,
19171,Tama County,17,-92.54,42.06,1870.19,0.01,0.01,0.0,3.0,0.0,,,,,,,123.0,30.0,6733.0,250.0,28.0,9458.0,15.0,4.0,368.0,121.0,29.0,5590.0,11.0,5.0,256.0,55.0,17.0,1870.0,,,,21.0,6.0,513.0,,,,482.0,28.0,12638.0,16.0,4.0,200.0,1094.0,27.0,23669.0,171.0,39.0,3012.0,,,
19173,Taylor County,6,-99.88,32.28,1384.86,0.0,0.0,,,,,,,,,,151.0,20.0,9560.0,80.0,9.0,3106.0,,,,38.0,11.0,1786.0,12.0,5.0,337.0,27.0,8.0,726.0,,,,7.0,4.0,410.0,,,,258.0,14.0,6283.0,,,,38.0,5.0,450.0,58.0,25.0,1755.0,,,
19175,Union County,12,-89.25,37.46,1102.69,0.01,0.0,,,,,,,94.0,3.0,7323.0,123.0,39.0,4524.0,274.0,19.0,13736.0,85.0,8.0,2700.0,167.0,27.0,9014.0,15.0,8.0,264.0,67.0,18.0,2436.0,82.0,3.0,2588.0,326.0,13.0,10663.0,56.0,5.0,999.0,884.0,41.0,36397.0,63.0,7.0,459.0,432.0,29.0,4597.0,189.0,36.0,6702.0,,,
19177,Van Buren County,7,-91.97,40.75,1270.69,0.01,0.0,,,,0.0,4.0,0.0,,,,62.0,19.0,2030.0,50.0,8.0,1294.0,18.0,3.0,903.0,57.0,11.0,2728.0,5.0,3.0,66.0,31.0,7.0,1213.0,,,,7.0,5.0,201.0,,,,279.0,12.0,10341.0,,,,71.0,12.0,744.0,18.0,15.0,643.0,,,
19179,Wapello County,35,-92.41,41.01,1129.26,0.03,0.02,0.0,4.0,0.0,,,,0.0,4.0,0.0,803.0,58.0,46427.0,549.0,35.0,25236.0,195.0,12.0,6298.0,409.0,56.0,21952.0,133.0,26.0,3923.0,228.0,37.0,8844.0,35.0,5.0,2601.0,622.0,33.0,21375.0,78.0,6.0,1265.0,2884.0,95.0,97875.0,178.0,14.0,2800.0,1171.0,76.0,14498.0,368.0,82.0,9234.0,,,
19181,Warren County,49,-79.27,41.81,1484.84,0.03,0.24,6.0,3.0,421.0,,,,,,,851.0,144.0,51210.0,400.0,48.0,19225.0,58.0,12.0,2002.0,360.0,75.0,21250.0,86.0,37.0,3512.0,278.0,70.0,11618.0,14.0,4.0,556.0,288.0,56.0,9760.0,1109.0,8.0,18814.0,1295.0,77.0,41720.0,288.0,21.0,5673.0,865.0,67.0,11328.0,514.0,115.0,12326.0,,,
19183,Washington County,22,-96.39,30.22,1478.37,0.01,0.3,7.0,4.0,495.0,,,,,,,876.0,118.0,42138.0,557.0,47.0,30764.0,74.0,9.0,2383.0,222.0,53.0,10318.0,14.0,9.0,338.0,169.0,53.0,7175.0,,,,60.0,23.0,1383.0,32.0,5.0,1286.0,1357.0,66.0,43557.0,72.0,7.0,961.0,1080.0,41.0,27353.0,289.0,83.0,6484.0,,,
19185,Wayne County,6,-88.42,38.43,1365.62,0.0,0.69,,,,,,,,,,48.0,17.0,1828.0,102.0,10.0,3751.0,9.0,5.0,226.0,39.0,9.0,1432.0,,,,43.0,9.0,1428.0,,,,9.0,4.0,866.0,,,,378.0,19.0,16741.0,6.0,5.0,63.0,44.0,10.0,379.0,43.0,23.0,766.0,,,
19187,Webster County,37,-84.55,32.05,1860.82,0.02,0.22,10.0,4.0,472.0,,,,0.0,3.0,0.0,836.0,87.0,52456.0,836.0,68.0,48526.0,387.0,26.0,15384.0,380.0,70.0,19126.0,230.0,43.0,6355.0,1163.0,67.0,71804.0,0.0,3.0,0.0,367.0,50.0,11732.0,204.0,6.0,4375.0,3021.0,124.0,126860.0,162.0,15.0,2238.0,1413.0,95.0,20479.0,581.0,105.0,21675.0,,,
19189,Winnebago County,11,-89.15,42.33,1039.48,0.01,0.0,,,,,,,,,,257.0,39.0,11128.0,322.0,27.0,14419.0,85.0,11.0,3904.0,181.0,23.0,7863.0,8.0,3.0,130.0,132.0,18.0,3366.0,,,,31.0,16.0,1181.0,0.0,3.0,0.0,446.0,30.0,9923.0,104.0,5.0,1459.0,181.0,20.0,1638.0,121.0,30.0,2509.0,,,
19191,Winneshiek County,21,-91.86,43.27,1787.12,0.01,0.12,12.0,7.0,624.0,0.0,3.0,0.0,,,,387.0,64.0,30042.0,370.0,44.0,16284.0,113.0,12.0,3665.0,279.0,40.0,15700.0,19.0,14.0,437.0,242.0,32.0,15629.0,,,,280.0,25.0,8189.0,0.0,9.0,0.0,1488.0,57.0,58232.0,70.0,17.0,1733.0,778.0,64.0,10272.0,345.0,74.0,7186.0,,,
19193,Woodbury County,102,-96.06,42.38,2273.3,0.04,0.03,42.0,6.0,1678.0,,,,0.0,10.0,0.0,2388.0,254.0,146287.0,2517.0,174.0,131897.0,693.0,45.0,29265.0,1174.0,168.0,68510.0,546.0,94.0,17990.0,1056.0,204.0,51230.0,456.0,19.0,24403.0,3330.0,123.0,72898.0,1871.0,23.0,44582.0,9354.0,337.0,423346.0,506.0,50.0,7637.0,5572.0,264.0,94581.0,1685.0,274.0,43394.0,0.0,3.0,48.0
19195,Worth County,8,-83.87,31.52,1040.73,0.01,0.0,,,,,,,0.0,4.0,0.0,92.0,29.0,4630.0,101.0,14.0,4964.0,10.0,4.0,236.0,57.0,18.0,2851.0,3.0,3.0,27.0,16.0,7.0,355.0,,,,34.0,6.0,661.0,,,,192.0,10.0,4625.0,0.0,5.0,0.0,115.0,8.0,1271.0,73.0,29.0,1162.0,,,
19197,Wright County,13,-93.96,45.15,1508.1,0.01,0.0,0.0,3.0,0.0,,,,0.0,3.0,0.0,170.0,36.0,7999.0,316.0,21.0,17785.0,59.0,11.0,1904.0,143.0,29.0,5889.0,16.0,8.0,309.0,132.0,19.0,3499.0,,,,23.0,16.0,1026.0,,,,825.0,28.0,38681.0,28.0,9.0,236.0,258.0,36.0,2485.0,146.0,55.0,2953.0,,,
