Fips,Name,Population,Longitude,Latitude,Km2,UrbanDensity,UrbanPercent,Emp-11,Est-11,Pay-11,Emp-21,Est-21,Pay-21,Emp-22,Est-22,Pay-22,Emp-23,Est-23,Pay-23,Emp-42,Est-42,Pay-42,Emp-51,Est-51,Pay-51,Emp-52,Est-52,Pay-52,Emp-53,Est-53,Pay-53,Emp-54,Est-54,Pay-54,Emp-55,Est-55,Pay-55,Emp-56,Est-56,Pay-56,Emp-61,Est-61,Pay-61,Emp-62,Est-62,Pay-62,Emp-71,Est-71,Pay-71,Emp-72,Est-72,Pay-72,Emp-81,Est-81,Pay-81,Emp-99,Est-99,Pay-99
17001,Adams County,67,-91.21,39.98,2257.21,0.03,0.03,10.0,4.0,293.0,41.0,6.0,2327.0,0.0,5.0,0.0,1201.0,207.0,61986.0,2250.0,120.0,108380.0,551.0,31.0,18748.0,1424.0,152.0,72255.0,263.0,64.0,8027.0,725.0,123.0,30547.0,1213.0,20.0,101977.0,930.0,93.0,24916.0,885.0,16.0,20597.0,6007.0,148.0,304399.0,436.0,33.0,6733.0,2617.0,149.0,37735.0,1548.0,224.0,39119.0,3.0,4.0,101.0
17003,Alexander County,7,-89.35,37.18,654.34,0.01,0.0,,,,,,,,,,7.0,4.0,422.0,14.0,3.0,710.0,0.0,3.0,0.0,19.0,6.0,466.0,,,,40.0,6.0,1197.0,,,,18.0,4.0,211.0,,,,186.0,9.0,5888.0,,,,73.0,10.0,857.0,37.0,12.0,1249.0,,,
17005,Bond County,17,-89.44,38.86,991.36,0.02,0.01,,,,,,,0.0,3.0,0.0,141.0,32.0,7255.0,363.0,20.0,14019.0,44.0,6.0,892.0,118.0,17.0,5250.0,17.0,6.0,192.0,78.0,26.0,2499.0,0.0,3.0,0.0,19.0,12.0,393.0,0.0,3.0,0.0,443.0,37.0,15630.0,34.0,6.0,493.0,372.0,34.0,4471.0,193.0,48.0,4763.0,,,
17007,Boone County,54,-88.82,42.32,730.47,0.07,0.46,,,,,,,,,,778.0,106.0,43586.0,356.0,38.0,16227.0,58.0,10.0,2882.0,209.0,48.0,8690.0,64.0,26.0,1955.0,558.0,47.0,26434.0,6.0,3.0,364.0,392.0,65.0,18108.0,42.0,5.0,923.0,993.0,64.0,32836.0,86.0,20.0,1928.0,861.0,62.0,12128.0,529.0,93.0,12814.0,,,
17009,Brown County,7,-98.99,31.75,795.66,0.01,0.02,,,,,,,,,,15.0,5.0,720.0,0.0,9.0,0.0,,,,46.0,7.0,2122.0,,,,17.0,5.0,480.0,,,,42.0,5.0,1151.0,,,,197.0,10.0,6732.0,0.0,3.0,0.0,89.0,10.0,1208.0,56.0,19.0,1125.0,,,
17011,Bureau County,34,-89.53,41.4,2262.56,0.02,0.01,102.0,9.0,7564.0,,,,36.0,4.0,2654.0,307.0,70.0,23809.0,921.0,54.0,45180.0,47.0,9.0,1833.0,358.0,58.0,17763.0,27.0,13.0,722.0,162.0,43.0,6223.0,0.0,4.0,0.0,361.0,31.0,8339.0,,,,2016.0,70.0,85891.0,52.0,20.0,1028.0,719.0,71.0,9014.0,487.0,107.0,14719.0,,,
17013,Calhoun County,5,-96.67,28.5,734.57,0.01,0.0,,,,,,,,,,29.0,9.0,1353.0,12.0,3.0,161.0,,,,56.0,7.0,1783.0,,,,6.0,3.0,244.0,,,,3.0,3.0,23.0,,,,0.0,4.0,0.0,,,,111.0,18.0,1177.0,34.0,4.0,646.0,,,
17015,Carroll County,15,-89.96,42.06,1208.4,0.01,0.0,,,,,,,,,,156.0,52.0,7140.0,313.0,33.0,24881.0,35.0,9.0,1119.0,196.0,30.0,8349.0,13.0,8.0,231.0,53.0,20.0,2287.0,,,,157.0,12.0,4142.0,,,,482.0,23.0,9691.0,,,,277.0,41.0,3920.0,233.0,52.0,4913.0,,,
17017,Cass County,13,-94.35,33.06,993.88,0.01,0.0,,,,,,,,,,94.0,23.0,3696.0,165.0,15.0,9397.0,20.0,4.0,428.0,161.0,17.0,7874.0,20.0,5.0,584.0,51.0,9.0,1639.0,,,,505.0,8.0,28879.0,,,,342.0,13.0,7409.0,2.0,3.0,30.0,254.0,32.0,3092.0,178.0,42.0,3805.0,,,
17019,Champaign County,208,-88.2,40.13,2585.79,0.08,0.26,0.0,5.0,0.0,,,,231.0,5.0,20754.0,2836.0,332.0,178342.0,3400.0,185.0,183217.0,2715.0,117.0,170122.0,3343.0,305.0,218732.0,2145.0,230.0,89763.0,2746.0,428.0,160139.0,755.0,28.0,59925.0,3013.0,202.0,87905.0,933.0,65.0,25077.0,13052.0,377.0,824624.0,761.0,81.0,13563.0,11416.0,574.0,174468.0,3261.0,475.0,107621.0,1.0,4.0,13.0
17021,Christian County,34,-89.28,39.52,1853.46,0.02,0.1,,,,30.0,4.0,1656.0,0.0,3.0,0.0,302.0,85.0,13945.0,643.0,45.0,33440.0,207.0,16.0,8140.0,337.0,66.0,15444.0,108.0,18.0,3128.0,389.0,37.0,8282.0,0.0,4.0,0.0,384.0,28.0,8299.0,,,,1706.0,56.0,53331.0,43.0,8.0,724.0,941.0,74.0,11259.0,531.0,95.0,9546.0,,,
17023,Clark County,16,-87.78,39.33,1307.78,0.01,0.0,4.0,3.0,112.0,50.0,13.0,2499.0,,,,328.0,28.0,15887.0,256.0,22.0,9797.0,38.0,9.0,1271.0,165.0,30.0,6295.0,32.0,6.0,1126.0,170.0,20.0,12990.0,,,,137.0,5.0,3561.0,,,,290.0,24.0,7607.0,20.0,5.0,408.0,419.0,39.0,5202.0,145.0,45.0,2431.0,,,
17025,Clay County,13,-98.21,33.69,1216.08,0.01,0.13,,,,80.0,30.0,2851.0,,,,67.0,20.0,2416.0,231.0,25.0,8772.0,99.0,9.0,4761.0,145.0,28.0,6225.0,60.0,8.0,1048.0,85.0,15.0,1975.0,,,,99.0,7.0,1810.0,,,,783.0,43.0,27854.0,13.0,5.0,138.0,263.0,26.0,3269.0,166.0,52.0,3268.0,,,
17027,Clinton County,38,-89.42,38.59,1303.57,0.03,0.36,9.0,4.0,372.0,7.0,3.0,431.0,0.0,3.0,0.0,909.0,131.0,46642.0,396.0,44.0,16042.0,122.0,10.0,4515.0,304.0,57.0,23147.0,179.0,17.0,7261.0,219.0,49.0,9491.0,,,,103.0,31.0,3136.0,139.0,6.0,3634.0,1892.0,94.0,57424.0,136.0,13.0,1646.0,1135.0,93.0,13976.0,469.0,106.0,8881.0,,,
17029,Coles County,53,-88.22,39.53,1321.01,0.04,0.16,,,,29.0,4.0,1949.0,0.0,4.0,0.0,726.0,110.0,39216.0,569.0,50.0,29926.0,529.0,26.0,23428.0,651.0,92.0,35323.0,191.0,52.0,5809.0,426.0,62.0,16169.0,684.0,6.0,39215.0,982.0,55.0,26431.0,108.0,10.0,1993.0,5123.0,161.0,201620.0,228.0,18.0,2784.0,2098.0,127.0,25507.0,662.0,134.0,15036.0,,,
17031,Cook County,5239,-87.76,41.82,2481.58,2.11,0.51,100.0,22.0,3137.0,560.0,18.0,40988.0,6511.0,89.0,810759.0,73333.0,10510.0,5963818.0,114294.0,6717.0,8886337.0,75029.0,2808.0,7589209.0,191372.0,8775.0,23652366.0,46184.0,6534.0,3099477.0,226470.0,19309.0,23228001.0,99340.0,1090.0,10780028.0,155999.0,6638.0,6760521.0,106290.0,2199.0,5238692.0,371670.0,15164.0,17909262.0,42999.0,2115.0,1874543.0,253616.0,12518.0,5902359.0,110381.0,12767.0,4849523.0,100.0,68.0,9300.0
17033,Crawford County,19,-80.14,41.7,1153.85,0.02,0.1,,,,108.0,24.0,4455.0,0.0,3.0,0.0,292.0,30.0,24559.0,197.0,21.0,8394.0,56.0,9.0,1448.0,223.0,30.0,10797.0,78.0,18.0,2672.0,181.0,29.0,8781.0,51.0,4.0,3327.0,113.0,16.0,3122.0,0.0,4.0,0.0,826.0,39.0,30173.0,53.0,4.0,1172.0,498.0,36.0,5746.0,238.0,60.0,5356.0,,,
17035,Cumberland County,11,-77.28,40.15,898.77,0.01,0.1,,,,0.0,3.0,0.0,,,,75.0,22.0,2333.0,152.0,18.0,5612.0,4.0,3.0,91.0,89.0,14.0,3860.0,,,,17.0,6.0,437.0,,,,17.0,7.0,438.0,,,,510.0,17.0,8562.0,3.0,3.0,139.0,126.0,13.0,1107.0,261.0,25.0,9517.0,,,
17037,DeKalb County,104,-88.77,41.89,1643.86,0.06,0.62,6.0,6.0,459.0,16.0,4.0,1309.0,83.0,5.0,10102.0,1533.0,214.0,129206.0,938.0,88.0,48491.0,590.0,33.0,25220.0,821.0,126.0,48649.0,391.0,76.0,13779.0,1078.0,152.0,55811.0,364.0,12.0,43956.0,868.0,124.0,37768.0,178.0,18.0,3007.0,5024.0,221.0,210873.0,468.0,36.0,5597.0,3299.0,208.0,46367.0,1106.0,213.0,25365.0,12.0,5.0,77.0
17039,De Witt County,16,-93.22,39.38,1049.03,0.02,0.01,,,,,,,,,,345.0,53.0,16184.0,377.0,27.0,27601.0,16.0,7.0,798.0,115.0,21.0,6262.0,27.0,9.0,335.0,246.0,26.0,12574.0,,,,375.0,21.0,14804.0,,,,519.0,26.0,16561.0,91.0,7.0,1115.0,438.0,48.0,6562.0,153.0,41.0,2573.0,,,
17041,Douglas County,20,-88.22,39.76,1080.65,0.02,0.07,,,,,,,,,,341.0,69.0,22775.0,323.0,32.0,16694.0,36.0,9.0,1317.0,203.0,34.0,8201.0,32.0,9.0,1134.0,99.0,28.0,2559.0,26.0,4.0,1506.0,131.0,19.0,3321.0,,,,280.0,32.0,9466.0,27.0,4.0,311.0,702.0,65.0,9915.0,246.0,61.0,6136.0,,,
17043,DuPage County,932,-88.09,41.86,871.08,1.07,0.57,20.0,9.0,563.0,24.0,6.0,1093.0,5722.0,47.0,638776.0,29157.0,3014.0,2333578.0,59033.0,2818.0,4768766.0,15969.0,594.0,1444806.0,34258.0,2315.0,3294417.0,10551.0,1483.0,712242.0,49078.0,5073.0,4031840.0,27100.0,414.0,2822014.0,47225.0,1952.0,1996553.0,16673.0,529.0,645478.0,64427.0,3525.0,3499999.0,9145.0,459.0,196012.0,44943.0,2205.0,870997.0,25551.0,2638.0,1029189.0,13.0,17.0,237.0
17045,Edgar County,18,-87.73,39.67,1616.02,0.01,0.01,,,,,,,,,,129.0,39.0,8671.0,540.0,11.0,23446.0,47.0,11.0,1912.0,228.0,26.0,15058.0,28.0,9.0,798.0,98.0,28.0,3446.0,,,,366.0,13.0,6708.0,,,,952.0,31.0,37456.0,40.0,7.0,411.0,378.0,38.0,4634.0,190.0,47.0,3712.0,,,
17047,Edwards County,7,-100.35,29.91,576.87,0.01,0.0,,,,,,,,,,46.0,14.0,2203.0,165.0,13.0,6125.0,,,,76.0,7.0,3173.0,0.0,3.0,0.0,25.0,7.0,644.0,,,,10.0,4.0,186.0,,,,99.0,12.0,2379.0,,,,48.0,8.0,428.0,95.0,28.0,1822.0,,,
17049,Effingham County,34,-88.6,39.05,1243.22,0.03,0.4,22.0,6.0,1004.0,4.0,3.0,107.0,0.0,4.0,0.0,1045.0,144.0,51219.0,1515.0,69.0,74144.0,186.0,27.0,7264.0,425.0,79.0,22479.0,387.0,35.0,12984.0,435.0,68.0,19018.0,0.0,7.0,0.0,620.0,59.0,16941.0,48.0,4.0,393.0,2682.0,134.0,113416.0,241.0,18.0,7763.0,2128.0,115.0,31157.0,1416.0,139.0,47168.0,,,
17051,Fayette County,22,-96.96,29.84,1878.73,0.01,0.01,45.0,5.0,1293.0,202.0,21.0,7618.0,27.0,4.0,1677.0,238.0,51.0,9328.0,342.0,26.0,14877.0,59.0,12.0,1404.0,235.0,37.0,9503.0,23.0,8.0,683.0,114.0,23.0,4095.0,,,,48.0,11.0,1103.0,,,,856.0,47.0,23413.0,36.0,7.0,453.0,597.0,44.0,7783.0,263.0,67.0,5037.0,,,
17053,Ford County,13,-88.26,40.5,1259.3,0.01,0.0,,,,,,,81.0,3.0,7264.0,166.0,37.0,7990.0,356.0,33.0,16497.0,26.0,8.0,891.0,138.0,25.0,5243.0,21.0,9.0,601.0,107.0,17.0,4038.0,,,,177.0,7.0,3964.0,,,,1221.0,35.0,54104.0,12.0,4.0,278.0,326.0,34.0,4335.0,182.0,54.0,3653.0,,,
17055,Franklin County,39,-95.22,33.2,1117.38,0.03,0.19,,,,0.0,7.0,0.0,,,,299.0,63.0,16125.0,220.0,25.0,9887.0,227.0,15.0,6193.0,258.0,61.0,10421.0,55.0,13.0,1567.0,214.0,45.0,8740.0,,,,149.0,19.0,7739.0,75.0,4.0,869.0,993.0,68.0,32806.0,67.0,17.0,780.0,936.0,83.0,10970.0,476.0,104.0,10024.0,,,
17057,Fulton County,36,-90.18,40.47,2285.84,0.02,0.0,0.0,5.0,0.0,,,,0.0,3.0,0.0,288.0,71.0,14318.0,220.0,22.0,9869.0,132.0,14.0,4834.0,321.0,48.0,13642.0,58.0,14.0,1038.0,227.0,35.0,9802.0,,,,71.0,18.0,1839.0,7.0,3.0,153.0,1872.0,69.0,72660.0,121.0,11.0,1131.0,807.0,75.0,9631.0,334.0,92.0,6106.0,,,
17059,Gallatin County,5,-88.23,37.75,849.9,0.01,0.0,,,,0.0,3.0,0.0,,,,20.0,9.0,615.0,67.0,5.0,2887.0,,,,21.0,5.0,802.0,,,,21.0,8.0,874.0,,,,,,,,,,86.0,8.0,1898.0,,,,43.0,5.0,504.0,40.0,17.0,938.0,,,
17061,Greene County,13,-90.39,39.36,1414.67,0.01,0.0,,,,,,,,,,45.0,15.0,1828.0,186.0,20.0,8054.0,8.0,4.0,304.0,119.0,18.0,7034.0,1.0,3.0,47.0,93.0,11.0,4524.0,,,,11.0,3.0,445.0,,,,332.0,17.0,11385.0,5.0,5.0,59.0,190.0,23.0,2019.0,105.0,32.0,1922.0,,,
17063,Grundy County,50,-88.41,41.27,1114.84,0.04,0.27,,,,0.0,3.0,0.0,0.0,3.0,0.0,843.0,137.0,80632.0,602.0,50.0,32962.0,163.0,23.0,7310.0,311.0,69.0,18146.0,103.0,36.0,3427.0,976.0,89.0,56316.0,,,,228.0,46.0,16182.0,78.0,12.0,1484.0,2325.0,145.0,111400.0,178.0,24.0,3376.0,1996.0,135.0,26725.0,1344.0,136.0,65933.0,,,
17065,Hamilton County,8,-97.97,31.64,1128.9,0.01,0.0,,,,0.0,3.0,0.0,,,,60.0,20.0,2333.0,84.0,8.0,4029.0,0.0,5.0,0.0,40.0,12.0,1731.0,19.0,5.0,690.0,35.0,14.0,985.0,,,,0.0,3.0,0.0,,,,448.0,21.0,13494.0,,,,132.0,9.0,1512.0,145.0,47.0,3235.0,,,
17067,Hancock County,18,-91.15,40.39,2108.9,0.01,0.09,,,,32.0,4.0,1368.0,38.0,6.0,2768.0,141.0,34.0,5494.0,328.0,32.0,15405.0,39.0,9.0,1807.0,181.0,30.0,7177.0,20.0,5.0,248.0,161.0,18.0,12484.0,,,,17.0,6.0,314.0,,,,530.0,29.0,20440.0,3.0,3.0,159.0,191.0,37.0,3041.0,186.0,64.0,3473.0,,,
17069,Hardin County,4,-94.4,30.3,470.27,0.01,0.0,,,,111.0,4.0,5298.0,,,,,,,,,,,,,18.0,5.0,354.0,4.0,3.0,74.0,,,,,,,,,,,,,296.0,11.0,9846.0,,,,21.0,7.0,353.0,6.0,4.0,86.0,,,
17071,Henderson County,7,-95.79,32.18,1023.96,0.01,0.0,0.0,3.0,0.0,,,,,,,37.0,12.0,1784.0,137.0,13.0,4881.0,,,,94.0,14.0,3301.0,4.0,3.0,55.0,30.0,8.0,692.0,,,,,,,,,,141.0,7.0,4230.0,,,,45.0,14.0,428.0,25.0,14.0,707.0,,,
17073,Henry County,50,-90.12,41.34,2138.53,0.02,0.08,192.0,11.0,8564.0,,,,37.0,3.0,3476.0,761.0,122.0,47437.0,864.0,77.0,48889.0,175.0,19.0,7583.0,504.0,84.0,28540.0,63.0,24.0,1352.0,305.0,66.0,9080.0,0.0,4.0,0.0,115.0,39.0,5007.0,60.0,4.0,938.0,1672.0,80.0,57847.0,172.0,23.0,2700.0,1116.0,92.0,13251.0,544.0,143.0,11667.0,,,
17075,Iroquois County,28,-87.83,40.74,2897.67,0.01,0.0,15.0,4.0,649.0,13.0,3.0,652.0,,,,375.0,96.0,23017.0,522.0,54.0,22882.0,96.0,17.0,2533.0,356.0,57.0,15390.0,40.0,17.0,1197.0,88.0,33.0,3549.0,40.0,3.0,2471.0,109.0,25.0,3826.0,,,,1689.0,69.0,54622.0,26.0,7.0,479.0,441.0,55.0,5160.0,254.0,86.0,5590.0,,,
17077,Jackson County,59,-96.56,28.92,1560.3,0.04,0.23,6.0,5.0,140.0,,,,0.0,3.0,0.0,769.0,92.0,47137.0,284.0,29.0,12937.0,225.0,19.0,7752.0,603.0,88.0,28237.0,390.0,77.0,8504.0,765.0,101.0,32919.0,302.0,7.0,37175.0,580.0,55.0,19769.0,238.0,12.0,5344.0,4398.0,171.0,188909.0,147.0,20.0,2503.0,2677.0,149.0,31424.0,977.0,165.0,17967.0,,,
17079,Jasper County,10,-94.0,30.75,1290.18,0.01,0.0,,,,14.0,6.0,511.0,,,,76.0,28.0,3227.0,210.0,22.0,7408.0,26.0,4.0,755.0,99.0,13.0,4668.0,0.0,4.0,0.0,21.0,10.0,867.0,,,,7.0,5.0,132.0,,,,230.0,18.0,3998.0,,,,228.0,16.0,2518.0,89.0,32.0,1680.0,,,
17081,Jefferson County,38,-94.17,29.83,1511.81,0.03,0.1,8.0,3.0,357.0,77.0,14.0,3885.0,108.0,4.0,10458.0,327.0,56.0,16586.0,1034.0,59.0,47045.0,179.0,19.0,5640.0,416.0,66.0,26238.0,74.0,27.0,2494.0,396.0,63.0,20142.0,37.0,7.0,2208.0,655.0,32.0,14119.0,,,,3986.0,146.0,189865.0,88.0,13.0,1960.0,1748.0,88.0,24276.0,839.0,133.0,23996.0,,,
17083,Jersey County,22,-90.33,39.08,976.78,0.02,0.47,,,,,,,39.0,3.0,2957.0,239.0,57.0,11578.0,198.0,24.0,5519.0,55.0,9.0,2401.0,192.0,32.0,9048.0,32.0,13.0,899.0,103.0,18.0,5672.0,,,,26.0,8.0,603.0,0.0,4.0,0.0,954.0,35.0,30310.0,50.0,9.0,1629.0,702.0,57.0,10273.0,260.0,52.0,5888.0,,,
17085,Jo Daviess County,22,-90.17,42.35,1601.75,0.01,0.0,8.0,4.0,217.0,,,,0.0,3.0,0.0,370.0,103.0,19803.0,134.0,26.0,7374.0,25.0,7.0,914.0,203.0,39.0,9023.0,110.0,21.0,5389.0,181.0,49.0,8574.0,,,,553.0,35.0,16383.0,,,,758.0,43.0,21136.0,87.0,16.0,2516.0,1296.0,99.0,25346.0,287.0,74.0,7728.0,,,
17087,Johnson County,13,-97.36,32.38,903.47,0.01,0.27,,,,,,,,,,60.0,13.0,2874.0,42.0,6.0,1037.0,,,,67.0,15.0,2471.0,8.0,4.0,118.0,147.0,10.0,1252.0,,,,18.0,7.0,901.0,,,,234.0,18.0,5287.0,,,,189.0,17.0,2754.0,105.0,27.0,1957.0,,,
17089,Kane County,529,-88.42,41.92,1357.91,0.39,0.64,124.0,17.0,6443.0,86.0,9.0,4650.0,0.0,10.0,0.0,11502.0,1547.0,865027.0,12947.0,908.0,882538.0,2129.0,178.0,123881.0,7438.0,771.0,465057.0,2831.0,467.0,147151.0,9842.0,1553.0,692938.0,3201.0,74.0,301483.0,16809.0,903.0,527093.0,4100.0,157.0,113969.0,23422.0,1220.0,1200750.0,3510.0,193.0,92758.0,18559.0,952.0,319460.0,8320.0,1143.0,267818.0,15.0,5.0,140.0
17091,Kankakee County,111,-87.85,41.13,1764.46,0.06,0.29,10.0,7.0,797.0,0.0,4.0,0.0,62.0,3.0,8175.0,1028.0,205.0,68436.0,2223.0,128.0,119205.0,632.0,38.0,25298.0,826.0,145.0,41240.0,327.0,88.0,12415.0,736.0,140.0,33312.0,401.0,17.0,24095.0,1252.0,112.0,44706.0,2187.0,20.0,41108.0,7554.0,291.0,327510.0,443.0,40.0,7775.0,4186.0,242.0,57416.0,1422.0,270.0,38093.0,,,
17093,Kendall County,123,-98.73,29.94,834.58,0.15,0.63,8.0,4.0,224.0,0.0,3.0,0.0,0.0,4.0,0.0,1350.0,314.0,80124.0,1334.0,84.0,64109.0,309.0,32.0,18553.0,688.0,113.0,45440.0,168.0,79.0,6231.0,864.0,218.0,39931.0,6.0,5.0,350.0,1335.0,151.0,41668.0,380.0,32.0,8776.0,1613.0,181.0,55707.0,539.0,44.0,8877.0,3487.0,193.0,51796.0,1120.0,220.0,28360.0,8.0,4.0,99.0
17095,Knox County,51,-99.71,33.59,1864.46,0.03,0.01,,,,,,,,,,393.0,67.0,21146.0,633.0,47.0,37542.0,207.0,14.0,7829.0,391.0,76.0,18922.0,125.0,37.0,3195.0,285.0,59.0,12199.0,,,,345.0,44.0,14105.0,0.0,10.0,0.0,3750.0,133.0,119476.0,254.0,25.0,4038.0,1756.0,127.0,22652.0,738.0,124.0,18961.0,,,
17097,Lake County,704,-122.78,39.05,1219.22,0.58,0.77,97.0,32.0,3348.0,0.0,4.0,0.0,711.0,17.0,83031.0,11354.0,1971.0,851002.0,41201.0,1307.0,4647366.0,4466.0,294.0,390541.0,14211.0,1178.0,1425613.0,3550.0,818.0,237215.0,30099.0,2947.0,2796279.0,22770.0,183.0,3793963.0,19698.0,1423.0,839049.0,7011.0,329.0,224209.0,36254.0,2080.0,1865460.0,7341.0,384.0,373591.0,27568.0,1548.0,506118.0,11138.0,1689.0,354535.0,16.0,10.0,2497.0
17099,LaSalle County,111,-88.9,41.35,2973.66,0.04,0.16,150.0,7.0,6778.0,571.0,11.0,58488.0,0.0,11.0,0.0,1256.0,244.0,85333.0,2100.0,126.0,124349.0,530.0,50.0,24540.0,1298.0,176.0,65503.0,343.0,73.0,12787.0,1523.0,174.0,79291.0,314.0,12.0,38439.0,2742.0,105.0,60993.0,322.0,20.0,7035.0,5190.0,275.0,185010.0,447.0,50.0,5411.0,4125.0,312.0,58028.0,1594.0,322.0,41224.0,,,
17101,Lawrence County,16,-80.35,41.0,969.43,0.02,0.01,,,,203.0,13.0,11973.0,,,,93.0,17.0,5076.0,195.0,11.0,6245.0,25.0,5.0,695.0,291.0,27.0,14300.0,17.0,8.0,598.0,38.0,8.0,1740.0,,,,122.0,11.0,5050.0,,,,508.0,23.0,13994.0,,,,249.0,18.0,2932.0,133.0,43.0,2480.0,,,
17103,Lee County,35,-96.96,30.3,1887.88,0.02,0.02,,,,,,,132.0,8.0,16798.0,219.0,72.0,13110.0,509.0,31.0,23092.0,63.0,10.0,2628.0,296.0,55.0,15050.0,87.0,22.0,2984.0,288.0,29.0,14358.0,,,,443.0,30.0,11759.0,,,,2130.0,88.0,96463.0,172.0,14.0,2070.0,931.0,75.0,12039.0,466.0,96.0,11266.0,,,
17105,Livingston County,37,-88.56,40.87,2709.1,0.01,0.13,48.0,8.0,2700.0,52.0,6.0,4691.0,102.0,7.0,9758.0,525.0,89.0,30153.0,714.0,66.0,39375.0,97.0,18.0,2698.0,438.0,67.0,21290.0,69.0,18.0,2442.0,215.0,44.0,9961.0,,,,450.0,23.0,15915.0,19.0,4.0,441.0,1495.0,68.0,46735.0,76.0,14.0,1532.0,821.0,72.0,9395.0,705.0,115.0,15726.0,,,
17107,Logan County,29,-89.38,40.11,1603.12,0.02,0.12,56.0,4.0,2428.0,,,,0.0,4.0,0.0,186.0,46.0,7033.0,546.0,41.0,32849.0,49.0,12.0,1317.0,291.0,59.0,12800.0,59.0,20.0,1580.0,215.0,32.0,8980.0,,,,172.0,14.0,7677.0,572.0,6.0,11019.0,1358.0,56.0,45165.0,42.0,6.0,737.0,873.0,61.0,10613.0,448.0,84.0,8417.0,,,
17109,McDonough County,32,-90.68,40.44,1528.51,0.02,0.02,0.0,3.0,0.0,,,,41.0,3.0,3842.0,289.0,44.0,14618.0,207.0,31.0,9612.0,112.0,12.0,4712.0,322.0,53.0,14763.0,125.0,30.0,3023.0,232.0,44.0,7902.0,69.0,3.0,3985.0,182.0,26.0,6469.0,0.0,4.0,0.0,1883.0,66.0,70169.0,146.0,10.0,1807.0,1465.0,87.0,17255.0,346.0,101.0,6981.0,,,
17111,McHenry County,308,-88.46,42.33,1582.86,0.19,0.54,55.0,20.0,1601.0,87.0,10.0,6061.0,0.0,6.0,0.0,7180.0,1094.0,576437.0,5455.0,476.0,341178.0,1100.0,97.0,57153.0,2102.0,417.0,130252.0,691.0,239.0,26913.0,3338.0,895.0,193064.0,1651.0,47.0,176870.0,4729.0,585.0,218820.0,645.0,88.0,12440.0,11752.0,770.0,562436.0,1830.0,142.0,34582.0,9739.0,594.0,156298.0,4868.0,797.0,145584.0,2.0,3.0,65.0
17113,McLean County,173,-88.82,40.46,3072.48,0.06,0.32,103.0,5.0,5608.0,,,,227.0,8.0,19501.0,2075.0,320.0,108347.0,2783.0,188.0,197504.0,776.0,61.0,41205.0,17818.0,256.0,1701680.0,720.0,151.0,26245.0,2238.0,333.0,141526.0,779.0,21.0,39183.0,4588.0,212.0,156747.0,2632.0,59.0,56878.0,8617.0,378.0,402337.0,1132.0,61.0,20095.0,8492.0,417.0,126753.0,3557.0,412.0,107689.0,11.0,5.0,603.0
17115,Macon County,108,-88.96,39.85,1517.37,0.07,0.34,,,,,,,0.0,8.0,0.0,3060.0,209.0,182568.0,1451.0,105.0,88857.0,454.0,37.0,17468.0,1712.0,174.0,99008.0,476.0,87.0,15051.0,1102.0,142.0,56240.0,3193.0,19.0,318358.0,1281.0,125.0,44677.0,1282.0,16.0,26717.0,8103.0,284.0,360767.0,680.0,47.0,9334.0,4361.0,253.0,63044.0,2071.0,307.0,54350.0,5.0,4.0,112.0
17117,Macoupin County,46,-89.93,39.24,2247.06,0.02,0.0,,,,,,,0.0,4.0,0.0,358.0,110.0,14008.0,615.0,43.0,28681.0,318.0,19.0,17040.0,442.0,63.0,18315.0,45.0,15.0,842.0,114.0,38.0,3626.0,,,,210.0,30.0,15183.0,0.0,5.0,0.0,1660.0,82.0,51652.0,97.0,20.0,1192.0,766.0,88.0,9561.0,509.0,134.0,10485.0,,,
17119,Madison County,266,-95.95,30.96,1917.8,0.14,0.43,,,,59.0,9.0,3511.0,1018.0,17.0,97940.0,5676.0,537.0,407136.0,3370.0,228.0,197591.0,773.0,88.0,36389.0,2913.0,454.0,155190.0,978.0,233.0,37890.0,3636.0,535.0,264097.0,688.0,26.0,45911.0,4430.0,261.0,139760.0,691.0,67.0,13746.0,14119.0,686.0,538406.0,2053.0,104.0,35238.0,11226.0,583.0,160745.0,4889.0,731.0,128668.0,,,
17121,Marion County,38,-94.34,32.79,1492.02,0.03,0.01,,,,93.0,17.0,4607.0,34.0,5.0,3468.0,478.0,63.0,29216.0,284.0,29.0,12410.0,193.0,22.0,5831.0,387.0,76.0,18585.0,113.0,23.0,2386.0,287.0,54.0,8603.0,,,,241.0,32.0,7562.0,56.0,5.0,466.0,2906.0,109.0,100892.0,119.0,18.0,1684.0,951.0,83.0,12531.0,562.0,132.0,11498.0,,,
17123,Marshall County,12,-89.3,41.03,1032.19,0.01,0.14,,,,,,,,,,142.0,33.0,8299.0,217.0,20.0,11169.0,0.0,3.0,0.0,119.0,22.0,4988.0,6.0,5.0,139.0,45.0,12.0,2340.0,,,,12.0,8.0,380.0,,,,480.0,17.0,11544.0,16.0,6.0,274.0,222.0,30.0,2250.0,116.0,36.0,1654.0,,,
17125,Mason County,14,-99.22,30.71,1459.35,0.01,0.0,4.0,3.0,147.0,,,,,,,76.0,21.0,3292.0,308.0,26.0,16661.0,35.0,4.0,888.0,125.0,19.0,6186.0,16.0,7.0,624.0,27.0,11.0,809.0,,,,9.0,8.0,277.0,,,,521.0,19.0,19008.0,18.0,7.0,346.0,250.0,34.0,2766.0,144.0,39.0,2698.0,,,
17127,Massac County,15,-88.72,37.22,626.92,0.02,0.0,,,,,,,,,,69.0,17.0,2963.0,72.0,7.0,3966.0,14.0,4.0,625.0,108.0,20.0,5199.0,47.0,8.0,764.0,176.0,10.0,10054.0,,,,0.0,5.0,0.0,,,,704.0,23.0,21512.0,24.0,3.0,333.0,735.0,24.0,21235.0,196.0,50.0,4567.0,,,
17129,Menard County,12,-99.83,30.86,817.25,0.01,0.04,,,,,,,,,,106.0,33.0,4960.0,96.0,12.0,4749.0,,,,101.0,15.0,4633.0,9.0,3.0,234.0,118.0,15.0,3831.0,,,,37.0,11.0,989.0,,,,74.0,8.0,2574.0,36.0,8.0,994.0,166.0,20.0,1859.0,106.0,27.0,2649.0,,,
17131,Mercer County,16,-80.3,41.33,1473.05,0.01,0.0,,,,,,,,,,123.0,30.0,6792.0,176.0,17.0,8607.0,40.0,8.0,1448.0,134.0,27.0,4906.0,7.0,4.0,178.0,44.0,16.0,1444.0,,,,88.0,10.0,2207.0,,,,309.0,21.0,12549.0,103.0,7.0,1105.0,210.0,25.0,2250.0,164.0,43.0,2750.0,,,
17133,Monroe County,34,-90.18,38.27,1030.25,0.03,0.78,,,,,,,,,,458.0,107.0,22826.0,316.0,23.0,16625.0,152.0,11.0,9343.0,326.0,63.0,18080.0,155.0,35.0,8547.0,625.0,73.0,44860.0,0.0,3.0,0.0,819.0,57.0,24576.0,233.0,7.0,3126.0,1047.0,91.0,30587.0,323.0,19.0,4532.0,1344.0,76.0,18068.0,711.0,106.0,19616.0,,,
17135,Montgomery County,29,-95.51,30.3,1837.93,0.02,0.16,,,,162.0,3.0,3706.0,0.0,4.0,0.0,340.0,73.0,15385.0,405.0,43.0,17740.0,75.0,10.0,3540.0,432.0,53.0,18729.0,83.0,20.0,1734.0,195.0,35.0,8543.0,14.0,5.0,585.0,144.0,21.0,4292.0,32.0,5.0,549.0,1419.0,68.0,49087.0,93.0,15.0,1061.0,1034.0,70.0,13787.0,332.0,80.0,7513.0,,,
17137,Morgan County,34,-90.19,39.71,1482.41,0.02,0.07,,,,,,,,,,353.0,78.0,18209.0,422.0,39.0,19219.0,204.0,16.0,5524.0,1240.0,61.0,79616.0,103.0,25.0,3251.0,610.0,37.0,28459.0,67.0,7.0,4353.0,315.0,40.0,12359.0,937.0,7.0,20716.0,2661.0,102.0,101540.0,252.0,12.0,2582.0,1479.0,85.0,18170.0,439.0,97.0,9206.0,,,
17139,Moultrie County,15,-88.61,39.64,892.59,0.02,0.22,,,,,,,,,,303.0,48.0,14913.0,80.0,11.0,4941.0,79.0,8.0,4551.0,166.0,19.0,6857.0,0.0,3.0,0.0,115.0,13.0,5328.0,,,,446.0,12.0,11607.0,,,,731.0,32.0,18731.0,49.0,5.0,951.0,215.0,25.0,2817.0,150.0,39.0,2826.0,,,
17141,Ogle County,52,-89.31,42.04,1976.05,0.03,0.31,32.0,6.0,1705.0,111.0,4.0,9470.0,,,,560.0,122.0,34556.0,570.0,45.0,30656.0,134.0,19.0,6029.0,521.0,75.0,22879.0,82.0,36.0,2953.0,357.0,75.0,21438.0,0.0,3.0,0.0,690.0,46.0,26155.0,,,,1571.0,86.0,53254.0,55.0,16.0,1216.0,1256.0,117.0,15802.0,629.0,140.0,14260.0,,,
17143,Peoria County,186,-89.77,40.8,1633.04,0.11,0.57,7.0,6.0,941.0,,,,803.0,11.0,73668.0,2756.0,310.0,190554.0,3416.0,211.0,178902.0,1648.0,87.0,90846.0,3874.0,360.0,272507.0,983.0,184.0,41248.0,4539.0,410.0,297958.0,0.0,35.0,0.0,6243.0,247.0,209409.0,3436.0,55.0,91885.0,25040.0,522.0,1366391.0,1691.0,84.0,29215.0,7852.0,457.0,121849.0,6536.0,472.0,269696.0,,,
17145,Perry County,21,-89.38,38.08,1157.63,0.02,0.11,,,,0.0,4.0,0.0,,,,127.0,31.0,5841.0,188.0,17.0,7539.0,44.0,7.0,1327.0,164.0,34.0,7085.0,15.0,5.0,455.0,90.0,25.0,2632.0,,,,100.0,13.0,2107.0,,,,944.0,46.0,31030.0,15.0,5.0,286.0,564.0,44.0,5744.0,335.0,88.0,6220.0,,,
17147,Piatt County,16,-88.61,39.97,1138.25,0.01,0.12,23.0,6.0,1633.0,,,,,,,121.0,34.0,5299.0,297.0,27.0,16149.0,11.0,5.0,633.0,152.0,24.0,7265.0,27.0,7.0,568.0,118.0,24.0,4663.0,,,,12.0,16.0,436.0,0.0,3.0,0.0,400.0,22.0,14546.0,18.0,3.0,227.0,318.0,37.0,4055.0,150.0,43.0,3042.0,,,
17149,Pike County,16,-90.85,39.61,2198.65,0.01,0.0,,,,0.0,4.0,0.0,,,,130.0,41.0,4909.0,259.0,29.0,13275.0,46.0,8.0,1436.0,211.0,32.0,10473.0,100.0,8.0,3371.0,69.0,18.0,3050.0,,,,45.0,10.0,1968.0,,,,700.0,23.0,24338.0,23.0,9.0,386.0,335.0,28.0,4068.0,135.0,45.0,2718.0,,,
17151,Pope County,4,-88.59,37.39,970.45,0.0,0.0,,,,,,,,,,9.0,3.0,114.0,,,,,,,11.0,3.0,214.0,11.0,4.0,327.0,5.0,6.0,219.0,,,,,,,,,,55.0,9.0,1525.0,,,,16.0,4.0,184.0,36.0,12.0,531.0,,,
17153,Pulaski County,6,-89.12,37.23,526.51,0.01,0.0,,,,,,,,,,,,,91.0,6.0,4932.0,,,,40.0,5.0,1500.0,,,,,,,,,,4.0,3.0,147.0,,,,143.0,13.0,1701.0,,,,39.0,5.0,425.0,66.0,25.0,1410.0,,,
17155,Putnam County,6,-89.27,41.2,445.98,0.01,0.0,,,,,,,,,,189.0,27.0,9856.0,69.0,13.0,5099.0,0.0,3.0,0.0,42.0,7.0,2163.0,6.0,3.0,98.0,15.0,5.0,784.0,,,,0.0,7.0,0.0,,,,21.0,5.0,573.0,8.0,3.0,269.0,54.0,15.0,702.0,37.0,9.0,805.0,,,
17157,Randolph County,33,-89.81,38.05,1546.92,0.02,0.1,,,,0.0,3.0,0.0,0.0,3.0,0.0,510.0,68.0,22381.0,497.0,27.0,23087.0,78.0,12.0,2851.0,289.0,50.0,12667.0,25.0,10.0,1045.0,284.0,28.0,10925.0,172.0,5.0,8471.0,564.0,21.0,8684.0,102.0,7.0,2362.0,1949.0,76.0,80183.0,61.0,9.0,1711.0,969.0,68.0,11242.0,543.0,112.0,15057.0,,,
17159,Richland County,16,-88.09,38.71,937.2,0.02,0.01,,,,102.0,20.0,4755.0,0.0,3.0,0.0,197.0,48.0,7329.0,312.0,27.0,13846.0,52.0,12.0,2027.0,178.0,35.0,8437.0,27.0,7.0,1127.0,74.0,29.0,3359.0,,,,270.0,9.0,6326.0,21.0,4.0,129.0,1199.0,54.0,40984.0,16.0,7.0,208.0,542.0,36.0,6493.0,269.0,68.0,6979.0,,,
17161,Rock Island County,146,-90.58,41.44,1168.4,0.12,0.14,,,,0.0,5.0,0.0,0.0,9.0,0.0,2091.0,234.0,136325.0,2976.0,156.0,175188.0,797.0,40.0,44780.0,2531.0,202.0,160378.0,520.0,123.0,16389.0,3118.0,266.0,195558.0,4684.0,29.0,702366.0,2332.0,135.0,88414.0,2157.0,34.0,43428.0,9460.0,405.0,398888.0,966.0,52.0,13000.0,6083.0,350.0,91998.0,2404.0,364.0,63741.0,,,
17163,St. Clair County,264,-93.79,38.06,1745.69,0.15,0.45,39.0,4.0,2491.0,0.0,7.0,0.0,1100.0,20.0,108619.0,3608.0,444.0,209673.0,2372.0,198.0,119243.0,1134.0,77.0,54011.0,2287.0,389.0,130891.0,916.0,215.0,34421.0,5139.0,505.0,358810.0,469.0,24.0,34517.0,3168.0,294.0,114421.0,1576.0,60.0,35304.0,14815.0,607.0,619833.0,1293.0,72.0,18572.0,10622.0,535.0,167295.0,4739.0,603.0,123999.0,2.0,6.0,76.0
17165,Saline County,24,-88.53,37.75,1001.62,0.02,0.0,4.0,3.0,53.0,723.0,8.0,42505.0,96.0,4.0,8919.0,257.0,44.0,15959.0,143.0,13.0,6829.0,63.0,8.0,1926.0,367.0,53.0,17395.0,71.0,13.0,2740.0,168.0,42.0,5747.0,115.0,4.0,8567.0,88.0,16.0,2659.0,15.0,3.0,141.0,2394.0,83.0,73666.0,14.0,7.0,262.0,811.0,49.0,9409.0,296.0,82.0,6635.0,,,
17167,Sangamon County,198,-89.65,39.76,2271.3,0.09,0.16,24.0,8.0,645.0,308.0,7.0,20978.0,291.0,15.0,27771.0,3172.0,464.0,204348.0,3201.0,215.0,160302.0,1791.0,101.0,130644.0,5375.0,364.0,332804.0,893.0,239.0,31672.0,5213.0,502.0,310347.0,2235.0,30.0,152436.0,3649.0,265.0,116304.0,1327.0,60.0,38953.0,22504.0,472.0,1055470.0,1372.0,100.0,30599.0,10192.0,552.0,153415.0,5764.0,686.0,208215.0,5.0,5.0,230.0
17169,Schuyler County,7,-90.57,40.14,1142.98,0.01,0.0,,,,,,,,,,64.0,17.0,4561.0,79.0,9.0,2202.0,15.0,4.0,505.0,64.0,9.0,1939.0,0.0,3.0,0.0,36.0,8.0,1332.0,,,,39.0,7.0,3432.0,11.0,3.0,189.0,351.0,12.0,12431.0,,,,109.0,11.0,1749.0,71.0,27.0,1343.0,,,
17171,Scott County,5,-90.48,39.63,654.79,0.01,0.22,,,,,,,0.0,3.0,0.0,25.0,9.0,1731.0,0.0,4.0,0.0,0.0,3.0,0.0,57.0,10.0,2172.0,,,,7.0,4.0,356.0,,,,,,,,,,16.0,7.0,490.0,,,,41.0,8.0,438.0,27.0,9.0,346.0,,,
17173,Shelby County,22,-94.13,31.77,1988.82,0.01,0.0,8.0,3.0,275.0,0.0,3.0,0.0,,,,174.0,42.0,6322.0,248.0,30.0,9823.0,40.0,7.0,959.0,191.0,37.0,6641.0,25.0,12.0,789.0,266.0,22.0,12988.0,,,,41.0,15.0,1123.0,,,,710.0,31.0,18668.0,78.0,4.0,1794.0,436.0,38.0,4639.0,256.0,63.0,5700.0,,,
17175,Stark County,6,-89.81,41.07,746.93,0.01,0.0,,,,,,,,,,122.0,15.0,5409.0,110.0,14.0,4487.0,,,,76.0,10.0,3238.0,,,,42.0,8.0,1415.0,,,,6.0,4.0,212.0,,,,101.0,7.0,3029.0,,,,21.0,3.0,161.0,33.0,12.0,282.0,,,
17177,Stephenson County,46,-89.67,42.35,1463.25,0.03,0.04,5.0,6.0,213.0,,,,,,,1785.0,110.0,156060.0,598.0,38.0,25184.0,136.0,19.0,4647.0,723.0,88.0,39470.0,97.0,34.0,2746.0,395.0,69.0,20231.0,271.0,12.0,17957.0,514.0,42.0,14252.0,38.0,8.0,649.0,2424.0,101.0,107766.0,323.0,19.0,3007.0,1321.0,90.0,17667.0,815.0,139.0,19424.0,,,
17179,Tazewell County,135,-89.54,40.51,1703.93,0.08,0.54,50.0,6.0,2244.0,9.0,4.0,679.0,83.0,7.0,7492.0,2861.0,314.0,170655.0,2581.0,135.0,140428.0,453.0,49.0,19116.0,1876.0,196.0,111911.0,355.0,96.0,12578.0,1450.0,182.0,73845.0,774.0,23.0,49698.0,1351.0,157.0,50218.0,191.0,27.0,4502.0,4689.0,276.0,144097.0,507.0,58.0,6688.0,6163.0,318.0,96342.0,2201.0,362.0,61799.0,,,
17181,Union County,17,-89.25,37.46,1093.52,0.02,0.09,10.0,5.0,372.0,,,,,,,119.0,38.0,4426.0,93.0,10.0,4108.0,46.0,10.0,1640.0,154.0,27.0,5931.0,19.0,5.0,636.0,91.0,23.0,3453.0,,,,85.0,10.0,1135.0,,,,1331.0,62.0,34240.0,12.0,3.0,289.0,401.0,38.0,3881.0,197.0,47.0,4291.0,,,
17183,Vermilion County,79,-87.73,40.17,2334.54,0.03,0.05,,,,,,,118.0,5.0,8168.0,530.0,109.0,27553.0,2106.0,78.0,111727.0,133.0,22.0,4969.0,980.0,102.0,52046.0,154.0,46.0,5972.0,399.0,76.0,17450.0,102.0,14.0,7856.0,781.0,57.0,24674.0,168.0,14.0,5096.0,5387.0,147.0,279335.0,198.0,26.0,2402.0,2343.0,152.0,28207.0,967.0,197.0,21120.0,,,
17185,Wabash County,12,-87.85,38.46,588.7,0.02,0.0,,,,280.0,22.0,14849.0,0.0,3.0,0.0,166.0,14.0,15289.0,162.0,12.0,11471.0,34.0,6.0,1159.0,104.0,23.0,5130.0,32.0,12.0,928.0,121.0,25.0,4955.0,,,,5.0,5.0,192.0,,,,857.0,21.0,26534.0,10.0,4.0,129.0,286.0,17.0,3449.0,202.0,38.0,3237.0,,,
17187,Warren County,17,-79.27,41.81,1406.32,0.01,0.0,3.0,3.0,34.0,,,,,,,89.0,34.0,2729.0,353.0,30.0,16150.0,51.0,7.0,1683.0,204.0,24.0,10137.0,18.0,10.0,305.0,107.0,19.0,3046.0,,,,111.0,14.0,3348.0,,,,587.0,38.0,16971.0,102.0,7.0,858.0,445.0,36.0,5999.0,197.0,53.0,3228.0,,,
17189,Washington County,14,-96.39,30.22,1460.52,0.01,0.0,,,,16.0,4.0,939.0,,,,291.0,34.0,12763.0,860.0,35.0,38269.0,25.0,9.0,651.0,188.0,34.0,9372.0,9.0,9.0,165.0,97.0,23.0,5869.0,,,,407.0,17.0,13384.0,,,,365.0,22.0,10961.0,19.0,4.0,268.0,364.0,29.0,4359.0,202.0,56.0,3727.0,3.0,5.0,79.0
17191,Wayne County,17,-88.42,38.43,1853.19,0.01,0.0,,,,97.0,25.0,4315.0,0.0,4.0,0.0,87.0,24.0,2907.0,132.0,15.0,5461.0,49.0,6.0,1297.0,126.0,23.0,5927.0,24.0,7.0,517.0,80.0,20.0,3098.0,0.0,3.0,0.0,27.0,8.0,817.0,,,,983.0,42.0,27213.0,11.0,5.0,91.0,347.0,26.0,4314.0,217.0,61.0,5036.0,,,
17193,White County,14,-88.16,38.06,1300.41,0.01,0.0,,,,147.0,25.0,7212.0,,,,105.0,27.0,4422.0,265.0,29.0,10016.0,31.0,12.0,1140.0,154.0,23.0,6965.0,29.0,11.0,960.0,70.0,16.0,2976.0,92.0,3.0,8647.0,11.0,7.0,454.0,,,,718.0,38.0,20140.0,16.0,4.0,171.0,330.0,25.0,4200.0,216.0,64.0,5888.0,,,
17195,Whiteside County,57,-89.92,41.76,1804.16,0.03,0.01,3.0,4.0,233.0,,,,12.0,3.0,686.0,528.0,110.0,31383.0,671.0,76.0,31744.0,304.0,24.0,10137.0,557.0,101.0,26678.0,96.0,38.0,2383.0,406.0,75.0,19141.0,0.0,5.0,0.0,678.0,39.0,17723.0,173.0,8.0,3707.0,3384.0,99.0,110126.0,94.0,17.0,1780.0,1739.0,132.0,22612.0,849.0,166.0,17178.0,,,
17197,Will County,688,-88.0,41.42,2199.95,0.31,0.62,28.0,8.0,625.0,229.0,10.0,11985.0,2413.0,28.0,293551.0,13846.0,1873.0,1094793.0,20101.0,913.0,1354138.0,4146.0,200.0,213827.0,4596.0,781.0,294613.0,2151.0,540.0,112375.0,9570.0,1707.0,572776.0,4627.0,72.0,405110.0,22835.0,1063.0,784696.0,5214.0,217.0,160854.0,26789.0,1556.0,1150520.0,3970.0,249.0,91277.0,23264.0,1201.0,405089.0,10864.0,1455.0,355147.0,7.0,10.0,196.0
17199,Williamson County,67,-97.6,30.66,1150.82,0.06,0.26,,,,0.0,3.0,0.0,0.0,5.0,0.0,916.0,160.0,42997.0,772.0,65.0,32622.0,255.0,26.0,9382.0,1204.0,133.0,54863.0,191.0,59.0,5685.0,669.0,131.0,23743.0,224.0,7.0,20766.0,1257.0,61.0,31865.0,166.0,15.0,1727.0,7166.0,212.0,307551.0,203.0,33.0,3912.0,2999.0,158.0,41253.0,997.0,193.0,24581.0,2.0,3.0,23.0
17201,Winnebago County,288,-89.15,42.33,1344.78,0.21,0.51,44.0,7.0,2246.0,31.0,10.0,1398.0,414.0,9.0,53333.0,3392.0,503.0,237412.0,4895.0,360.0,271428.0,1853.0,97.0,94910.0,3566.0,412.0,214780.0,1289.0,228.0,55149.0,5044.0,578.0,294917.0,1052.0,27.0,72738.0,10687.0,345.0,318010.0,1901.0,72.0,48644.0,21016.0,659.0,1031404.0,2055.0,117.0,29977.0,11532.0,577.0,175320.0,7159.0,686.0,178694.0,3.0,3.0,17.0
17203,Woodford County,39,-89.21,40.81,1405.37,0.03,0.3,2.0,3.0,15.0,,,,,,,743.0,131.0,40130.0,501.0,46.0,34609.0,94.0,18.0,5071.0,238.0,50.0,10187.0,34.0,15.0,904.0,216.0,55.0,9219.0,,,,135.0,35.0,3351.0,352.0,11.0,7455.0,1287.0,51.0,36042.0,97.0,12.0,1870.0,883.0,62.0,10748.0,394.0,96.0,10644.0,,,
