Fips,Name,Population,Longitude,Latitude,Km2,UrbanDensity,UrbanPercent,Emp-11,Est-11,Pay-11,Emp-21,Est-21,Pay-21,Emp-22,Est-22,Pay-22,Emp-23,Est-23,Pay-23,Emp-42,Est-42,Pay-42,Emp-51,Est-51,Pay-51,Emp-52,Est-52,Pay-52,Emp-53,Est-53,Pay-53,Emp-54,Est-54,Pay-54,Emp-55,Est-55,Pay-55,Emp-56,Est-56,Pay-56,Emp-61,Est-61,Pay-61,Emp-62,Est-62,Pay-62,Emp-71,Est-71,Pay-71,Emp-72,Est-72,Pay-72,Emp-81,Est-81,Pay-81,Emp-99,Est-99,Pay-99
27001,Aitkin County,16,-93.38,46.57,5168.11,0.0,0.05,16.0,5.0,688.0,,,,,,,157.0,60.0,7922.0,162.0,13.0,6022.0,22.0,6.0,544.0,93.0,21.0,3561.0,5.0,10.0,398.0,41.0,15.0,1434.0,,,,60.0,21.0,2797.0,,,,926.0,36.0,37240.0,25.0,10.0,650.0,478.0,53.0,7939.0,189.0,43.0,3116.0,,,
27003,Anoka County,345,-93.28,45.27,1155.39,0.3,0.57,33.0,6.0,1316.0,,,,542.0,6.0,45699.0,8407.0,1269.0,613025.0,7881.0,421.0,591762.0,826.0,71.0,60101.0,1973.0,375.0,112604.0,1476.0,422.0,54505.0,4500.0,734.0,289926.0,1708.0,39.0,283194.0,9245.0,482.0,258925.0,1321.0,82.0,38803.0,17587.0,777.0,825448.0,2392.0,121.0,40315.0,11071.0,529.0,179191.0,6261.0,769.0,181929.0,4.0,5.0,197.0
27005,Becker County,34,-95.68,46.93,3742.65,0.01,0.23,22.0,7.0,827.0,,,,,,,493.0,168.0,30759.0,158.0,35.0,8387.0,112.0,10.0,4185.0,254.0,58.0,12257.0,72.0,33.0,2963.0,185.0,53.0,10344.0,35.0,4.0,1771.0,283.0,36.0,11687.0,31.0,3.0,451.0,2165.0,84.0,88260.0,169.0,17.0,2459.0,1041.0,84.0,19243.0,558.0,120.0,13216.0,,,
27007,Beltrami County,46,-94.88,48.0,7913.97,0.01,0.32,57.0,17.0,1484.0,,,,98.0,3.0,7974.0,912.0,158.0,63260.0,384.0,43.0,16839.0,379.0,18.0,17724.0,412.0,64.0,19927.0,93.0,35.0,3153.0,463.0,65.0,21652.0,75.0,7.0,3063.0,370.0,43.0,10886.0,195.0,14.0,5009.0,3086.0,175.0,124180.0,192.0,33.0,3951.0,2219.0,114.0,37072.0,711.0,124.0,20288.0,,,
27009,Benton County,39,-94.05,45.72,1069.8,0.04,0.27,3.0,3.0,107.0,,,,,,,2047.0,182.0,118226.0,1270.0,46.0,67339.0,102.0,9.0,5816.0,224.0,35.0,11303.0,76.0,35.0,2232.0,247.0,50.0,12708.0,348.0,6.0,30234.0,1077.0,40.0,49430.0,0.0,4.0,0.0,2643.0,94.0,64388.0,93.0,16.0,2297.0,1079.0,60.0,15990.0,668.0,100.0,15837.0,,,
27011,Big Stone County,5,-96.36,45.39,1367.68,0.0,0.0,,,,,,,,,,155.0,26.0,16629.0,85.0,10.0,5154.0,,,,69.0,15.0,3447.0,7.0,5.0,225.0,38.0,8.0,1901.0,,,,5.0,5.0,284.0,,,,552.0,19.0,17029.0,12.0,4.0,189.0,117.0,18.0,982.0,82.0,31.0,1324.0,,,
27013,Blue Earth County,66,-94.06,44.01,1982.89,0.03,0.15,47.0,7.0,2328.0,,,,187.0,10.0,14503.0,1684.0,223.0,109075.0,1406.0,93.0,79155.0,896.0,29.0,35965.0,1042.0,138.0,72392.0,628.0,82.0,19546.0,1171.0,136.0,65017.0,384.0,13.0,35456.0,1312.0,83.0,37160.0,882.0,20.0,14729.0,9400.0,277.0,368068.0,901.0,43.0,8537.0,4302.0,169.0,57564.0,1252.0,184.0,31346.0,,,
27015,Brown County,25,-98.99,31.75,1601.29,0.02,0.04,14.0,10.0,735.0,,,,,,,637.0,93.0,37200.0,424.0,35.0,20180.0,179.0,15.0,8628.0,474.0,61.0,24716.0,138.0,19.0,3428.0,448.0,47.0,24700.0,188.0,4.0,11501.0,134.0,25.0,3427.0,663.0,13.0,13458.0,2290.0,75.0,89834.0,157.0,26.0,1874.0,981.0,63.0,13156.0,394.0,101.0,10483.0,,,
27017,Carlton County,35,-92.72,46.58,2266.88,0.02,0.13,45.0,10.0,2417.0,,,,91.0,5.0,8477.0,311.0,83.0,26120.0,279.0,17.0,15130.0,37.0,9.0,1987.0,410.0,45.0,24051.0,70.0,13.0,1515.0,145.0,40.0,4743.0,,,,148.0,30.0,4414.0,14.0,4.0,140.0,2081.0,92.0,79784.0,59.0,19.0,1217.0,774.0,61.0,11183.0,489.0,97.0,10163.0,,,
27019,Carver County,99,-93.79,44.81,974.21,0.1,0.67,44.0,11.0,1468.0,,,,0.0,4.0,0.0,1841.0,369.0,139796.0,2523.0,161.0,223562.0,528.0,46.0,37473.0,1285.0,142.0,61129.0,717.0,135.0,39269.0,2933.0,339.0,178449.0,1405.0,10.0,172456.0,1315.0,149.0,45364.0,1284.0,56.0,31557.0,5503.0,247.0,253032.0,1138.0,44.0,26027.0,3123.0,179.0,51751.0,1679.0,238.0,44758.0,,,
27021,Cass County,29,-94.35,33.06,6251.64,0.0,0.06,41.0,12.0,1633.0,,,,,,,393.0,143.0,20358.0,294.0,14.0,13991.0,37.0,14.0,2718.0,172.0,26.0,9050.0,305.0,37.0,6867.0,158.0,42.0,6358.0,,,,127.0,45.0,7468.0,103.0,4.0,3619.0,1269.0,69.0,44220.0,237.0,21.0,8103.0,1581.0,127.0,45303.0,361.0,94.0,6724.0,,,
27023,Chippewa County,12,-95.53,45.03,1522.41,0.01,0.17,10.0,6.0,493.0,,,,38.0,3.0,3841.0,319.0,54.0,18658.0,345.0,15.0,18436.0,33.0,5.0,734.0,193.0,30.0,9802.0,92.0,10.0,1583.0,81.0,20.0,3189.0,25.0,3.0,1205.0,61.0,14.0,2248.0,,,,1211.0,44.0,37866.0,19.0,7.0,331.0,321.0,24.0,4302.0,340.0,61.0,7697.0,,,
27025,Chisago County,54,-92.88,45.48,1145.65,0.05,0.59,2.0,3.0,84.0,,,,,,,1011.0,225.0,73664.0,372.0,45.0,15397.0,46.0,10.0,2805.0,243.0,46.0,11648.0,95.0,51.0,3584.0,905.0,86.0,71246.0,51.0,5.0,4205.0,443.0,61.0,23493.0,51.0,9.0,1013.0,4131.0,158.0,170262.0,284.0,26.0,5165.0,1210.0,86.0,20147.0,700.0,146.0,17501.0,,,
27027,Clay County,62,-98.21,33.69,2726.59,0.02,0.28,26.0,8.0,868.0,,,,,,,918.0,194.0,55480.0,1130.0,73.0,62895.0,99.0,13.0,4621.0,438.0,93.0,23033.0,168.0,45.0,4591.0,600.0,97.0,26930.0,199.0,7.0,21705.0,449.0,55.0,21668.0,0.0,8.0,0.0,4535.0,182.0,142833.0,164.0,25.0,3110.0,1799.0,100.0,27512.0,936.0,163.0,22504.0,,,
27029,Clearwater County,9,-95.37,47.56,2667.89,0.0,0.0,33.0,4.0,1337.0,,,,,,,520.0,37.0,34280.0,44.0,5.0,940.0,0.0,3.0,0.0,73.0,10.0,2816.0,,,,54.0,13.0,1124.0,,,,7.0,7.0,382.0,,,,537.0,17.0,19504.0,0.0,4.0,0.0,184.0,23.0,1523.0,94.0,31.0,1436.0,,,
27031,Cook County,5,-87.76,41.82,4164.71,0.0,0.29,,,,,,,,,,111.0,52.0,5549.0,16.0,5.0,603.0,32.0,6.0,1021.0,33.0,6.0,1892.0,49.0,14.0,1623.0,32.0,13.0,1942.0,,,,23.0,12.0,1289.0,51.0,5.0,1419.0,212.0,13.0,9269.0,275.0,10.0,6696.0,671.0,64.0,20353.0,36.0,20.0,844.0,,,
27033,Cottonwood County,11,-95.17,44.02,1679.48,0.01,0.0,,,,,,,17.0,3.0,1383.0,198.0,46.0,10774.0,248.0,25.0,13190.0,44.0,11.0,1469.0,96.0,26.0,4758.0,18.0,7.0,1004.0,75.0,18.0,3059.0,,,,52.0,13.0,2240.0,,,,727.0,31.0,20930.0,20.0,9.0,603.0,302.0,20.0,3665.0,181.0,49.0,4633.0,,,
27035,Crow Wing County,64,-94.1,46.47,2995.76,0.02,0.21,38.0,10.0,942.0,,,,131.0,7.0,10512.0,1817.0,282.0,116212.0,622.0,82.0,27035.0,583.0,57.0,28662.0,1353.0,138.0,73747.0,275.0,98.0,9753.0,1058.0,160.0,59858.0,176.0,9.0,7460.0,1065.0,112.0,33451.0,808.0,16.0,9872.0,6062.0,251.0,271852.0,335.0,42.0,5660.0,3143.0,202.0,65755.0,1271.0,204.0,27536.0,,,
27037,Dakota County,415,-93.04,44.67,1519.72,0.27,0.65,53.0,13.0,1130.0,91.0,8.0,9497.0,502.0,15.0,47725.0,8882.0,1059.0,686622.0,10749.0,691.0,755711.0,7550.0,188.0,725892.0,12334.0,679.0,1038010.0,2419.0,590.0,109957.0,9858.0,1420.0,669748.0,7662.0,150.0,644068.0,8169.0,666.0,357201.0,3192.0,158.0,110244.0,24851.0,1144.0,893620.0,4512.0,184.0,253480.0,17865.0,728.0,299471.0,9399.0,978.0,285393.0,6.0,7.0,85.0
27039,Dodge County,20,-83.15,32.15,1138.56,0.02,0.04,32.0,4.0,1249.0,,,,,,,391.0,78.0,27028.0,611.0,20.0,39936.0,68.0,7.0,2687.0,112.0,22.0,4829.0,10.0,8.0,304.0,92.0,25.0,3171.0,,,,42.0,14.0,2293.0,,,,343.0,40.0,10110.0,47.0,10.0,768.0,339.0,28.0,4832.0,325.0,63.0,9619.0,,,
27041,Douglas County,37,-88.22,39.76,1865.01,0.02,0.32,,,,,,,77.0,5.0,5283.0,1113.0,175.0,70712.0,879.0,54.0,44064.0,236.0,19.0,12682.0,447.0,85.0,25013.0,155.0,43.0,8275.0,438.0,90.0,22915.0,,,,492.0,70.0,14151.0,57.0,6.0,987.0,3640.0,146.0,129563.0,83.0,37.0,2984.0,1991.0,115.0,31460.0,787.0,157.0,18198.0,,,
27043,Faribault County,14,-93.95,43.66,1870.06,0.01,0.0,20.0,6.0,666.0,,,,,,,182.0,49.0,9518.0,171.0,27.0,7486.0,144.0,9.0,6726.0,223.0,34.0,12516.0,8.0,6.0,181.0,80.0,18.0,2667.0,,,,29.0,11.0,748.0,0.0,3.0,0.0,770.0,34.0,25953.0,10.0,5.0,135.0,308.0,35.0,3564.0,259.0,57.0,3834.0,,,
27045,Fillmore County,21,-92.06,43.65,2233.04,0.01,0.03,13.0,5.0,442.0,,,,106.0,3.0,8149.0,286.0,71.0,17878.0,314.0,27.0,14926.0,76.0,12.0,2755.0,234.0,39.0,11997.0,12.0,7.0,353.0,134.0,36.0,4804.0,,,,44.0,14.0,1687.0,0.0,4.0,0.0,898.0,43.0,24470.0,78.0,13.0,1637.0,464.0,68.0,6009.0,267.0,94.0,5017.0,,,
27047,Freeborn County,31,-93.35,43.68,1871.42,0.02,0.13,10.0,4.0,231.0,,,,,,,379.0,80.0,28267.0,599.0,46.0,36249.0,106.0,12.0,2909.0,486.0,54.0,25695.0,44.0,19.0,923.0,217.0,37.0,10051.0,0.0,3.0,0.0,422.0,31.0,12870.0,36.0,6.0,889.0,2184.0,73.0,99146.0,87.0,11.0,1917.0,1028.0,69.0,13621.0,581.0,108.0,10328.0,,,
27049,Goodhue County,46,-92.72,44.4,2021.24,0.02,0.14,25.0,6.0,1063.0,0.0,3.0,0.0,0.0,8.0,0.0,931.0,153.0,63234.0,562.0,42.0,32033.0,213.0,14.0,14121.0,929.0,77.0,49774.0,151.0,37.0,5567.0,461.0,78.0,28828.0,0.0,3.0,0.0,848.0,52.0,27007.0,87.0,13.0,2086.0,3396.0,155.0,140165.0,530.0,26.0,4594.0,3042.0,107.0,83307.0,790.0,164.0,19537.0,4.0,4.0,21.0
27051,Grant County,6,-96.03,45.94,1490.14,0.0,0.36,23.0,4.0,561.0,,,,,,,154.0,35.0,8425.0,115.0,10.0,7659.0,39.0,5.0,2094.0,74.0,20.0,4500.0,,,,33.0,10.0,918.0,,,,6.0,4.0,253.0,,,,390.0,18.0,12049.0,5.0,4.0,236.0,55.0,10.0,707.0,134.0,29.0,1606.0,,,
27053,Hennepin County,1225,-93.49,45.03,1571.12,0.78,0.46,96.0,30.0,3255.0,0.0,6.0,0.0,4273.0,53.0,484719.0,32818.0,2762.0,2564612.0,48136.0,2575.0,4060582.0,26867.0,995.0,2586415.0,82663.0,3046.0,9599093.0,19171.0,2527.0,1226804.0,88221.0,6939.0,7109031.0,76616.0,538.0,7056207.0,52449.0,2351.0,2228415.0,22987.0,740.0,922371.0,142822.0,4481.0,7060481.0,16044.0,752.0,646847.0,74829.0,3036.0,1599267.0,35051.0,3625.0,1211304.0,42.0,31.0,847.0
27055,Houston County,19,-95.39,31.34,1473.33,0.01,0.16,,,,,,,,,,330.0,60.0,20119.0,165.0,15.0,6610.0,151.0,10.0,7213.0,103.0,25.0,5393.0,10.0,6.0,450.0,95.0,19.0,3875.0,,,,35.0,21.0,1437.0,128.0,6.0,2123.0,1231.0,47.0,25478.0,49.0,11.0,702.0,261.0,34.0,2507.0,230.0,62.0,5195.0,,,
27057,Hubbard County,21,-94.94,47.11,2588.76,0.01,0.16,59.0,11.0,2675.0,,,,0.0,4.0,0.0,302.0,102.0,18117.0,19.0,5.0,1119.0,59.0,9.0,1465.0,157.0,24.0,7333.0,36.0,18.0,1394.0,110.0,31.0,3330.0,,,,80.0,21.0,2612.0,,,,885.0,50.0,42237.0,28.0,13.0,558.0,546.0,81.0,10774.0,263.0,57.0,5311.0,,,
27059,Isanti County,39,-93.33,45.57,1169.78,0.03,0.27,,,,,,,0.0,3.0,0.0,457.0,167.0,24053.0,295.0,29.0,9177.0,193.0,12.0,9412.0,308.0,42.0,16653.0,117.0,32.0,2764.0,234.0,68.0,11618.0,,,,297.0,39.0,9299.0,94.0,7.0,2462.0,2066.0,83.0,93756.0,77.0,17.0,815.0,946.0,53.0,12498.0,478.0,103.0,10119.0,,,
27061,Itasca County,45,-93.62,47.5,7583.27,0.01,0.1,222.0,26.0,9612.0,0.0,6.0,0.0,402.0,8.0,38129.0,752.0,140.0,64695.0,269.0,37.0,13613.0,110.0,13.0,4502.0,410.0,69.0,21092.0,94.0,27.0,2469.0,503.0,86.0,17242.0,0.0,3.0,0.0,633.0,48.0,15793.0,150.0,9.0,2996.0,2869.0,165.0,91307.0,464.0,33.0,6977.0,1383.0,109.0,21616.0,658.0,119.0,18192.0,,,
27063,Jackson County,10,-96.56,28.92,1863.65,0.01,0.0,0.0,3.0,0.0,,,,,,,110.0,38.0,6020.0,288.0,16.0,12035.0,45.0,6.0,1214.0,78.0,19.0,4396.0,5.0,4.0,95.0,67.0,16.0,4463.0,,,,253.0,15.0,7186.0,,,,1299.0,26.0,22779.0,6.0,7.0,122.0,231.0,23.0,2375.0,182.0,47.0,3874.0,,,
27065,Kanabec County,16,-93.29,45.9,1381.89,0.01,0.2,,,,,,,,,,205.0,48.0,21867.0,35.0,9.0,1095.0,27.0,4.0,943.0,97.0,17.0,4227.0,50.0,3.0,1698.0,66.0,17.0,1977.0,,,,19.0,12.0,1408.0,,,,1140.0,36.0,48357.0,55.0,7.0,957.0,274.0,24.0,3504.0,154.0,40.0,3048.0,,,
27067,Kandiyohi County,43,-95.0,45.14,2233.3,0.02,0.05,76.0,11.0,2813.0,,,,61.0,4.0,4864.0,1149.0,193.0,74807.0,964.0,71.0,60602.0,338.0,24.0,14326.0,551.0,79.0,32788.0,92.0,45.0,3357.0,526.0,79.0,28692.0,322.0,12.0,23261.0,706.0,71.0,25540.0,0.0,5.0,0.0,6373.0,205.0,228321.0,172.0,24.0,2672.0,1449.0,90.0,22291.0,978.0,157.0,21833.0,,,
27069,Kittson County,4,-96.81,48.77,2858.27,0.0,0.0,,,,,,,,,,24.0,11.0,1419.0,100.0,13.0,5604.0,,,,59.0,16.0,2655.0,,,,0.0,3.0,0.0,,,,,,,,,,340.0,10.0,10444.0,3.0,4.0,120.0,85.0,11.0,593.0,81.0,21.0,1084.0,,,
27071,Koochiching County,13,-93.77,48.22,8169.57,0.0,0.0,172.0,22.0,5759.0,,,,19.0,4.0,1933.0,179.0,30.0,10882.0,74.0,10.0,2648.0,67.0,6.0,1972.0,119.0,17.0,5859.0,24.0,10.0,1189.0,63.0,22.0,2262.0,,,,88.0,10.0,1704.0,,,,730.0,50.0,25024.0,33.0,13.0,670.0,473.0,41.0,8059.0,136.0,36.0,1917.0,,,
27073,Lac qui Parle County,7,-96.2,44.99,2015.04,0.0,0.01,1.0,4.0,65.0,,,,,,,74.0,30.0,2860.0,238.0,14.0,9730.0,22.0,5.0,434.0,98.0,20.0,4881.0,7.0,3.0,155.0,20.0,9.0,398.0,,,,21.0,5.0,942.0,,,,569.0,17.0,18207.0,0.0,3.0,100.0,106.0,10.0,1187.0,106.0,26.0,1719.0,,,
27075,Lake County,11,-122.78,39.05,5927.22,0.0,0.0,20.0,6.0,608.0,,,,0.0,3.0,0.0,46.0,24.0,2223.0,49.0,5.0,1653.0,50.0,6.0,1608.0,114.0,15.0,4617.0,19.0,6.0,483.0,46.0,11.0,2287.0,,,,121.0,11.0,3044.0,0.0,3.0,0.0,542.0,34.0,16373.0,87.0,14.0,3124.0,732.0,64.0,15581.0,163.0,33.0,4628.0,,,
27077,Lake of the Woods County,4,-94.85,48.7,4608.91,0.0,0.45,,,,,,,,,,26.0,14.0,974.0,42.0,5.0,1397.0,15.0,4.0,474.0,24.0,4.0,940.0,5.0,4.0,136.0,17.0,7.0,215.0,,,,35.0,4.0,736.0,,,,0.0,8.0,0.0,22.0,7.0,359.0,466.0,38.0,8810.0,83.0,23.0,1588.0,,,
27079,Le Sueur County,28,-93.71,44.38,1227.09,0.02,0.23,49.0,4.0,2698.0,0.0,3.0,0.0,43.0,3.0,3883.0,459.0,134.0,29197.0,262.0,29.0,13672.0,42.0,4.0,1779.0,204.0,39.0,10580.0,70.0,22.0,1594.0,183.0,49.0,9153.0,0.0,4.0,0.0,92.0,25.0,3034.0,79.0,6.0,1056.0,858.0,64.0,23715.0,104.0,16.0,1315.0,465.0,53.0,5752.0,350.0,92.0,7635.0,,,
27081,Lincoln County,6,-81.21,35.49,1420.54,0.0,0.12,0.0,3.0,0.0,,,,31.0,3.0,2255.0,80.0,33.0,3590.0,110.0,6.0,6037.0,,,,49.0,12.0,1917.0,9.0,4.0,125.0,33.0,6.0,1064.0,,,,27.0,8.0,523.0,,,,494.0,16.0,14090.0,0.0,3.0,0.0,80.0,12.0,795.0,80.0,31.0,1189.0,,,
27083,Lyon County,26,-95.83,44.39,1868.57,0.01,0.0,10.0,6.0,570.0,,,,11.0,3.0,953.0,414.0,92.0,27844.0,569.0,45.0,31358.0,189.0,18.0,12149.0,1120.0,58.0,62290.0,105.0,24.0,4161.0,364.0,53.0,25589.0,0.0,13.0,0.0,196.0,27.0,4490.0,125.0,8.0,2623.0,2331.0,101.0,84964.0,156.0,16.0,1509.0,1168.0,67.0,22315.0,354.0,85.0,7650.0,,,
27085,McLeod County,36,-94.25,44.82,1309.0,0.03,0.05,0.0,3.0,0.0,,,,,,,504.0,110.0,34157.0,568.0,34.0,34236.0,161.0,13.0,6124.0,392.0,75.0,20999.0,97.0,27.0,2947.0,389.0,62.0,17681.0,41.0,4.0,2481.0,385.0,44.0,12838.0,223.0,7.0,4220.0,2840.0,115.0,111415.0,124.0,16.0,2132.0,1072.0,62.0,15746.0,729.0,119.0,16657.0,,,
27087,Mahnomen County,6,-95.81,47.33,1509.38,0.0,0.0,,,,,,,,,,41.0,13.0,2246.0,34.0,8.0,2198.0,,,,53.0,7.0,2741.0,,,,14.0,4.0,328.0,,,,,,,,,,424.0,9.0,9670.0,,,,0.0,12.0,0.0,66.0,11.0,1431.0,,,
27089,Marshall County,9,-89.3,41.03,4695.72,0.0,0.0,8.0,5.0,421.0,,,,,,,85.0,44.0,8974.0,201.0,21.0,11277.0,52.0,6.0,2834.0,112.0,25.0,6096.0,,,,28.0,8.0,1475.0,,,,10.0,6.0,402.0,,,,232.0,16.0,6964.0,5.0,4.0,111.0,98.0,17.0,1045.0,118.0,44.0,1886.0,,,
27091,Martin County,20,-101.92,32.27,1890.06,0.01,0.0,25.0,8.0,1687.0,,,,34.0,5.0,3091.0,294.0,49.0,15403.0,690.0,40.0,62525.0,60.0,5.0,1616.0,372.0,51.0,23381.0,24.0,15.0,943.0,178.0,38.0,9938.0,88.0,7.0,5150.0,232.0,20.0,7161.0,84.0,7.0,1847.0,1594.0,87.0,58253.0,72.0,17.0,1159.0,799.0,48.0,10889.0,282.0,79.0,5800.0,,,
27093,Meeker County,23,-94.52,45.12,1669.89,0.01,0.02,,,,,,,,,,401.0,90.0,24790.0,179.0,23.0,8263.0,29.0,6.0,861.0,193.0,33.0,10974.0,36.0,17.0,1238.0,103.0,26.0,4149.0,72.0,3.0,6991.0,169.0,26.0,5521.0,,,,1506.0,59.0,46577.0,51.0,11.0,833.0,443.0,42.0,5032.0,366.0,72.0,5809.0,,,
27095,Mille Lacs County,26,-93.64,45.93,1765.59,0.01,0.41,6.0,3.0,227.0,,,,28.0,7.0,2665.0,382.0,124.0,21601.0,270.0,25.0,11725.0,28.0,9.0,1422.0,208.0,26.0,12260.0,70.0,25.0,1258.0,190.0,34.0,15269.0,0.0,3.0,0.0,129.0,28.0,3620.0,25.0,6.0,486.0,2563.0,76.0,89250.0,154.0,19.0,3403.0,1877.0,72.0,40040.0,392.0,81.0,6410.0,,,
27097,Morrison County,33,-94.26,45.99,2987.55,0.01,0.04,34.0,9.0,1335.0,14.0,3.0,1257.0,0.0,3.0,0.0,369.0,115.0,28510.0,226.0,22.0,10078.0,176.0,11.0,12524.0,252.0,48.0,13305.0,63.0,15.0,1277.0,158.0,36.0,7959.0,,,,162.0,52.0,6698.0,192.0,7.0,9279.0,1672.0,83.0,58702.0,78.0,21.0,1605.0,993.0,93.0,17613.0,639.0,125.0,13641.0,,,
27099,Mower County,39,-92.75,43.68,1843.62,0.02,0.32,9.0,4.0,227.0,,,,48.0,8.0,4210.0,404.0,89.0,20632.0,325.0,39.0,27569.0,163.0,15.0,4690.0,278.0,55.0,14114.0,237.0,22.0,4746.0,235.0,46.0,10493.0,0.0,8.0,0.0,564.0,40.0,20393.0,111.0,9.0,2135.0,2523.0,100.0,94023.0,201.0,16.0,3221.0,892.0,67.0,12979.0,736.0,123.0,14545.0,,,
27101,Murray County,8,-84.74,34.79,1864.01,0.0,0.05,0.0,4.0,0.0,12.0,3.0,1231.0,39.0,7.0,3414.0,145.0,55.0,8545.0,181.0,13.0,8806.0,35.0,5.0,2063.0,176.0,21.0,8650.0,21.0,5.0,622.0,70.0,15.0,3191.0,8.0,3.0,402.0,12.0,4.0,647.0,,,,425.0,15.0,14745.0,10.0,6.0,247.0,174.0,21.0,2177.0,163.0,47.0,3373.0,,,
27103,Nicollet County,33,-94.24,44.34,1209.46,0.03,0.34,21.0,7.0,1192.0,,,,,,,350.0,75.0,18231.0,438.0,34.0,26411.0,404.0,14.0,19023.0,226.0,42.0,12149.0,162.0,28.0,5345.0,425.0,40.0,21446.0,0.0,7.0,0.0,541.0,28.0,15227.0,0.0,7.0,0.0,2518.0,92.0,123187.0,65.0,9.0,2072.0,791.0,47.0,10361.0,719.0,87.0,20158.0,,,
27105,Nobles County,22,-95.75,43.66,1871.39,0.01,0.01,17.0,6.0,912.0,,,,50.0,4.0,3857.0,222.0,67.0,11473.0,411.0,43.0,20620.0,101.0,14.0,3492.0,246.0,39.0,12105.0,44.0,12.0,573.0,186.0,27.0,7272.0,,,,268.0,16.0,8514.0,28.0,4.0,341.0,1454.0,62.0,47294.0,42.0,8.0,785.0,591.0,41.0,8449.0,448.0,80.0,9670.0,0.0,3.0,0.0
27107,Norman County,7,-96.46,47.32,2270.74,0.0,0.0,0.0,5.0,0.0,,,,,,,76.0,27.0,2577.0,133.0,17.0,6916.0,42.0,8.0,3048.0,85.0,18.0,4456.0,3.0,4.0,186.0,42.0,11.0,1153.0,,,,0.0,3.0,0.0,,,,434.0,17.0,14525.0,2.0,3.0,99.0,61.0,11.0,566.0,67.0,22.0,1359.0,,,
27109,Olmsted County,152,-92.38,44.0,1696.09,0.09,0.24,26.0,10.0,660.0,,,,149.0,3.0,12063.0,3285.0,384.0,210424.0,1227.0,117.0,68079.0,2197.0,62.0,105200.0,1727.0,227.0,122957.0,776.0,186.0,29186.0,0.0,278.0,0.0,400.0,16.0,19852.0,2914.0,181.0,96174.0,953.0,55.0,24612.0,20404.0,478.0,897741.0,1173.0,70.0,19268.0,8084.0,348.0,159488.0,3029.0,391.0,78990.0,,,
27111,Otter Tail County,58,-95.71,46.42,5761.98,0.01,0.08,9.0,7.0,452.0,0.0,3.0,0.0,531.0,7.0,47746.0,1016.0,247.0,56894.0,610.0,62.0,31147.0,436.0,30.0,24022.0,526.0,110.0,29921.0,123.0,45.0,4711.0,395.0,98.0,19132.0,342.0,12.0,14093.0,613.0,67.0,21476.0,188.0,10.0,4601.0,4075.0,177.0,123597.0,302.0,40.0,5230.0,1616.0,156.0,28623.0,993.0,219.0,19397.0,3.0,5.0,82.0
27113,Pennington County,14,-96.08,48.05,1600.73,0.01,0.0,32.0,4.0,1351.0,,,,,,,130.0,40.0,7407.0,3447.0,20.0,190276.0,70.0,5.0,2860.0,150.0,25.0,9112.0,33.0,13.0,1066.0,350.0,20.0,20329.0,48.0,3.0,8409.0,80.0,10.0,1378.0,,,,1089.0,43.0,48561.0,61.0,10.0,504.0,903.0,31.0,14310.0,335.0,53.0,5669.0,,,
27115,Pine County,29,-92.75,46.08,3714.84,0.01,0.24,58.0,7.0,3127.0,,,,33.0,3.0,2710.0,319.0,114.0,20554.0,100.0,24.0,2861.0,90.0,7.0,2878.0,168.0,25.0,7160.0,56.0,21.0,1366.0,139.0,31.0,6850.0,,,,86.0,28.0,2369.0,92.0,6.0,3028.0,1424.0,75.0,39363.0,49.0,12.0,671.0,2401.0,66.0,51450.0,376.0,69.0,7924.0,,,
27117,Pipestone County,9,-96.26,44.03,1206.8,0.01,0.0,14.0,7.0,447.0,,,,36.0,6.0,3072.0,220.0,57.0,12669.0,230.0,19.0,9859.0,70.0,9.0,2390.0,97.0,19.0,5284.0,0.0,3.0,0.0,95.0,12.0,4215.0,,,,34.0,11.0,944.0,61.0,3.0,1723.0,474.0,23.0,11998.0,13.0,4.0,218.0,297.0,21.0,3735.0,156.0,45.0,2597.0,,,
27119,Polk County,32,-94.82,30.76,5174.05,0.01,0.0,18.0,8.0,1204.0,,,,,,,435.0,99.0,30424.0,465.0,45.0,24147.0,207.0,14.0,8933.0,233.0,50.0,12615.0,47.0,12.0,1331.0,263.0,42.0,11000.0,,,,82.0,33.0,3160.0,123.0,5.0,2626.0,2251.0,97.0,87767.0,62.0,18.0,1113.0,1027.0,69.0,14563.0,513.0,88.0,9046.0,,,
27121,Pope County,11,-88.59,37.39,1857.57,0.01,0.0,,,,,,,,,,128.0,48.0,7954.0,598.0,57.0,31004.0,17.0,5.0,536.0,120.0,18.0,6629.0,14.0,8.0,171.0,252.0,21.0,13287.0,0.0,5.0,0.0,40.0,11.0,1911.0,,,,630.0,25.0,24424.0,16.0,6.0,519.0,246.0,29.0,3818.0,176.0,52.0,3011.0,,,
27123,Ramsey County,538,-93.09,45.02,440.5,1.22,0.47,17.0,7.0,1560.0,0.0,4.0,0.0,734.0,16.0,72641.0,10819.0,877.0,863035.0,14986.0,670.0,1100918.0,8589.0,265.0,612594.0,18958.0,706.0,1546989.0,4319.0,754.0,225467.0,13953.0,1741.0,1143419.0,24130.0,151.0,3728519.0,16463.0,647.0,611085.0,20344.0,255.0,545261.0,60310.0,2083.0,2938743.0,6887.0,276.0,240743.0,25005.0,1192.0,456827.0,15876.0,1525.0,557330.0,4.0,6.0,73.0
27125,Red Lake County,4,-96.1,47.86,1120.3,0.0,0.0,,,,,,,,,,41.0,15.0,2234.0,21.0,6.0,1166.0,,,,60.0,8.0,2635.0,,,,24.0,5.0,538.0,,,,,,,,,,99.0,5.0,2173.0,,,,62.0,11.0,573.0,38.0,11.0,428.0,,,
27127,Redwood County,15,-95.25,44.38,2283.56,0.01,0.0,11.0,4.0,235.0,,,,,,,286.0,75.0,13329.0,436.0,36.0,29054.0,47.0,8.0,1400.0,357.0,37.0,24415.0,25.0,13.0,467.0,65.0,22.0,3094.0,,,,74.0,15.0,2546.0,48.0,7.0,758.0,955.0,54.0,31184.0,29.0,11.0,555.0,1162.0,38.0,23121.0,347.0,81.0,7739.0,,,
27129,Renville County,15,-94.91,44.72,2556.62,0.01,0.0,33.0,5.0,1132.0,,,,0.0,3.0,0.0,202.0,55.0,12268.0,332.0,33.0,19812.0,39.0,10.0,1168.0,181.0,42.0,9897.0,2.0,4.0,94.0,148.0,20.0,8119.0,,,,26.0,11.0,1165.0,0.0,3.0,0.0,922.0,42.0,27200.0,21.0,9.0,550.0,216.0,26.0,2134.0,207.0,72.0,3870.0,,,
27131,Rice County,65,-93.29,44.34,1336.5,0.05,0.19,0.0,3.0,0.0,,,,0.0,3.0,0.0,1198.0,235.0,72292.0,1197.0,64.0,74727.0,182.0,21.0,11005.0,454.0,71.0,30061.0,233.0,63.0,8083.0,524.0,127.0,27900.0,530.0,5.0,35073.0,511.0,82.0,16836.0,5324.0,25.0,128872.0,3342.0,175.0,114879.0,345.0,30.0,5665.0,2076.0,128.0,33052.0,973.0,184.0,22335.0,10.0,4.0,71.0
27133,Rock County,9,-96.26,43.67,1250.19,0.01,0.0,,,,,,,,,,106.0,27.0,4755.0,172.0,18.0,9574.0,26.0,5.0,700.0,276.0,24.0,12955.0,22.0,9.0,687.0,95.0,19.0,4909.0,,,,63.0,14.0,1400.0,,,,859.0,16.0,23802.0,13.0,5.0,250.0,232.0,20.0,2814.0,166.0,38.0,2933.0,,,
27135,Roseau County,16,-95.77,48.77,4346.52,0.0,0.1,15.0,6.0,273.0,,,,0.0,3.0,0.0,70.0,43.0,2567.0,93.0,15.0,4918.0,68.0,8.0,745.0,192.0,23.0,11020.0,32.0,17.0,912.0,78.0,23.0,2381.0,,,,95.0,14.0,2563.0,,,,773.0,33.0,29150.0,26.0,10.0,428.0,572.0,33.0,9254.0,189.0,53.0,3829.0,,,
27137,St. Louis County,200,-90.52,38.64,17461.69,0.01,0.03,127.0,28.0,4459.0,3369.0,16.0,299959.0,0.0,15.0,0.0,3491.0,526.0,260648.0,2334.0,214.0,130706.0,1566.0,89.0,94129.0,4375.0,313.0,220884.0,1062.0,222.0,34833.0,3286.0,376.0,198371.0,2349.0,40.0,137472.0,3020.0,186.0,92791.0,2482.0,54.0,61653.0,25204.0,810.0,1223204.0,1693.0,132.0,26554.0,10221.0,553.0,173965.0,3839.0,580.0,94762.0,,,
27139,Scott County,141,-90.48,39.63,954.01,0.15,0.67,17.0,5.0,955.0,51.0,7.0,5210.0,123.0,5.0,10717.0,4813.0,586.0,372630.0,3187.0,209.0,228280.0,464.0,41.0,24373.0,698.0,169.0,40955.0,537.0,182.0,21408.0,1897.0,411.0,178857.0,734.0,17.0,59330.0,2336.0,254.0,78126.0,423.0,41.0,7672.0,5228.0,269.0,220136.0,2948.0,75.0,96802.0,7118.0,221.0,164396.0,2506.0,283.0,68141.0,3.0,3.0,42.0
27141,Sherburne County,92,-93.75,45.44,1168.08,0.08,0.81,15.0,5.0,889.0,104.0,4.0,6199.0,0.0,5.0,0.0,2334.0,474.0,250507.0,642.0,82.0,37139.0,103.0,16.0,5076.0,416.0,87.0,23151.0,190.0,84.0,7142.0,725.0,173.0,31945.0,136.0,6.0,12805.0,1153.0,136.0,40652.0,86.0,17.0,1046.0,3687.0,174.0,103541.0,361.0,43.0,6611.0,2412.0,123.0,35087.0,1135.0,203.0,28701.0,,,
27143,Sibley County,15,-94.21,44.56,1555.67,0.01,0.15,10.0,5.0,241.0,,,,0.0,4.0,0.0,130.0,59.0,6757.0,181.0,18.0,9458.0,34.0,5.0,919.0,85.0,20.0,3555.0,37.0,11.0,891.0,60.0,20.0,2168.0,,,,38.0,12.0,1621.0,0.0,4.0,0.0,586.0,22.0,22005.0,16.0,7.0,381.0,136.0,21.0,1701.0,150.0,49.0,2149.0,,,
27145,Stearns County,155,-94.61,45.54,3600.28,0.04,0.49,80.0,16.0,3522.0,89.0,6.0,7246.0,151.0,7.0,13432.0,7175.0,537.0,465733.0,3878.0,212.0,199471.0,1769.0,83.0,112593.0,4119.0,317.0,253122.0,1057.0,185.0,36964.0,2366.0,300.0,127577.0,1541.0,23.0,128496.0,3264.0,183.0,112112.0,2842.0,56.0,82786.0,17412.0,480.0,973957.0,974.0,79.0,14133.0,7059.0,374.0,97692.0,3195.0,498.0,87687.0,,,
27147,Steele County,37,-93.22,44.01,1119.67,0.03,0.27,15.0,4.0,1169.0,,,,,,,658.0,96.0,35597.0,706.0,46.0,35891.0,976.0,21.0,41151.0,2221.0,70.0,240629.0,317.0,27.0,5731.0,215.0,50.0,7144.0,268.0,7.0,18983.0,548.0,39.0,10535.0,106.0,8.0,1905.0,2675.0,135.0,108979.0,148.0,20.0,2726.0,1629.0,83.0,21789.0,832.0,123.0,19900.0,,,
27149,Stevens County,10,-95.99,45.58,1490.04,0.01,0.0,12.0,4.0,439.0,,,,,,,152.0,39.0,15280.0,157.0,21.0,7709.0,98.0,11.0,4981.0,104.0,20.0,6266.0,13.0,7.0,260.0,116.0,12.0,5602.0,,,,33.0,15.0,1359.0,,,,1505.0,39.0,44767.0,20.0,7.0,220.0,439.0,23.0,4387.0,160.0,39.0,2349.0,,,
27151,Swift County,9,-95.69,45.28,1948.03,0.0,0.0,15.0,4.0,1092.0,,,,,,,118.0,41.0,6487.0,248.0,17.0,15249.0,44.0,8.0,1522.0,95.0,23.0,4375.0,65.0,6.0,1635.0,82.0,16.0,3270.0,,,,64.0,11.0,2200.0,,,,688.0,23.0,21206.0,35.0,7.0,854.0,262.0,23.0,3008.0,157.0,40.0,3719.0,,,
27153,Todd County,24,-94.89,46.06,2536.41,0.01,0.01,13.0,5.0,1017.0,,,,,,,188.0,60.0,7556.0,143.0,17.0,5444.0,27.0,4.0,744.0,199.0,29.0,8943.0,29.0,18.0,571.0,86.0,26.0,3002.0,,,,58.0,11.0,1537.0,,,,1554.0,54.0,72619.0,57.0,12.0,773.0,354.0,42.0,4495.0,288.0,81.0,5228.0,,,
27155,Traverse County,3,-96.42,45.78,1517.51,0.0,0.0,0.0,3.0,0.0,,,,,,,21.0,9.0,1288.0,75.0,12.0,4603.0,8.0,3.0,256.0,43.0,13.0,1771.0,,,,10.0,4.0,150.0,,,,13.0,7.0,204.0,,,,303.0,12.0,10606.0,,,,20.0,5.0,147.0,50.0,16.0,680.0,,,
27157,Wabasha County,21,-92.2,44.28,1423.26,0.01,0.12,28.0,11.0,839.0,,,,,,,261.0,73.0,10326.0,232.0,25.0,10454.0,47.0,8.0,1552.0,181.0,26.0,10494.0,19.0,9.0,457.0,124.0,34.0,5415.0,,,,44.0,14.0,1462.0,,,,977.0,62.0,33988.0,115.0,17.0,1552.0,557.0,65.0,7307.0,302.0,68.0,5669.0,,,
27159,Wadena County,14,-94.96,46.59,1407.06,0.01,0.0,16.0,6.0,721.0,,,,,,,288.0,65.0,15678.0,533.0,20.0,22286.0,87.0,9.0,3484.0,149.0,26.0,7537.0,12.0,8.0,457.0,108.0,21.0,5133.0,,,,107.0,10.0,1384.0,,,,976.0,43.0,39775.0,35.0,6.0,495.0,364.0,31.0,4616.0,209.0,49.0,3447.0,,,
27161,Waseca County,19,-93.59,44.02,1121.29,0.02,0.03,48.0,6.0,1837.0,,,,,,,249.0,63.0,14428.0,152.0,24.0,8474.0,0.0,3.0,0.0,175.0,30.0,11359.0,19.0,10.0,533.0,270.0,30.0,10766.0,,,,101.0,16.0,4290.0,0.0,4.0,0.0,988.0,56.0,26610.0,50.0,11.0,800.0,330.0,37.0,4321.0,228.0,55.0,4811.0,3.0,3.0,39.0
27163,Washington County,251,-96.39,30.22,1095.6,0.23,0.56,39.0,11.0,896.0,82.0,7.0,6164.0,0.0,6.0,0.0,3823.0,635.0,263039.0,3157.0,237.0,236514.0,1572.0,77.0,91410.0,3488.0,432.0,299376.0,1473.0,338.0,72480.0,3881.0,840.0,266717.0,1678.0,34.0,130904.0,2682.0,327.0,102716.0,1628.0,92.0,44546.0,11949.0,698.0,547730.0,3209.0,143.0,71051.0,10328.0,443.0,172740.0,4347.0,568.0,113886.0,2.0,4.0,119.0
27165,Watonwan County,11,-94.64,43.97,1139.06,0.01,0.0,,,,,,,0.0,3.0,0.0,243.0,45.0,13515.0,122.0,11.0,6188.0,36.0,7.0,1033.0,159.0,24.0,6538.0,19.0,5.0,419.0,44.0,8.0,1845.0,,,,131.0,18.0,4571.0,,,,543.0,27.0,19586.0,17.0,5.0,247.0,235.0,26.0,2505.0,246.0,48.0,4052.0,,,
27167,Wilkin County,6,-96.46,46.33,1945.49,0.0,0.0,40.0,5.0,1663.0,,,,,,,74.0,18.0,3175.0,144.0,12.0,9456.0,,,,64.0,14.0,3396.0,7.0,7.0,938.0,0.0,6.0,0.0,,,,5.0,3.0,276.0,,,,416.0,22.0,17090.0,,,,90.0,8.0,1090.0,79.0,18.0,1835.0,,,
27169,Winona County,51,-91.78,43.96,1661.62,0.03,0.68,10.0,5.0,285.0,,,,,,,592.0,118.0,35645.0,556.0,51.0,28797.0,661.0,16.0,24657.0,531.0,61.0,31557.0,101.0,34.0,2483.0,331.0,73.0,12732.0,1066.0,11.0,57079.0,603.0,44.0,16786.0,1615.0,12.0,42321.0,3244.0,134.0,110847.0,377.0,32.0,5188.0,2130.0,128.0,24722.0,689.0,117.0,15678.0,,,
27171,Wright County,131,-93.96,45.15,1849.65,0.07,0.38,100.0,15.0,3231.0,58.0,6.0,6026.0,0.0,10.0,0.0,3983.0,648.0,308397.0,1707.0,128.0,100246.0,296.0,37.0,10959.0,696.0,159.0,38292.0,232.0,132.0,9187.0,1095.0,319.0,58461.0,206.0,10.0,13053.0,1819.0,223.0,73146.0,294.0,22.0,6529.0,5793.0,301.0,222304.0,495.0,63.0,7140.0,3688.0,211.0,53457.0,1810.0,328.0,47907.0,4.0,4.0,42.0
27173,Yellow Medicine County,10,-95.85,44.72,1977.14,0.01,0.0,,,,,,,0.0,5.0,0.0,98.0,39.0,5554.0,205.0,13.0,10456.0,66.0,8.0,2985.0,116.0,25.0,5771.0,7.0,4.0,117.0,0.0,17.0,0.0,,,,11.0,7.0,250.0,,,,899.0,38.0,29554.0,12.0,10.0,268.0,550.0,21.0,12089.0,171.0,55.0,3168.0,,,
