Fips,Name,Population,Longitude,Latitude,Km2,UrbanDensity,UrbanPercent,Emp-11,Est-11,Pay-11,Emp-21,Est-21,Pay-21,Emp-22,Est-22,Pay-22,Emp-23,Est-23,Pay-23,Emp-42,Est-42,Pay-42,Emp-51,Est-51,Pay-51,Emp-52,Est-52,Pay-52,Emp-53,Est-53,Pay-53,Emp-54,Est-54,Pay-54,Emp-55,Est-55,Pay-55,Emp-56,Est-56,Pay-56,Emp-61,Est-61,Pay-61,Emp-62,Est-62,Pay-62,Emp-71,Est-71,Pay-71,Emp-72,Est-72,Pay-72,Emp-81,Est-81,Pay-81,Emp-99,Est-99,Pay-99
38001,Adams County,2,-91.21,39.98,2560.77,0.0,0.0,,,,,,,,,,25.0,9.0,548.0,73.0,8.0,3842.0,17.0,3.0,160.0,34.0,7.0,1858.0,,,,20.0,5.0,1166.0,,,,,,,,,,294.0,16.0,14025.0,,,,61.0,9.0,630.0,21.0,12.0,569.0,,,
38003,Barnes County,11,-98.07,46.93,3919.8,0.0,0.0,,,,,,,,,,217.0,49.0,11900.0,163.0,21.0,9401.0,33.0,4.0,2962.0,127.0,28.0,8173.0,47.0,9.0,2299.0,63.0,12.0,2954.0,,,,44.0,8.0,1013.0,23.0,4.0,399.0,1070.0,40.0,33294.0,43.0,4.0,503.0,300.0,32.0,4015.0,219.0,44.0,5138.0,,,
38005,Benson County,7,-99.4,48.02,3728.04,0.0,0.0,,,,,,,,,,10.0,7.0,835.0,86.0,11.0,6766.0,,,,63.0,8.0,3161.0,,,,5.0,3.0,202.0,,,,,,,,,,42.0,5.0,422.0,,,,496.0,9.0,12523.0,7.0,3.0,43.0,,,
38007,Billings County,1,-103.39,47.05,2986.95,0.0,0.0,,,,60.0,4.0,5144.0,,,,8.0,4.0,191.0,,,,,,,,,,,,,,,,,,,10.0,4.0,373.0,,,,,,,,,,110.0,12.0,7922.0,25.0,4.0,1993.0,,,
38009,Bottineau County,7,-100.84,48.82,4396.54,0.0,0.0,6.0,7.0,352.0,248.0,14.0,19455.0,,,,65.0,30.0,3297.0,78.0,16.0,5109.0,,,,112.0,24.0,6119.0,6.0,4.0,38.0,84.0,17.0,3750.0,,,,17.0,9.0,1414.0,,,,277.0,16.0,9127.0,33.0,8.0,449.0,168.0,26.0,2592.0,90.0,28.0,2051.0,,,
38011,Bowman County,3,-103.51,46.1,3021.69,0.0,0.0,,,,43.0,3.0,3603.0,16.0,3.0,1175.0,83.0,17.0,4451.0,101.0,12.0,5869.0,4.0,3.0,68.0,79.0,14.0,4876.0,,,,57.0,10.0,8139.0,,,,,,,,,,256.0,18.0,9753.0,7.0,3.0,121.0,129.0,19.0,1726.0,43.0,16.0,1201.0,,,
38013,Burke County,2,-81.66,35.73,2924.0,0.0,0.0,,,,40.0,8.0,3323.0,,,,4.0,3.0,85.0,26.0,6.0,1419.0,,,,29.0,7.0,1594.0,,,,14.0,5.0,503.0,,,,,,,,,,15.0,4.0,295.0,,,,41.0,6.0,426.0,14.0,7.0,245.0,,,
38015,Burleigh County,95,-100.51,46.95,4321.53,0.02,0.25,3.0,3.0,1291.0,76.0,16.0,7567.0,1113.0,15.0,112575.0,3199.0,406.0,219235.0,1918.0,147.0,121539.0,878.0,43.0,45831.0,1800.0,220.0,130727.0,470.0,173.0,22292.0,3146.0,288.0,209134.0,608.0,22.0,67696.0,1622.0,178.0,56131.0,1498.0,32.0,46926.0,11382.0,312.0,564813.0,954.0,48.0,14941.0,5378.0,208.0,104166.0,2689.0,343.0,103821.0,7.0,5.0,142.0
38017,Cass County,177,-94.35,33.06,4578.49,0.04,0.07,28.0,10.0,956.0,,,,182.0,8.0,16903.0,7276.0,731.0,524495.0,7196.0,393.0,468468.0,3049.0,88.0,305995.0,9339.0,423.0,622282.0,1938.0,342.0,84368.0,5839.0,508.0,401166.0,3161.0,54.0,267257.0,5627.0,304.0,189159.0,844.0,45.0,20590.0,20602.0,505.0,1275909.0,2281.0,115.0,37266.0,10477.0,476.0,178901.0,3695.0,505.0,120249.0,4.0,5.0,53.0
38019,Cavalier County,4,-98.5,48.77,3911.65,0.0,0.0,,,,,,,31.0,3.0,2400.0,48.0,16.0,4249.0,157.0,14.0,10714.0,96.0,5.0,5865.0,81.0,13.0,4651.0,,,,16.0,6.0,860.0,,,,,,,,,,227.0,9.0,6997.0,9.0,3.0,151.0,75.0,11.0,1206.0,83.0,16.0,1222.0,,,
38021,Dickey County,5,-98.53,46.1,2957.04,0.0,0.0,,,,,,,,,,50.0,21.0,1716.0,155.0,18.0,8943.0,76.0,5.0,4587.0,55.0,11.0,3506.0,,,,21.0,9.0,739.0,,,,2.0,3.0,38.0,,,,346.0,20.0,12212.0,6.0,6.0,132.0,115.0,16.0,1184.0,100.0,28.0,2860.0,,,
38023,Divide County,2,-103.52,48.82,3352.58,0.0,0.0,,,,30.0,3.0,2719.0,,,,17.0,11.0,1500.0,66.0,3.0,5249.0,,,,28.0,8.0,1364.0,14.0,4.0,1414.0,10.0,3.0,229.0,,,,19.0,4.0,714.0,,,,117.0,4.0,4691.0,3.0,3.0,92.0,65.0,9.0,767.0,17.0,9.0,266.0,,,
38025,Dunn County,4,-91.9,44.93,5393.07,0.0,0.47,,,,610.0,33.0,61657.0,3.0,3.0,178.0,254.0,23.0,26773.0,213.0,17.0,16966.0,,,,18.0,5.0,1049.0,20.0,5.0,1091.0,93.0,7.0,10281.0,,,,25.0,4.0,1274.0,,,,108.0,5.0,4180.0,9.0,3.0,211.0,101.0,14.0,2505.0,99.0,16.0,4042.0,,,
38027,Eddy County,2,-98.91,47.71,1668.48,0.0,0.0,,,,,,,,,,29.0,12.0,940.0,44.0,5.0,1755.0,,,,25.0,5.0,1390.0,,,,13.0,5.0,310.0,,,,,,,,,,200.0,9.0,6070.0,,,,19.0,6.0,277.0,35.0,10.0,565.0,,,
38029,Emmons County,3,-100.26,46.26,4028.07,0.0,0.0,,,,,,,16.0,3.0,1332.0,43.0,17.0,3211.0,58.0,11.0,2497.0,,,,59.0,15.0,2801.0,,,,17.0,8.0,622.0,,,,3.0,3.0,56.0,,,,194.0,10.0,6465.0,,,,69.0,11.0,538.0,23.0,9.0,339.0,,,
38031,Foster County,3,-98.88,47.46,1675.25,0.0,0.0,,,,,,,,,,51.0,17.0,2209.0,151.0,18.0,10583.0,45.0,3.0,3036.0,67.0,13.0,5340.0,9.0,3.0,153.0,10.0,7.0,331.0,,,,,,,,,,243.0,12.0,10100.0,22.0,4.0,247.0,117.0,10.0,1668.0,37.0,13.0,624.0,,,
38033,Golden Valley County,2,-109.17,46.3,2597.04,0.0,0.0,,,,,,,,,,12.0,11.0,941.0,37.0,4.0,2096.0,,,,29.0,8.0,1592.0,,,,18.0,3.0,470.0,,,,,,,,,,125.0,7.0,3927.0,,,,14.0,5.0,213.0,30.0,7.0,336.0,,,
38035,Grand Forks County,70,-97.48,47.91,3727.98,0.02,0.17,20.0,9.0,871.0,,,,310.0,6.0,31434.0,2167.0,201.0,162650.0,1403.0,101.0,78677.0,465.0,23.0,19304.0,953.0,120.0,63962.0,649.0,95.0,24811.0,1450.0,137.0,95264.0,376.0,13.0,20704.0,1071.0,105.0,41640.0,123.0,18.0,3551.0,7693.0,181.0,411312.0,1044.0,45.0,9822.0,4335.0,193.0,65515.0,1297.0,200.0,34981.0,,,
38037,Grant County,2,-96.03,45.94,4315.31,0.0,0.0,,,,,,,,,,5.0,8.0,336.0,23.0,7.0,1054.0,,,,36.0,7.0,2078.0,,,,8.0,3.0,318.0,,,,,,,,,,172.0,8.0,5550.0,,,,31.0,8.0,325.0,19.0,5.0,796.0,,,
38039,Griggs County,2,-98.26,47.45,1855.84,0.0,0.0,,,,,,,,,,9.0,9.0,214.0,45.0,6.0,2329.0,,,,19.0,8.0,989.0,,,,16.0,7.0,722.0,,,,29.0,4.0,764.0,,,,126.0,5.0,4291.0,,,,47.0,10.0,425.0,39.0,16.0,1085.0,,,
38041,Hettinger County,3,-102.42,46.44,2936.03,0.0,0.0,,,,,,,,,,47.0,6.0,3711.0,32.0,7.0,1451.0,17.0,3.0,131.0,42.0,11.0,2569.0,,,,30.0,7.0,2444.0,,,,19.0,4.0,191.0,,,,72.0,7.0,2746.0,2.0,3.0,143.0,22.0,5.0,293.0,27.0,9.0,633.0,,,
38043,Kidder County,2,-99.8,46.96,3711.03,0.0,0.0,,,,,,,,,,11.0,8.0,701.0,25.0,7.0,1098.0,,,,36.0,4.0,1652.0,,,,35.0,7.0,1057.0,,,,,,,,,,90.0,5.0,1317.0,,,,42.0,10.0,760.0,23.0,7.0,358.0,,,
38045,LaMoure County,4,-98.53,46.45,2980.96,0.0,0.5,7.0,3.0,290.0,,,,,,,22.0,9.0,743.0,193.0,26.0,11575.0,16.0,3.0,431.0,129.0,16.0,6370.0,,,,7.0,3.0,265.0,,,,,,,,,,169.0,12.0,4249.0,13.0,3.0,128.0,63.0,15.0,612.0,58.0,19.0,993.0,,,
38047,Logan County,2,-89.38,40.11,2618.28,0.0,0.0,,,,,,,,,,27.0,10.0,1497.0,92.0,9.0,3737.0,,,,29.0,6.0,1346.0,,,,,,,,,,,,,,,,91.0,7.0,2149.0,,,,45.0,5.0,284.0,62.0,10.0,1092.0,,,
38049,McHenry County,6,-88.46,42.33,4950.99,0.0,0.21,,,,,,,,,,32.0,18.0,1969.0,216.0,12.0,13569.0,,,,45.0,15.0,2598.0,9.0,4.0,88.0,18.0,9.0,1144.0,,,,8.0,3.0,410.0,,,,127.0,9.0,2589.0,,,,23.0,8.0,230.0,33.0,13.0,1145.0,,,
38051,McIntosh County,3,-81.39,31.5,2575.2,0.0,0.0,,,,,,,,,,22.0,11.0,881.0,103.0,13.0,4672.0,,,,48.0,10.0,2531.0,,,,20.0,6.0,833.0,,,,,,,,,,310.0,9.0,11130.0,6.0,4.0,44.0,30.0,9.0,427.0,49.0,17.0,1142.0,,,
38053,McKenzie County,13,-103.47,47.77,7407.87,0.0,0.72,,,,1587.0,80.0,180713.0,80.0,7.0,7360.0,1132.0,80.0,122188.0,426.0,28.0,40434.0,42.0,6.0,2521.0,121.0,14.0,10025.0,353.0,28.0,22466.0,335.0,43.0,28708.0,,,,339.0,27.0,19204.0,,,,346.0,14.0,12328.0,8.0,5.0,115.0,644.0,42.0,16931.0,213.0,49.0,9899.0,,,
38055,McLean County,10,-88.82,40.46,6029.32,0.0,0.0,,,,480.0,3.0,59142.0,312.0,5.0,37454.0,76.0,37.0,5086.0,178.0,20.0,10991.0,,,,144.0,24.0,7364.0,2.0,3.0,31.0,43.0,10.0,1922.0,,,,42.0,6.0,936.0,,,,388.0,17.0,13326.0,13.0,4.0,422.0,211.0,28.0,3231.0,115.0,32.0,1736.0,,,
38057,Mercer County,8,-80.3,41.33,2881.33,0.0,0.0,,,,621.0,9.0,77284.0,542.0,7.0,53392.0,104.0,16.0,5653.0,67.0,11.0,3572.0,122.0,5.0,6215.0,122.0,22.0,5624.0,6.0,4.0,471.0,46.0,9.0,2198.0,,,,32.0,10.0,1374.0,,,,506.0,22.0,19848.0,22.0,6.0,329.0,233.0,29.0,3109.0,125.0,31.0,3021.0,,,
38059,Morton County,31,-101.81,37.2,5037.67,0.01,0.12,,,,83.0,6.0,7901.0,90.0,6.0,9201.0,676.0,140.0,48032.0,456.0,49.0,22827.0,306.0,10.0,10826.0,387.0,54.0,26204.0,111.0,39.0,4684.0,1491.0,77.0,108217.0,,,,450.0,45.0,18903.0,166.0,6.0,2647.0,1745.0,67.0,62855.0,213.0,14.0,2546.0,779.0,60.0,13362.0,460.0,102.0,16507.0,,,
38061,Mountrail County,10,-102.36,48.23,5028.55,0.0,0.11,,,,570.0,33.0,65964.0,41.0,5.0,3888.0,552.0,42.0,41578.0,213.0,21.0,14841.0,77.0,4.0,6372.0,93.0,25.0,7184.0,21.0,9.0,370.0,138.0,26.0,14398.0,,,,160.0,15.0,10845.0,,,,260.0,18.0,9457.0,15.0,5.0,434.0,310.0,38.0,7528.0,331.0,36.0,15641.0,,,
38063,Nelson County,3,-85.47,37.81,2612.99,0.0,0.0,,,,,,,,,,28.0,13.0,1373.0,134.0,12.0,8103.0,,,,55.0,16.0,3108.0,13.0,3.0,160.0,8.0,3.0,480.0,,,,4.0,4.0,39.0,,,,237.0,13.0,7045.0,,,,49.0,13.0,635.0,28.0,18.0,576.0,,,
38065,Oliver County,2,-101.35,47.11,1893.55,0.0,0.0,,,,,,,211.0,4.0,21587.0,25.0,5.0,1443.0,,,,,,,12.0,3.0,557.0,,,,8.0,3.0,179.0,,,,,,,,,,16.0,4.0,499.0,7.0,5.0,330.0,,,,27.0,8.0,292.0,,,
38067,Pembina County,7,-97.55,48.75,2904.11,0.0,0.0,8.0,4.0,310.0,,,,,,,116.0,28.0,11777.0,343.0,34.0,16819.0,7.0,3.0,215.0,114.0,19.0,6079.0,4.0,3.0,73.0,33.0,14.0,1426.0,,,,27.0,10.0,513.0,,,,392.0,17.0,10799.0,39.0,11.0,466.0,101.0,13.0,903.0,62.0,29.0,1328.0,,,
38069,Pierce County,4,-82.24,31.34,2803.25,0.0,0.0,6.0,3.0,394.0,,,,34.0,3.0,2786.0,64.0,23.0,3078.0,170.0,16.0,9728.0,,,,89.0,14.0,5736.0,8.0,3.0,42.0,58.0,12.0,3013.0,,,,12.0,5.0,258.0,33.0,5.0,487.0,340.0,10.0,13887.0,24.0,5.0,430.0,116.0,13.0,1636.0,67.0,20.0,1554.0,,,
38071,Ramsey County,12,-93.09,45.02,3369.75,0.0,0.01,16.0,6.0,1320.0,,,,46.0,3.0,4087.0,139.0,47.0,6471.0,354.0,31.0,20304.0,128.0,7.0,6200.0,285.0,34.0,19093.0,254.0,9.0,7710.0,78.0,19.0,3351.0,,,,84.0,18.0,2830.0,52.0,5.0,977.0,847.0,63.0,35677.0,44.0,8.0,1475.0,605.0,50.0,9707.0,160.0,44.0,3365.0,,,
38073,Ransom County,5,-97.69,46.45,2237.27,0.0,0.0,,,,,,,,,,48.0,16.0,3716.0,121.0,12.0,8317.0,,,,69.0,14.0,3957.0,9.0,10.0,328.0,59.0,17.0,1827.0,,,,57.0,4.0,1395.0,,,,371.0,32.0,13474.0,8.0,3.0,115.0,105.0,19.0,1370.0,129.0,27.0,1876.0,,,
38075,Renville County,2,-94.91,44.72,2312.75,0.0,0.0,,,,15.0,10.0,952.0,,,,34.0,13.0,1620.0,99.0,14.0,6729.0,,,,31.0,9.0,1514.0,2.0,3.0,6.0,10.0,7.0,426.0,,,,,,,,,,87.0,6.0,2255.0,,,,56.0,13.0,724.0,9.0,7.0,381.0,,,
38077,Richland County,16,-88.09,38.71,3744.33,0.0,0.01,66.0,3.0,3900.0,5.0,3.0,608.0,,,,355.0,71.0,18136.0,265.0,40.0,15749.0,,,,212.0,43.0,12087.0,43.0,11.0,990.0,127.0,30.0,5966.0,,,,169.0,21.0,6391.0,167.0,3.0,4323.0,635.0,43.0,24094.0,18.0,10.0,510.0,989.0,39.0,21100.0,211.0,62.0,4587.0,,,
38079,Rolette County,15,-99.84,48.74,2433.26,0.01,0.06,,,,,,,,,,206.0,31.0,5543.0,42.0,10.0,2442.0,38.0,4.0,766.0,111.0,13.0,5778.0,,,,24.0,7.0,490.0,,,,64.0,6.0,755.0,,,,611.0,20.0,44702.0,17.0,7.0,600.0,461.0,22.0,11953.0,32.0,16.0,777.0,,,
38081,Sargent County,4,-97.63,46.11,2246.76,0.0,0.0,,,,,,,,,,66.0,11.0,4223.0,116.0,14.0,6460.0,,,,37.0,8.0,1859.0,5.0,4.0,92.0,11.0,7.0,575.0,,,,14.0,3.0,527.0,,,,86.0,9.0,2621.0,19.0,4.0,315.0,44.0,14.0,738.0,45.0,12.0,1794.0,,,
38083,Sheridan County,1,-100.46,39.35,2604.04,0.0,0.0,,,,,,,,,,3.0,4.0,243.0,,,,,,,7.0,3.0,306.0,,,,13.0,4.0,626.0,,,,,,,,,,24.0,3.0,738.0,,,,18.0,3.0,190.0,14.0,9.0,285.0,,,
38085,Sioux County,4,-96.16,43.06,2921.91,0.0,0.27,,,,,,,,,,,,,,,,,,,,,,,,,11.0,3.0,480.0,,,,,,,,,,53.0,4.0,1452.0,,,,402.0,6.0,11903.0,23.0,4.0,650.0,,,
38087,Slope County,1,-103.45,46.45,3159.14,0.0,0.0,,,,35.0,4.0,3202.0,,,,,,,,,,,,,,,,,,,,,,,,,3.0,3.0,24.0,,,,,,,,,,,,,,,,,,
38089,Stark County,31,-89.81,41.07,3471.46,0.01,0.07,8.0,6.0,327.0,2261.0,70.0,221062.0,82.0,3.0,7675.0,1370.0,140.0,128440.0,789.0,72.0,56495.0,228.0,16.0,13454.0,382.0,55.0,23845.0,195.0,54.0,13355.0,493.0,90.0,33036.0,381.0,8.0,40053.0,444.0,57.0,12687.0,156.0,11.0,3780.0,2094.0,92.0,78755.0,192.0,19.0,2668.0,1409.0,89.0,27981.0,625.0,116.0,27498.0,4.0,4.0,94.0
38091,Steele County,2,-93.22,44.01,1852.77,0.0,0.0,,,,,,,,,,97.0,9.0,6910.0,65.0,5.0,4001.0,,,,47.0,6.0,3114.0,,,,6.0,3.0,74.0,,,,,,,,,,,,,,,,26.0,8.0,311.0,10.0,6.0,252.0,,,
38093,Stutsman County,21,-98.97,46.96,5951.72,0.0,0.0,,,,,,,91.0,4.0,9778.0,362.0,75.0,17698.0,451.0,47.0,27355.0,154.0,15.0,5541.0,484.0,50.0,30023.0,60.0,29.0,1767.0,230.0,33.0,10981.0,,,,183.0,26.0,5661.0,649.0,7.0,10445.0,2694.0,68.0,134678.0,40.0,13.0,845.0,812.0,61.0,12611.0,414.0,78.0,11571.0,,,
38095,Towner County,2,-99.23,48.65,2697.61,0.0,0.0,,,,,,,,,,10.0,5.0,294.0,63.0,10.0,5048.0,,,,47.0,12.0,2089.0,,,,20.0,7.0,1014.0,,,,10.0,3.0,782.0,,,,152.0,3.0,5492.0,,,,22.0,6.0,251.0,26.0,9.0,443.0,,,
38097,Traill County,8,-97.18,47.44,2233.63,0.0,0.0,60.0,8.0,4237.0,,,,,,,137.0,35.0,6852.0,333.0,33.0,18475.0,17.0,4.0,384.0,135.0,23.0,9194.0,7.0,8.0,133.0,47.0,15.0,2034.0,,,,44.0,5.0,3067.0,,,,595.0,17.0,28695.0,,,,158.0,21.0,2138.0,90.0,39.0,1985.0,,,
38099,Walsh County,11,-97.75,48.37,3351.26,0.0,0.0,22.0,5.0,1076.0,,,,,,,117.0,38.0,5633.0,344.0,35.0,22043.0,91.0,7.0,5231.0,175.0,35.0,9252.0,26.0,11.0,423.0,94.0,23.0,4115.0,,,,142.0,13.0,2469.0,,,,713.0,43.0,27783.0,32.0,8.0,398.0,162.0,26.0,2017.0,132.0,46.0,2834.0,,,
38101,Ward County,69,-103.08,31.5,5324.74,0.01,0.09,7.0,3.0,253.0,2075.0,57.0,269759.0,139.0,9.0,14432.0,1340.0,230.0,91113.0,1638.0,116.0,109768.0,393.0,22.0,25441.0,983.0,133.0,67657.0,440.0,109.0,26990.0,1169.0,171.0,64881.0,132.0,12.0,12606.0,1012.0,96.0,30096.0,175.0,19.0,5106.0,4992.0,175.0,290811.0,486.0,48.0,9604.0,3756.0,177.0,61833.0,1177.0,210.0,37715.0,2.0,3.0,68.0
38103,Wells County,4,-85.21,40.7,3342.28,0.0,0.0,3.0,3.0,185.0,,,,,,,35.0,24.0,1940.0,226.0,15.0,15128.0,15.0,3.0,285.0,78.0,13.0,3467.0,5.0,3.0,127.0,17.0,9.0,680.0,,,,,,,,,,413.0,20.0,13076.0,,,,95.0,16.0,1048.0,86.0,26.0,2036.0,,,
38105,Williams County,35,-84.59,41.5,5562.96,0.01,0.22,,,,5810.0,142.0,618107.0,189.0,15.0,18626.0,2592.0,148.0,226360.0,1878.0,128.0,143024.0,166.0,13.0,9127.0,388.0,50.0,23537.0,840.0,126.0,65510.0,737.0,153.0,72948.0,102.0,7.0,6573.0,754.0,69.0,34324.0,70.0,6.0,3135.0,1460.0,88.0,72660.0,192.0,22.0,8552.0,1985.0,127.0,47621.0,637.0,130.0,27662.0,,,
