Fips,Name,Population,Longitude,Latitude,Km2,UrbanDensity,UrbanPercent,Emp-11,Est-11,Pay-11,Emp-21,Est-21,Pay-21,Emp-22,Est-22,Pay-22,Emp-23,Est-23,Pay-23,Emp-42,Est-42,Pay-42,Emp-51,Est-51,Pay-51,Emp-52,Est-52,Pay-52,Emp-53,Est-53,Pay-53,Emp-54,Est-54,Pay-54,Emp-55,Est-55,Pay-55,Emp-56,Est-56,Pay-56,Emp-61,Est-61,Pay-61,Emp-62,Est-62,Pay-62,Emp-71,Est-71,Pay-71,Emp-72,Est-72,Pay-72,Emp-81,Est-81,Pay-81,Emp-99,Est-99,Pay-99
46003,Aurora County,3,-98.57,43.7,1846.04,0.0,0.0,,,,,,,,,,26.0,12.0,1279.0,38.0,5.0,1727.0,,,,26.0,7.0,1852.0,,,,77.0,6.0,2497.0,,,,,,,,,,204.0,8.0,6561.0,,,,36.0,10.0,325.0,31.0,9.0,1104.0,,,
46005,Beadle County,18,-98.28,44.42,3275.86,0.01,0.03,,,,,,,162.0,3.0,12958.0,211.0,62.0,14303.0,474.0,35.0,26399.0,74.0,8.0,1293.0,547.0,43.0,28492.0,75.0,29.0,1845.0,113.0,24.0,5166.0,25.0,3.0,1420.0,132.0,21.0,3186.0,42.0,3.0,1003.0,1225.0,64.0,44555.0,97.0,12.0,1705.0,509.0,45.0,7489.0,295.0,71.0,6878.0,,,
46007,Bennett County,3,-101.66,43.19,3083.46,0.0,0.0,,,,,,,,,,97.0,10.0,3203.0,,,,25.0,5.0,615.0,12.0,3.0,631.0,,,,2.0,3.0,50.0,,,,,,,,,,148.0,5.0,6788.0,,,,38.0,4.0,530.0,10.0,4.0,177.0,,,
46009,Bon Homme County,7,-97.87,43.01,1506.28,0.0,0.37,,,,,,,,,,27.0,10.0,1496.0,101.0,13.0,3613.0,13.0,4.0,408.0,62.0,18.0,2890.0,9.0,4.0,103.0,24.0,7.0,946.0,,,,8.0,6.0,235.0,,,,311.0,17.0,9536.0,8.0,5.0,226.0,51.0,10.0,569.0,62.0,22.0,1114.0,,,
46011,Brookings County,35,-96.79,44.38,2084.82,0.02,0.04,,,,16.0,3.0,707.0,62.0,5.0,6209.0,532.0,112.0,29369.0,349.0,36.0,17218.0,162.0,17.0,5396.0,708.0,49.0,40612.0,247.0,43.0,8163.0,602.0,80.0,28616.0,,,,177.0,49.0,6227.0,82.0,16.0,1602.0,1669.0,87.0,55590.0,215.0,28.0,4945.0,1800.0,87.0,27704.0,593.0,97.0,16102.0,,,
46013,Brown County,39,-98.99,31.75,4483.68,0.01,0.05,16.0,8.0,747.0,,,,106.0,7.0,8153.0,727.0,147.0,42545.0,1205.0,89.0,66284.0,253.0,18.0,8745.0,953.0,104.0,64508.0,261.0,64.0,12168.0,385.0,70.0,18380.0,222.0,5.0,20123.0,463.0,65.0,16583.0,486.0,11.0,11216.0,3165.0,109.0,157439.0,362.0,37.0,5204.0,2168.0,111.0,34633.0,734.0,137.0,18348.0,,,
46015,Brule County,5,-99.05,43.68,2192.34,0.0,0.0,2.0,3.0,110.0,,,,,,,85.0,26.0,2388.0,194.0,14.0,6283.0,32.0,3.0,1667.0,73.0,14.0,3733.0,,,,53.0,11.0,1458.0,,,,49.0,7.0,2084.0,,,,432.0,28.0,16817.0,39.0,7.0,1107.0,291.0,29.0,4465.0,99.0,24.0,2667.0,,,
46017,Buffalo County,2,-99.08,40.84,1262.82,0.0,0.0,,,,,,,,,,,,,,,,,,,,,,,,,,,,,,,,,,,,,24.0,3.0,762.0,,,,,,,,,,,,
46019,Butte County,10,-121.59,39.65,5871.48,0.0,0.04,17.0,6.0,785.0,196.0,3.0,10434.0,,,,154.0,58.0,6478.0,48.0,11.0,1781.0,,,,81.0,16.0,4171.0,22.0,10.0,570.0,95.0,24.0,3436.0,,,,87.0,14.0,1168.0,,,,255.0,29.0,8444.0,4.0,4.0,187.0,268.0,33.0,3910.0,116.0,32.0,3437.0,,,
46021,Campbell County,1,-84.37,38.93,1997.21,0.0,0.0,,,,,,,,,,,,,69.0,6.0,1475.0,21.0,3.0,1341.0,,,,,,,8.0,5.0,264.0,,,,,,,,,,16.0,5.0,484.0,,,,6.0,4.0,79.0,10.0,8.0,225.0,2.0,4.0,68.0
46023,Charles Mix County,9,-98.62,43.23,2979.35,0.0,0.01,,,,,,,,,,129.0,32.0,6013.0,152.0,19.0,5988.0,14.0,4.0,414.0,118.0,24.0,5199.0,6.0,5.0,77.0,47.0,12.0,1445.0,,,,39.0,13.0,713.0,182.0,3.0,5287.0,523.0,25.0,17586.0,26.0,8.0,1051.0,354.0,21.0,6874.0,96.0,36.0,2173.0,1.0,3.0,13.0
46025,Clark County,4,-87.78,39.33,2505.63,0.0,0.0,8.0,6.0,336.0,,,,18.0,4.0,1268.0,53.0,20.0,2111.0,37.0,10.0,1559.0,,,,19.0,5.0,1398.0,,,,19.0,10.0,735.0,,,,,,,,,,56.0,11.0,2549.0,23.0,4.0,238.0,53.0,10.0,656.0,34.0,11.0,888.0,,,
46027,Clay County,14,-98.21,33.69,1080.65,0.01,0.07,,,,,,,31.0,4.0,2463.0,95.0,31.0,3300.0,51.0,10.0,3090.0,30.0,5.0,670.0,88.0,18.0,4994.0,27.0,14.0,868.0,174.0,18.0,4349.0,,,,44.0,7.0,1992.0,54.0,3.0,579.0,793.0,33.0,21215.0,13.0,4.0,442.0,883.0,49.0,13149.0,156.0,36.0,4221.0,,,
46029,Codington County,28,-97.2,44.97,1857.4,0.02,0.59,13.0,3.0,479.0,,,,23.0,3.0,1647.0,624.0,132.0,33446.0,820.0,70.0,44577.0,116.0,13.0,4755.0,795.0,76.0,39528.0,121.0,65.0,3641.0,337.0,73.0,13464.0,,,,209.0,46.0,6718.0,73.0,6.0,2020.0,1817.0,83.0,82215.0,114.0,30.0,1716.0,1688.0,84.0,29346.0,601.0,109.0,15222.0,,,
46031,Corson County,4,-101.18,45.71,6551.76,0.0,0.07,,,,,,,,,,1.0,4.0,56.0,40.0,3.0,1922.0,,,,18.0,5.0,694.0,,,,,,,,,,12.0,4.0,224.0,,,,10.0,4.0,332.0,,,,,,,4.0,3.0,59.0,,,
46033,Custer County,9,-105.35,38.11,4038.13,0.0,0.95,13.0,6.0,458.0,35.0,3.0,1501.0,40.0,3.0,3590.0,136.0,43.0,5087.0,,,,26.0,6.0,886.0,38.0,11.0,2255.0,24.0,12.0,759.0,60.0,24.0,2560.0,,,,29.0,17.0,1004.0,3.0,3.0,102.0,127.0,18.0,6259.0,148.0,10.0,5951.0,297.0,62.0,11431.0,71.0,20.0,1565.0,,,
46035,Davison County,20,-98.14,43.67,1131.69,0.02,0.07,17.0,3.0,481.0,,,,83.0,4.0,7643.0,654.0,67.0,35871.0,494.0,40.0,24811.0,232.0,8.0,10359.0,381.0,59.0,23169.0,65.0,18.0,1490.0,912.0,48.0,46860.0,,,,177.0,24.0,4496.0,435.0,6.0,9407.0,1954.0,75.0,77491.0,111.0,18.0,2410.0,1410.0,86.0,22142.0,319.0,71.0,9402.0,,,
46037,Day County,5,-97.62,45.37,2826.0,0.0,0.0,6.0,5.0,127.0,,,,,,,43.0,23.0,3389.0,150.0,14.0,7392.0,,,,48.0,17.0,2694.0,4.0,6.0,154.0,35.0,9.0,981.0,,,,3.0,3.0,74.0,,,,286.0,19.0,9298.0,4.0,3.0,146.0,167.0,23.0,2109.0,48.0,25.0,1085.0,,,
46039,Deuel County,4,-102.33,41.11,1648.26,0.0,0.03,,,,,,,31.0,3.0,2047.0,57.0,31.0,7107.0,66.0,6.0,3014.0,57.0,4.0,3840.0,40.0,7.0,2646.0,,,,22.0,7.0,819.0,,,,2.0,4.0,104.0,,,,139.0,5.0,5639.0,9.0,5.0,128.0,40.0,7.0,430.0,36.0,15.0,912.0,,,
46041,Dewey County,6,-98.98,35.98,6333.04,0.0,0.0,,,,,,,43.0,3.0,2520.0,53.0,12.0,2462.0,75.0,4.0,2235.0,,,,26.0,4.0,1866.0,4.0,3.0,44.0,,,,,,,,,,,,,169.0,13.0,8606.0,,,,8.0,7.0,175.0,52.0,14.0,1527.0,,,
46043,Douglas County,3,-88.22,39.76,1123.0,0.0,0.0,,,,,,,,,,66.0,12.0,3385.0,89.0,5.0,4195.0,4.0,3.0,111.0,49.0,7.0,1504.0,,,,12.0,6.0,335.0,,,,,,,,,,147.0,5.0,5916.0,,,,22.0,4.0,139.0,52.0,14.0,1131.0,,,
46045,Edmunds County,4,-99.22,45.42,2981.18,0.0,0.0,,,,,,,21.0,3.0,1614.0,29.0,14.0,1478.0,111.0,13.0,5288.0,,,,52.0,10.0,2555.0,5.0,3.0,86.0,29.0,4.0,1277.0,,,,3.0,3.0,189.0,,,,145.0,9.0,4662.0,0.0,3.0,41.0,59.0,9.0,774.0,35.0,11.0,471.0,,,
46047,Fall River County,7,-103.58,43.23,4530.66,0.0,0.01,5.0,3.0,206.0,10.0,4.0,660.0,,,,49.0,24.0,1908.0,,,,27.0,4.0,1226.0,36.0,13.0,2316.0,20.0,10.0,633.0,38.0,12.0,964.0,,,,33.0,5.0,1059.0,,,,1549.0,20.0,131074.0,86.0,4.0,1714.0,238.0,37.0,4362.0,100.0,28.0,1856.0,,,
46049,Faulk County,2,-99.17,45.07,2605.14,0.0,0.0,,,,,,,,,,17.0,6.0,700.0,28.0,9.0,1223.0,,,,26.0,5.0,1542.0,,,,,,,,,,,,,,,,163.0,6.0,6665.0,,,,33.0,11.0,438.0,21.0,10.0,365.0,,,
46051,Grant County,7,-96.03,45.94,1780.9,0.0,0.0,,,,17.0,3.0,652.0,152.0,6.0,13328.0,170.0,35.0,11978.0,111.0,11.0,6965.0,50.0,6.0,1313.0,173.0,19.0,8568.0,10.0,7.0,230.0,41.0,17.0,1303.0,,,,99.0,12.0,5287.0,,,,609.0,22.0,27236.0,63.0,9.0,1442.0,230.0,24.0,2731.0,143.0,33.0,3287.0,,,
46053,Gregory County,4,-99.17,43.17,2728.32,0.0,0.0,7.0,4.0,65.0,,,,,,,51.0,23.0,1836.0,43.0,8.0,523.0,5.0,3.0,115.0,66.0,10.0,3572.0,9.0,3.0,315.0,45.0,11.0,1201.0,,,,,,,,,,278.0,18.0,9211.0,24.0,7.0,877.0,86.0,19.0,1383.0,54.0,24.0,1023.0,,,
46055,Haakon County,2,-101.58,44.29,4731.02,0.0,0.0,,,,,,,,,,17.0,10.0,715.0,115.0,9.0,3769.0,39.0,3.0,1239.0,43.0,5.0,2533.0,,,,13.0,5.0,387.0,,,,,,,,,,153.0,8.0,6256.0,,,,34.0,6.0,409.0,23.0,7.0,535.0,,,
46057,Hamlin County,6,-97.2,44.68,1393.74,0.0,0.0,,,,,,,,,,275.0,64.0,14025.0,136.0,15.0,7490.0,,,,59.0,14.0,2727.0,,,,23.0,6.0,737.0,,,,13.0,6.0,312.0,,,,50.0,8.0,1668.0,,,,84.0,12.0,1183.0,48.0,17.0,1121.0,,,
46059,Hand County,3,-99.01,44.54,3730.04,0.0,0.0,12.0,3.0,729.0,,,,41.0,3.0,2629.0,13.0,11.0,617.0,125.0,9.0,5306.0,,,,65.0,10.0,4278.0,,,,150.0,9.0,5474.0,,,,,,,,,,196.0,8.0,5701.0,7.0,5.0,103.0,76.0,13.0,788.0,41.0,20.0,962.0,,,
46061,Hanson County,3,-97.79,43.66,1127.39,0.0,0.0,,,,,,,,,,33.0,19.0,1789.0,23.0,5.0,1923.0,,,,29.0,8.0,1255.0,3.0,3.0,17.0,11.0,7.0,372.0,,,,,,,,,,,,,,,,10.0,5.0,188.0,19.0,6.0,193.0,,,
46063,Harding County,1,-103.48,45.55,6935.47,0.0,0.0,,,,104.0,3.0,10067.0,,,,98.0,9.0,5395.0,,,,,,,,,,,,,,,,,,,,,,,,,84.0,8.0,1628.0,,,,26.0,5.0,480.0,5.0,3.0,81.0,,,
46065,Hughes County,18,-96.27,35.05,2074.41,0.01,0.38,14.0,6.0,707.0,,,,18.0,3.0,1484.0,366.0,76.0,17341.0,245.0,28.0,15899.0,131.0,19.0,3754.0,503.0,47.0,40532.0,50.0,27.0,1327.0,331.0,50.0,21729.0,,,,151.0,31.0,5710.0,680.0,9.0,21741.0,1061.0,67.0,43012.0,200.0,31.0,3083.0,868.0,49.0,15306.0,416.0,89.0,15706.0,,,
46067,Hutchinson County,7,-101.35,35.81,2109.05,0.0,0.03,20.0,3.0,387.0,,,,,,,75.0,22.0,3575.0,362.0,25.0,16808.0,13.0,3.0,404.0,109.0,20.0,6369.0,,,,37.0,12.0,1574.0,,,,32.0,6.0,613.0,,,,475.0,15.0,19131.0,,,,94.0,16.0,1093.0,99.0,32.0,2364.0,,,
46069,Hyde County,1,-76.13,35.39,2243.73,0.0,0.0,,,,,,,6.0,3.0,577.0,17.0,4.0,1010.0,59.0,8.0,4168.0,,,,20.0,3.0,808.0,,,,6.0,3.0,137.0,,,,,,,,,,,,,,,,3.0,3.0,72.0,9.0,7.0,101.0,,,
46071,Jackson County,3,-96.56,28.92,4846.25,0.0,0.0,,,,,,,,,,14.0,7.0,696.0,,,,,,,,,,,,,,,,,,,,,,,,,,,,,,,50.0,11.0,1812.0,4.0,3.0,140.0,,,
46073,Jerauld County,2,-98.62,44.08,1379.4,0.0,0.0,4.0,4.0,103.0,,,,,,,21.0,9.0,649.0,129.0,8.0,6171.0,,,,28.0,5.0,2311.0,,,,22.0,6.0,863.0,,,,,,,,,,133.0,6.0,4834.0,,,,52.0,8.0,907.0,41.0,12.0,1049.0,,,
46075,Jones County,1,-99.86,32.71,2514.75,0.0,0.0,,,,,,,36.0,3.0,2681.0,6.0,3.0,152.0,,,,,,,13.0,4.0,549.0,,,,,,,,,,,,,,,,,,,,,,64.0,17.0,1570.0,,,,,,
46077,Kingsbury County,5,-97.49,44.36,2237.08,0.0,0.0,,,,,,,29.0,3.0,1750.0,175.0,22.0,8634.0,109.0,11.0,6251.0,,,,122.0,16.0,6622.0,,,,16.0,3.0,916.0,,,,0.0,4.0,24.0,,,,167.0,14.0,5277.0,16.0,4.0,439.0,49.0,7.0,371.0,45.0,25.0,893.0,,,
46079,Lake County,13,-122.78,39.05,1489.82,0.01,0.02,,,,,,,,,,128.0,44.0,7000.0,221.0,19.0,13338.0,65.0,7.0,2033.0,230.0,30.0,10658.0,28.0,13.0,497.0,221.0,38.0,11452.0,,,,89.0,12.0,2710.0,18.0,3.0,383.0,647.0,30.0,24316.0,26.0,10.0,749.0,405.0,38.0,5318.0,151.0,37.0,3833.0,,,
46081,Lawrence County,25,-80.35,41.0,2071.95,0.01,0.33,42.0,15.0,1283.0,244.0,5.0,17156.0,23.0,5.0,2185.0,658.0,149.0,30839.0,117.0,22.0,3453.0,159.0,19.0,4162.0,277.0,57.0,15534.0,170.0,70.0,5789.0,293.0,80.0,15611.0,73.0,6.0,7728.0,232.0,45.0,7996.0,28.0,10.0,452.0,1648.0,91.0,76518.0,558.0,29.0,12164.0,3015.0,144.0,64672.0,424.0,111.0,11421.0,4.0,6.0,136.0
46083,Lincoln County,57,-81.21,35.49,1496.94,0.04,0.24,6.0,4.0,264.0,,,,45.0,5.0,3384.0,2013.0,296.0,121087.0,683.0,75.0,38881.0,220.0,18.0,9603.0,2094.0,187.0,163359.0,461.0,90.0,20267.0,1169.0,156.0,90176.0,1555.0,10.0,119670.0,1017.0,96.0,59001.0,342.0,18.0,7376.0,3723.0,187.0,176350.0,456.0,44.0,5124.0,1502.0,84.0,24990.0,836.0,161.0,23626.0,7.0,4.0,36.0
46085,Lyman County,4,-99.86,43.92,4420.38,0.0,0.2,,,,,,,,,,15.0,9.0,687.0,60.0,4.0,2029.0,,,,32.0,8.0,1287.0,,,,,,,,,,6.0,3.0,120.0,,,,,,,,,,179.0,15.0,3993.0,10.0,5.0,228.0,,,
46087,McCook County,6,-97.37,43.67,1493.97,0.0,0.0,,,,,,,,,,107.0,25.0,5000.0,110.0,18.0,5454.0,26.0,4.0,1283.0,45.0,13.0,2293.0,14.0,5.0,319.0,39.0,12.0,1463.0,,,,12.0,6.0,272.0,,,,188.0,17.0,5866.0,,,,60.0,15.0,605.0,76.0,22.0,2829.0,,,
46089,McPherson County,2,-97.66,38.37,2983.28,0.0,0.0,,,,,,,,,,12.0,9.0,301.0,21.0,3.0,1061.0,,,,40.0,6.0,2121.0,,,,,,,,,,,,,,,,46.0,5.0,1610.0,,,,6.0,4.0,71.0,26.0,10.0,319.0,,,
46091,Marshall County,5,-89.3,41.03,2293.68,0.0,0.72,,,,,,,,,,56.0,19.0,2278.0,80.0,14.0,3921.0,,,,47.0,12.0,1925.0,,,,29.0,8.0,798.0,,,,21.0,8.0,895.0,,,,206.0,12.0,5459.0,,,,88.0,14.0,1049.0,52.0,19.0,929.0,,,
46093,Meade County,28,-100.4,37.21,9020.31,0.0,0.17,,,,9.0,3.0,639.0,22.0,6.0,2174.0,643.0,141.0,34162.0,144.0,23.0,6991.0,28.0,7.0,1332.0,151.0,22.0,8372.0,84.0,32.0,2517.0,171.0,41.0,8034.0,,,,126.0,39.0,5241.0,14.0,4.0,359.0,1450.0,40.0,123246.0,53.0,13.0,2190.0,576.0,72.0,13026.0,312.0,73.0,8424.0,,,
46095,Mellette County,2,-100.72,43.56,3395.28,0.0,0.0,,,,,,,,,,5.0,3.0,49.0,,,,,,,,,,,,,,,,,,,,,,,,,,,,,,,23.0,5.0,370.0,,,,,,
46097,Miner County,2,-97.6,44.01,1481.16,0.0,0.0,,,,,,,,,,27.0,8.0,1224.0,43.0,5.0,1973.0,,,,26.0,6.0,911.0,,,,,,,,,,,,,,,,119.0,8.0,3209.0,,,,42.0,11.0,475.0,30.0,10.0,1523.0,,,
46099,Minnehaha County,189,-96.78,43.67,2107.73,0.09,0.55,14.0,5.0,968.0,,,,198.0,8.0,20789.0,6138.0,665.0,368613.0,6172.0,380.0,392951.0,3149.0,115.0,180000.0,10973.0,434.0,744158.0,1444.0,288.0,67435.0,4000.0,507.0,216988.0,3802.0,51.0,241139.0,3985.0,310.0,137227.0,2523.0,52.0,57471.0,25594.0,503.0,1725937.0,2800.0,174.0,46980.0,12269.0,523.0,209615.0,4136.0,540.0,134650.0,12.0,3.0,147.0
46101,Moody County,7,-96.67,44.0,1348.91,0.01,0.05,2.0,4.0,101.0,,,,,,,157.0,26.0,10175.0,64.0,7.0,3083.0,6.0,3.0,114.0,22.0,7.0,1118.0,11.0,4.0,36.0,24.0,11.0,634.0,,,,16.0,5.0,723.0,,,,188.0,14.0,6559.0,,,,413.0,14.0,8712.0,57.0,21.0,1128.0,,,
46102,Oglala Lakota County,14,-102.56,43.3,5429.37,0.0,0.34,,,,,,,,,,23.0,5.0,891.0,,,,44.0,6.0,1271.0,54.0,5.0,2026.0,,,,9.0,4.0,286.0,,,,63.0,3.0,2395.0,871.0,8.0,34513.0,345.0,8.0,13338.0,,,,305.0,9.0,8676.0,29.0,7.0,1191.0,,,
46103,Pennington County,111,-96.08,48.05,7212.48,0.02,0.36,20.0,11.0,836.0,238.0,8.0,19222.0,876.0,12.0,106827.0,3756.0,443.0,193642.0,1886.0,152.0,105055.0,1019.0,53.0,46303.0,2453.0,218.0,133204.0,673.0,226.0,25176.0,1854.0,319.0,107057.0,426.0,22.0,19545.0,2116.0,175.0,61134.0,766.0,43.0,16215.0,9944.0,406.0,539239.0,937.0,114.0,22830.0,6793.0,376.0,141470.0,2396.0,371.0,72609.0,14.0,6.0,215.0
46105,Perkins County,3,-101.65,40.85,7485.07,0.0,0.0,,,,,,,52.0,3.0,4051.0,55.0,13.0,2006.0,80.0,4.0,2800.0,,,,49.0,11.0,2105.0,,,,14.0,6.0,514.0,,,,13.0,4.0,198.0,,,,131.0,18.0,4548.0,3.0,3.0,55.0,45.0,5.0,482.0,49.0,19.0,1333.0,,,
46107,Potter County,2,-101.88,35.37,2326.96,0.0,0.0,,,,,,,,,,40.0,9.0,1672.0,87.0,8.0,5415.0,12.0,3.0,230.0,43.0,7.0,3048.0,,,,11.0,3.0,277.0,,,,2.0,3.0,21.0,,,,50.0,11.0,2056.0,,,,47.0,10.0,1021.0,43.0,16.0,1072.0,,,
46109,Roberts County,10,-100.81,35.83,2941.12,0.0,0.0,,,,,,,,,,59.0,33.0,2986.0,113.0,20.0,6684.0,29.0,3.0,974.0,77.0,22.0,3321.0,,,,26.0,14.0,986.0,,,,2.0,4.0,41.0,,,,358.0,20.0,14616.0,115.0,4.0,3006.0,163.0,21.0,1692.0,86.0,28.0,1847.0,,,
46111,Sanborn County,2,-98.08,44.01,1477.67,0.0,0.0,,,,,,,,,,33.0,9.0,1469.0,23.0,4.0,1288.0,,,,21.0,5.0,903.0,,,,24.0,6.0,826.0,,,,,,,,,,58.0,4.0,1616.0,,,,23.0,5.0,241.0,16.0,7.0,368.0,,,
46115,Spink County,6,-98.37,44.94,3910.53,0.0,0.0,,,,,,,,,,49.0,15.0,2184.0,187.0,17.0,12275.0,,,,96.0,18.0,5451.0,4.0,3.0,148.0,28.0,7.0,1762.0,,,,6.0,3.0,231.0,,,,235.0,16.0,9193.0,13.0,5.0,188.0,123.0,17.0,1623.0,87.0,26.0,1974.0,,,
46117,Stanley County,3,-100.8,44.42,3928.96,0.0,0.01,1.0,3.0,284.0,,,,,,,201.0,23.0,14241.0,97.0,4.0,2755.0,,,,29.0,4.0,1441.0,,,,64.0,7.0,4448.0,,,,23.0,7.0,634.0,,,,25.0,5.0,953.0,5.0,3.0,140.0,190.0,12.0,2807.0,47.0,16.0,1091.0,,,
46119,Sully County,1,-100.07,44.72,2772.3,0.0,0.0,7.0,3.0,787.0,,,,,,,34.0,10.0,1376.0,47.0,5.0,2719.0,,,,24.0,7.0,1460.0,,,,,,,,,,,,,,,,7.0,3.0,246.0,9.0,3.0,200.0,48.0,7.0,3332.0,7.0,4.0,69.0,,,
46121,Todd County,10,-94.89,46.06,3602.16,0.0,0.06,,,,,,,,,,,,,,,,,,,16.0,4.0,552.0,6.0,3.0,164.0,,,,,,,,,,38.0,4.0,874.0,343.0,7.0,19909.0,,,,,,,69.0,6.0,2066.0,,,
46123,Tripp County,5,-99.89,43.32,4188.76,0.0,0.01,,,,,,,,,,73.0,14.0,3105.0,178.0,13.0,8069.0,31.0,5.0,1217.0,68.0,12.0,2766.0,3.0,4.0,107.0,67.0,13.0,2986.0,,,,18.0,3.0,459.0,,,,456.0,26.0,15144.0,2.0,3.0,97.0,252.0,24.0,3214.0,75.0,19.0,1539.0,,,
46125,Turner County,8,-83.62,31.7,1599.58,0.01,0.0,4.0,4.0,164.0,,,,20.0,4.0,1599.0,121.0,43.0,5404.0,118.0,21.0,8006.0,16.0,3.0,665.0,85.0,20.0,5360.0,60.0,5.0,2068.0,25.0,11.0,772.0,,,,8.0,5.0,144.0,,,,320.0,20.0,10170.0,,,,60.0,15.0,640.0,65.0,30.0,1315.0,,,
46127,Union County,15,-89.25,37.46,1209.77,0.01,0.27,,,,,,,31.0,5.0,2283.0,374.0,47.0,22952.0,948.0,52.0,64825.0,55.0,5.0,2449.0,1033.0,45.0,48170.0,61.0,25.0,2428.0,268.0,48.0,16175.0,1174.0,13.0,133418.0,361.0,21.0,19433.0,31.0,5.0,265.0,1199.0,72.0,72854.0,165.0,12.0,3786.0,511.0,39.0,6415.0,235.0,40.0,5474.0,,,
46129,Walworth County,5,-88.54,42.67,1928.63,0.0,0.0,,,,,,,38.0,4.0,3031.0,30.0,18.0,1102.0,137.0,12.0,5227.0,68.0,5.0,1207.0,72.0,15.0,3692.0,13.0,8.0,169.0,56.0,13.0,2265.0,,,,57.0,6.0,1653.0,,,,356.0,17.0,14893.0,9.0,7.0,427.0,327.0,27.0,6451.0,107.0,26.0,2464.0,,,
46135,Yankton County,23,-97.4,43.01,1378.55,0.02,0.09,,,,,,,,,,348.0,80.0,19162.0,307.0,35.0,15614.0,153.0,17.0,6041.0,609.0,51.0,44292.0,124.0,32.0,5033.0,213.0,40.0,10692.0,,,,255.0,30.0,5647.0,288.0,7.0,8309.0,2146.0,62.0,100107.0,49.0,10.0,1173.0,1018.0,68.0,15210.0,461.0,77.0,11337.0,,,
46137,Ziebach County,3,-101.71,44.92,5104.32,0.0,0.61,,,,,,,,,,0.0,3.0,90.0,24.0,4.0,891.0,,,,27.0,4.0,1409.0,4.0,3.0,66.0,,,,,,,,,,,,,80.0,9.0,3238.0,,,,74.0,5.0,1020.0,,,,,,
