Fips,Name,Population,Longitude,Latitude,Km2,UrbanDensity,UrbanPercent,Emp-11,Est-11,Pay-11,Emp-21,Est-21,Pay-21,Emp-22,Est-22,Pay-22,Emp-23,Est-23,Pay-23,Emp-42,Est-42,Pay-42,Emp-51,Est-51,Pay-51,Emp-52,Est-52,Pay-52,Emp-53,Est-53,Pay-53,Emp-54,Est-54,Pay-54,Emp-55,Est-55,Pay-55,Emp-56,Est-56,Pay-56,Emp-61,Est-61,Pay-61,Emp-62,Est-62,Pay-62,Emp-71,Est-71,Pay-71,Emp-72,Est-72,Pay-72,Emp-81,Est-81,Pay-81,Emp-99,Est-99,Pay-99
56001,Albany County,38,-73.98,42.6,11159.18,0.0,0.06,14.0,4.0,432.0,17.0,5.0,794.0,42.0,8.0,3648.0,639.0,127.0,30986.0,154.0,23.0,6787.0,85.0,19.0,4259.0,511.0,49.0,29354.0,173.0,62.0,4828.0,807.0,148.0,46361.0,,,,259.0,43.0,7322.0,148.0,13.0,2801.0,2135.0,131.0,91907.0,194.0,21.0,2557.0,1913.0,112.0,30855.0,475.0,107.0,12946.0,1.0,3.0,82.0
56003,Big Horn County,12,-107.52,45.46,8179.19,0.0,0.15,14.0,3.0,666.0,269.0,8.0,17102.0,16.0,4.0,1297.0,326.0,55.0,22233.0,49.0,7.0,2343.0,60.0,5.0,2093.0,114.0,12.0,5834.0,12.0,7.0,147.0,114.0,27.0,3603.0,,,,47.0,10.0,1754.0,,,,402.0,28.0,17169.0,12.0,9.0,256.0,177.0,36.0,2399.0,49.0,28.0,1167.0,,,
56005,Campbell County,47,-84.37,38.93,12451.41,0.0,1.0,,,,5040.0,120.0,478288.0,384.0,18.0,38839.0,1810.0,173.0,124995.0,1285.0,89.0,92675.0,271.0,17.0,11603.0,370.0,49.0,23038.0,350.0,80.0,19300.0,644.0,130.0,32649.0,250.0,8.0,31071.0,617.0,68.0,23276.0,69.0,12.0,3109.0,1617.0,127.0,93850.0,126.0,21.0,2378.0,2139.0,116.0,43588.0,724.0,146.0,37002.0,,,
56007,Carbon County,15,-75.72,40.89,20628.2,0.0,0.25,8.0,6.0,419.0,85.0,11.0,6222.0,63.0,11.0,4402.0,234.0,48.0,12156.0,81.0,5.0,3127.0,61.0,10.0,1706.0,133.0,22.0,6750.0,143.0,36.0,6791.0,133.0,40.0,6561.0,,,,97.0,21.0,4206.0,8.0,4.0,80.0,556.0,40.0,22677.0,43.0,17.0,2466.0,883.0,81.0,22051.0,145.0,37.0,4653.0,,,
56009,Converse County,14,-105.5,43.02,11044.02,0.0,0.01,6.0,3.0,160.0,1311.0,37.0,107132.0,255.0,13.0,24044.0,709.0,48.0,57131.0,50.0,9.0,5567.0,53.0,9.0,1199.0,115.0,18.0,5577.0,62.0,21.0,1705.0,107.0,30.0,5397.0,,,,294.0,15.0,28776.0,,,,579.0,26.0,38839.0,46.0,6.0,488.0,476.0,37.0,8625.0,164.0,48.0,4598.0,,,
56011,Crook County,7,-120.38,44.15,7420.68,0.0,0.31,29.0,8.0,967.0,257.0,13.0,19162.0,,,,207.0,47.0,10373.0,40.0,8.0,2332.0,,,,56.0,8.0,2610.0,8.0,7.0,250.0,24.0,17.0,1508.0,,,,12.0,8.0,355.0,,,,201.0,17.0,9210.0,31.0,10.0,1591.0,151.0,35.0,2783.0,35.0,19.0,1165.0,,,
56013,Fremont County,40,-95.59,40.73,24000.5,0.0,0.68,3.0,3.0,223.0,403.0,42.0,42533.0,65.0,9.0,5829.0,719.0,184.0,35637.0,305.0,39.0,13108.0,220.0,26.0,7266.0,314.0,65.0,17045.0,372.0,72.0,19326.0,401.0,112.0,20631.0,,,,207.0,50.0,8163.0,439.0,19.0,18198.0,1871.0,141.0,79229.0,160.0,35.0,3222.0,1695.0,122.0,34997.0,392.0,106.0,15203.0,3.0,6.0,337.0
56015,Goshen County,13,-104.35,42.07,5780.87,0.0,0.01,6.0,3.0,384.0,,,,36.0,5.0,2452.0,103.0,38.0,4216.0,210.0,22.0,8735.0,104.0,8.0,2123.0,122.0,18.0,6416.0,24.0,16.0,764.0,166.0,27.0,5534.0,,,,88.0,15.0,3494.0,,,,687.0,29.0,28219.0,6.0,3.0,131.0,274.0,29.0,3843.0,244.0,44.0,3797.0,,,
56017,Hot Springs County,5,-108.41,43.7,5192.79,0.0,0.0,,,,278.0,12.0,21818.0,,,,65.0,22.0,3274.0,,,,17.0,3.0,172.0,39.0,8.0,1376.0,17.0,10.0,318.0,41.0,14.0,2033.0,,,,37.0,3.0,990.0,,,,385.0,19.0,18532.0,35.0,4.0,689.0,205.0,24.0,3330.0,86.0,18.0,1749.0,,,
56019,Johnson County,8,-97.36,32.38,10808.35,0.0,1.0,10.0,5.0,563.0,35.0,13.0,1253.0,15.0,5.0,1221.0,226.0,72.0,11741.0,38.0,13.0,3063.0,38.0,11.0,2391.0,182.0,28.0,10541.0,28.0,17.0,1419.0,292.0,81.0,14479.0,,,,159.0,24.0,3324.0,52.0,6.0,2038.0,352.0,34.0,15696.0,60.0,16.0,1039.0,348.0,52.0,7408.0,175.0,36.0,4892.0,,,
56021,Laramie County,98,-104.73,41.27,6960.29,0.01,0.31,18.0,6.0,588.0,431.0,24.0,35663.0,209.0,13.0,20403.0,2474.0,355.0,132791.0,975.0,118.0,54665.0,1146.0,81.0,63808.0,1477.0,207.0,94677.0,772.0,189.0,42612.0,2539.0,607.0,149543.0,110.0,19.0,8265.0,1565.0,194.0,54292.0,336.0,46.0,10189.0,6598.0,348.0,367733.0,395.0,39.0,8156.0,4035.0,221.0,76472.0,1620.0,299.0,51685.0,17.0,14.0,945.0
56023,Lincoln County,19,-81.21,35.49,10601.32,0.0,0.05,6.0,6.0,137.0,337.0,13.0,37113.0,178.0,4.0,16691.0,613.0,181.0,30481.0,70.0,13.0,2380.0,96.0,10.0,6470.0,112.0,23.0,5785.0,61.0,35.0,2640.0,196.0,94.0,7233.0,,,,177.0,46.0,6707.0,,,,899.0,53.0,44078.0,58.0,18.0,1491.0,517.0,63.0,7255.0,147.0,48.0,4655.0,6.0,3.0,169.0
56025,Natrona County,80,-106.85,42.95,13924.9,0.01,0.36,23.0,7.0,765.0,1860.0,131.0,185461.0,241.0,16.0,25713.0,2476.0,328.0,167726.0,2510.0,199.0,179282.0,541.0,39.0,23011.0,917.0,143.0,56363.0,918.0,171.0,53611.0,1623.0,275.0,123535.0,291.0,17.0,17831.0,1311.0,171.0,43339.0,226.0,28.0,4312.0,5756.0,340.0,330203.0,485.0,49.0,9404.0,3756.0,195.0,70251.0,1365.0,257.0,46495.0,3.0,4.0,31.0
56027,Niobrara County,2,-104.46,43.01,6808.46,0.0,0.0,,,,25.0,3.0,1735.0,,,,24.0,13.0,946.0,,,,,,,21.0,3.0,1012.0,7.0,3.0,240.0,10.0,5.0,179.0,,,,6.0,5.0,68.0,,,,57.0,8.0,2604.0,,,,64.0,11.0,890.0,26.0,11.0,604.0,,,
56029,Park County,29,-105.76,39.11,18039.71,0.0,0.73,15.0,6.0,562.0,168.0,20.0,13257.0,52.0,5.0,4581.0,761.0,192.0,37147.0,218.0,29.0,10554.0,253.0,29.0,10165.0,407.0,55.0,18886.0,166.0,67.0,6258.0,360.0,104.0,17542.0,16.0,3.0,589.0,246.0,62.0,9154.0,69.0,7.0,1831.0,2047.0,131.0,97967.0,305.0,46.0,9052.0,1769.0,120.0,64718.0,443.0,117.0,11343.0,1.0,3.0,70.0
56031,Platte County,9,-94.77,39.38,5466.68,0.0,0.0,5.0,3.0,34.0,,,,403.0,6.0,42709.0,92.0,32.0,4309.0,23.0,4.0,1123.0,20.0,7.0,478.0,126.0,22.0,6522.0,26.0,12.0,1064.0,50.0,19.0,2109.0,,,,16.0,9.0,388.0,,,,302.0,21.0,13233.0,12.0,5.0,194.0,378.0,34.0,5617.0,97.0,27.0,1682.0,,,
56033,Sheridan County,30,-100.46,39.35,6544.74,0.0,0.1,1.0,3.0,97.0,43.0,12.0,3069.0,53.0,4.0,4339.0,924.0,166.0,49413.0,237.0,42.0,12902.0,207.0,36.0,8035.0,337.0,69.0,26729.0,224.0,82.0,7493.0,840.0,260.0,55719.0,26.0,6.0,1109.0,252.0,70.0,9358.0,27.0,10.0,481.0,2903.0,136.0,171846.0,295.0,33.0,4705.0,1612.0,109.0,29465.0,476.0,119.0,14331.0,2.0,8.0,171.0
56035,Sublette County,10,-109.99,42.74,12781.05,0.0,1.0,4.0,5.0,161.0,921.0,36.0,83767.0,24.0,3.0,2886.0,342.0,70.0,20799.0,47.0,13.0,1979.0,7.0,4.0,391.0,70.0,19.0,4581.0,102.0,26.0,4466.0,122.0,42.0,7696.0,,,,111.0,19.0,7527.0,,,,169.0,22.0,5667.0,25.0,8.0,586.0,235.0,35.0,5945.0,117.0,33.0,4816.0,,,
56037,Sweetwater County,44,-108.97,41.62,27173.11,0.0,0.1,,,,2967.0,85.0,306562.0,397.0,5.0,41776.0,718.0,108.0,46299.0,605.0,70.0,46752.0,160.0,22.0,5582.0,285.0,52.0,16356.0,262.0,70.0,12535.0,482.0,108.0,36159.0,152.0,7.0,15049.0,458.0,44.0,15471.0,54.0,10.0,638.0,1434.0,100.0,63933.0,79.0,12.0,1037.0,1834.0,121.0,31189.0,510.0,106.0,16625.0,17.0,7.0,527.0
56039,Teton County,23,-112.26,47.85,10924.38,0.0,0.38,30.0,9.0,1341.0,,,,,,,1983.0,313.0,128238.0,227.0,39.0,16136.0,291.0,48.0,19702.0,455.0,110.0,50984.0,774.0,205.0,52614.0,1005.0,373.0,81556.0,43.0,8.0,7092.0,769.0,157.0,43174.0,572.0,45.0,20207.0,1428.0,144.0,89041.0,2690.0,110.0,63643.0,4829.0,170.0,163358.0,703.0,157.0,32566.0,4.0,3.0,82.0
56041,Uinta County,20,-110.57,41.26,5409.13,0.0,0.45,,,,231.0,24.0,21825.0,85.0,5.0,6807.0,2322.0,70.0,153436.0,151.0,16.0,10245.0,217.0,12.0,13992.0,152.0,33.0,8438.0,98.0,36.0,4397.0,377.0,48.0,29353.0,94.0,3.0,4238.0,53.0,14.0,1369.0,15.0,3.0,35.0,1310.0,71.0,61432.0,85.0,5.0,1473.0,653.0,54.0,10092.0,93.0,33.0,2992.0,,,
56043,Washakie County,8,-107.67,43.93,5810.05,0.0,0.0,,,,41.0,7.0,2725.0,32.0,6.0,2350.0,187.0,42.0,11636.0,111.0,14.0,3440.0,89.0,5.0,4966.0,98.0,17.0,4678.0,40.0,10.0,1398.0,118.0,36.0,5822.0,,,,20.0,13.0,893.0,,,,594.0,33.0,21932.0,27.0,5.0,497.0,235.0,31.0,2876.0,102.0,34.0,2310.0,,,
56045,Weston County,7,-104.54,43.84,6213.88,0.0,0.66,,,,65.0,22.0,3502.0,8.0,4.0,866.0,155.0,27.0,10868.0,19.0,5.0,700.0,33.0,4.0,538.0,67.0,11.0,3157.0,,,,25.0,12.0,764.0,,,,51.0,5.0,2371.0,,,,346.0,27.0,14850.0,,,,196.0,21.0,2358.0,77.0,19.0,2697.0,,,
