Fips,Name,Population,Longitude,Latitude,Km2,UrbanDensity,PercentUrban,Emp-11,Est-11,Pay-11,Emp-21,Est-21,Pay-21,Emp-22,Est-22,Pay-22,Emp-23,Est-23,Pay-23,Emp-42,Est-42,Pay-42,Emp-51,Est-51,Pay-51,Emp-52,Est-52,Pay-52,Emp-53,Est-53,Pay-53,Emp-54,Est-54,Pay-54,Emp-55,Est-55,Pay-55,Emp-56,Est-56,Pay-56,Emp-61,Est-61,Pay-61,Emp-62,Est-62,Pay-62,Emp-71,Est-71,Pay-71,Emp-72,Est-72,Pay-72,Emp-81,Est-81,Pay-81,Emp-99,Est-99,Pay-99
13187,Lumpkin County,32,-83.99,34.55,736.22,0.0,0.0,,,,,,,24,3,1320,273,59,13733,255,19,16996,21,6,654,99,29,5498,102,33,2845,252,59,8508,,,,64,16,2671,33,5,708,789,57,27043,52,4,701,1225,57,20533,187,46,5005,,,
13189,McDuffie County,21,-82.48,33.46,690.06,0.0,0.0,,,,,,,,,,494,39,20145,37,8,1452,95,10,6530,142,29,6556,40,12,1267,104,28,3439,,,,324,13,4199,,,,888,50,27679,111,7,1080,571,40,8088,182,47,4764,,,
13201,Miller County,6,-84.74,31.16,734.24,0.0,0.0,20,5,788,,,,,,,57,10,1797,100,9,4200,14,3,514,74,10,3824,6,4,86,36,11,1127,,,,,,,,,,593,15,24577,8,3,135,65,7,752,62,11,1395,,,
13211,Morgan County,18,-90.19,39.71,918.66,0.0,0.0,56,11,2598,,,,,,,273,55,12835,156,19,7195,72,9,3431,187,31,12968,47,20,1592,288,48,15601,114,3,4499,626,28,23362,67,5,795,528,40,15070,65,13,1600,1018,54,14515,268,47,5771,,,
13149,Heard County,12,-85.11,33.28,780.08,0.0,0.0,5,4,173,,,,118,9,13644,181,16,13439,,,,,,,18,5,620,5,4,62,18,9,868,,,,39,6,1282,,,,,,,,,,42,5,573,42,15,911,,,
13095,Dougherty County,91,-84.2,31.54,867.11,1.85,0.25,193,14,11210,,,,115,11,10054,1702,105,92966,2025,122,101781,855,38,36253,924,148,58395,486,108,16992,2291,213,113807,426,20,31748,2426,98,58835,229,17,6488,8432,318,396145,319,28,5793,4714,218,69205,1456,208,37525,,,
13111,Fannin County,25,-96.09,33.54,1015.75,0.0,0.0,,,,,,,,,,248,57,9159,152,24,6391,57,10,2506,155,31,7407,127,43,4038,224,45,8233,,,,236,32,5893,53,6,1463,879,60,41207,62,13,2646,880,61,14801,298,68,7508,,,
13219,Oconee County,37,-83.43,33.83,482.65,0.0,0.0,16,6,1385,,,,,,,784,141,41803,245,41,15346,239,19,9325,496,93,32891,551,91,31914,945,179,47765,40,5,4142,1316,94,42918,460,23,11859,1942,172,88158,125,18,3825,1889,80,26124,852,89,23666,0,3,166
13151,Henry County,221,-90.12,41.34,845.51,1.86,0.56,,,,,,,750,6,47399,2093,351,119780,2317,151,158978,836,58,34350,1097,227,64977,639,190,27189,1612,321,85273,454,15,33957,4305,286,121440,696,44,17720,8438,482,395274,643,49,14886,8258,405,116619,2539,383,64126,,,
13175,Laurens County,47,-82.94,32.42,2119.71,2.25,0.04,65,7,3058,,,,72,4,5987,891,81,42643,395,40,17173,193,19,8023,510,69,24565,169,38,5844,333,65,15150,545,7,36201,671,29,18484,93,8,2143,3085,159,177188,75,8,1477,2177,108,29367,562,115,12476,,,
13153,Houston County,152,-95.39,31.34,984.16,1.74,0.46,31,5,1150,,,,222,8,15207,1541,156,94111,409,54,17472,364,26,16103,1184,180,63459,483,124,17429,3925,284,246149,81,10,4490,1805,112,49383,690,28,16722,6388,349,294440,464,26,7046,7349,333,98544,1852,256,43706,2,4,24
13183,Long County,18,-81.75,31.77,1046.23,0.0,0.0,,,,,,,,,,38,14,1197,,,,,,,23,4,821,15,5,279,,,,,,,4,3,86,,,,25,5,1099,,,,54,5,602,47,12,1434,,,
13255,Spalding County,65,-84.28,33.26,516.9,2.0,0.04,6,3,219,,,,,,,551,97,26725,609,51,36483,127,17,5973,412,74,21971,158,49,4539,467,89,22456,19,5,1425,1705,59,60080,74,9,2316,3819,134,149430,150,16,6621,1985,108,27639,601,125,15076,2,4,57
13271,Telfair County,16,-82.93,31.92,1150.11,0.0,0.0,80,10,3816,,,,,,,103,9,4132,130,8,5663,25,3,1395,66,13,2813,,,,26,7,640,,,,386,8,15152,,,,215,15,4830,,,,159,17,2032,93,28,2203,,,
13257,Stephens County,26,-98.82,32.69,477.01,0.0,0.0,,,,,,,26,3,1787,289,49,13866,232,31,13197,94,11,3421,166,36,8095,53,11,2612,126,37,4892,168,3,19987,363,29,9377,464,4,7470,1213,55,47926,120,5,2851,727,38,9383,331,63,9543,,,
13291,Union County,23,-89.25,37.46,852.44,0.0,0.0,5,4,107,,,,12,3,372,267,75,9360,91,12,4493,36,6,2022,655,32,39913,46,28,1907,148,41,7140,16,3,14530,94,21,2899,,,,1470,68,56484,28,7,457,753,49,10284,308,65,7873,,,
13293,Upson County,26,-84.29,32.86,848.36,0.0,0.0,,,,,,,84,6,4902,215,31,10477,26,8,591,61,7,2322,195,32,10132,23,9,677,88,30,4116,,,,195,18,5251,59,6,1073,1357,62,61030,,,,636,46,9227,337,69,7457,,,
13303,Washington County,20,-96.39,30.22,1772.21,1.61,0.03,54,9,2434,778,8,61790,72,3,5380,222,24,10283,88,13,4305,19,4,827,141,25,7472,57,14,3517,231,21,15019,,,,61,11,1934,,,,869,39,23175,32,3,419,404,26,5368,138,44,4028,,,
13311,White County,29,-88.16,38.06,627.37,0.0,0.0,36,6,771,,,,,,,601,79,31602,303,16,13004,77,13,3745,167,29,8896,106,32,3295,136,49,5128,,,,165,26,4260,439,8,8662,861,37,27839,106,10,1839,1267,91,25453,312,70,7022,,,
13223,Paulding County,156,-84.86,33.89,814.12,0.0,0.0,,,,23,3,1397,14,3,636,2136,368,99131,326,65,17559,268,31,13251,454,102,22378,371,95,23702,771,206,37361,8,4,1776,797,146,25293,174,26,4382,3100,172,128572,303,26,4199,3929,166,60898,1035,213,27358,0,4,82
13231,Pike County,18,-90.85,39.61,568.29,0.0,0.0,27,5,987,,,,,,,398,56,16997,179,10,8878,12,4,318,176,14,6282,17,9,454,88,22,2229,,,,41,11,1341,39,4,878,245,18,5556,,,,130,15,1509,148,35,3007,,,
13225,Peach County,27,-83.84,32.55,391.74,0.0,0.0,,,,,,,,,,465,46,25991,236,22,10752,38,7,1609,119,24,4886,96,20,2722,143,29,7285,,,,262,26,7948,,,,564,38,14602,9,3,202,916,55,11583,205,40,5466,,,
13229,Pierce County,19,-82.24,31.34,889.21,0.0,0.0,122,18,5724,,,,,,,332,45,12704,363,14,13603,33,5,755,78,14,3989,43,14,1722,44,19,1224,,,,46,12,2331,,,,132,20,3549,50,5,883,374,25,4338,149,35,2794,,,
13245,Richmond County,201,-74.15,40.58,851.38,2.01,1.84,21,5,1056,99,5,7084,255,7,24116,2810,265,137309,2763,190,146315,1855,68,89888,1486,233,110648,998,194,48160,3966,450,244960,851,26,71150,7773,199,192348,1559,52,37433,24470,607,1489676,1789,52,48986,10936,472,172759,3126,438,92559,8,6,104
13251,Screven County,14,-81.63,32.76,1698.36,0.0,0.0,23,6,1087,,,,,,,137,24,4353,15,4,463,,,,93,14,4005,6,4,441,41,12,1928,,,,78,10,1494,,,,272,12,10599,,,,185,17,2115,146,36,3305,,,
13267,Tattnall County,25,-82.06,32.03,1264.5,0.0,0.0,131,16,4725,,,,,,,255,34,11448,597,17,26376,150,5,4178,130,20,5309,17,6,354,46,16,1077,,,,265,8,4823,,,,834,27,33702,,,,287,24,4198,160,43,2426,,,
13019,Berrien County,19,-83.24,31.26,1185.51,0.0,0.0,46,5,1709,,,,,,,69,21,1166,130,18,4663,20,4,772,147,25,5874,9,7,233,39,15,1223,,,,19,8,517,,,,283,27,9380,,,,247,20,3034,86,20,1811,,,
13295,Walker County,69,-95.55,30.68,1157.94,0.0,0.0,4,3,83,,,,,,,453,54,24632,283,37,10487,48,6,2055,280,50,13462,30,22,940,181,49,7981,,,,253,27,3574,897,7,13549,904,52,28865,328,4,7529,720,60,10243,606,97,13181,,,
13013,Barrow County,77,-83.7,33.98,421.92,0.0,0.0,,,,,,,,,,1543,177,80132,1979,79,101587,111,22,3127,274,64,17252,135,59,4599,793,116,29267,40,3,4652,869,84,31212,105,19,1680,1819,100,73093,334,13,4297,2607,102,31717,698,145,19546,,,
13135,Gwinnett County,902,-84.02,33.96,1131.25,2.68,8.07,17,12,361,,,,409,17,31230,22430,2502,1340741,35642,2122,2850690,13761,525,1082840,14769,1519,1066521,6124,1251,319645,29292,3367,2132190,12676,174,1054945,30250,1527,1220416,5863,367,172144,32205,2181,1526086,4636,372,102567,33261,2014,531791,15816,2036,543341,36,46,1768
13049,Charlton County,13,-82.12,30.88,2030.28,0.0,0.0,116,14,5342,,,,,,,52,13,1631,96,8,4285,,,,43,11,1298,27,4,560,46,9,849,,,,425,4,21000,,,,71,12,2558,,,,181,14,2521,41,14,712,,,
13065,Clinch County,7,-82.69,30.89,2134.94,0.0,0.0,63,7,3148,,,,,,,34,7,927,115,7,3307,12,4,324,53,7,1353,,,,24,11,888,,,,125,4,3625,,,,197,13,6474,,,,92,13,1038,52,19,682,,,
13015,Bartow County,104,-84.84,34.24,1217.62,1.76,0.08,10,3,348,95,4,5683,591,5,61404,2262,248,111485,2372,139,120833,275,28,13086,621,132,37060,438,103,16428,739,157,38591,432,6,20318,1768,103,52431,165,22,6009,3224,210,168704,555,31,11786,4409,202,70557,1226,199,40297,,,
13097,Douglas County,142,-88.22,39.76,520.76,1.66,0.23,,,,,,,293,7,23479,2097,296,118815,2577,141,173405,276,45,13955,734,134,38410,545,140,21538,976,219,46764,183,16,15561,3758,139,92552,403,33,11280,4899,282,213391,462,34,6938,5594,248,80474,1736,250,48539,2,7,61
13313,Whitfield County,104,-84.97,34.8,753.8,1.76,0.47,32,3,1633,,,,203,4,17269,855,117,38057,3467,223,168717,480,29,19149,626,144,35351,256,60,10164,1422,178,80560,2184,14,235940,1409,79,49685,61,12,1120,5030,186,249422,334,21,5673,3805,181,58094,1561,194,48649,3,4,37
13131,Grady County,25,-84.23,30.87,1191.9,0.0,0.0,168,20,6387,,,,,,,242,39,7128,370,32,19672,24,5,961,132,25,7116,42,22,1469,98,22,4239,,,,181,18,4051,31,5,482,502,34,18358,49,8,1099,381,27,4758,239,49,5386,,,
13161,Jeff Davis County,15,-104.15,30.7,869.34,0.0,0.0,115,9,5304,,,,,,,63,10,3273,119,13,5238,,,,79,16,3238,18,4,449,40,13,1428,209,3,9127,13,4,489,,,,301,20,9135,,,,385,25,4901,87,17,1615,,,
13141,Hancock County,9,-91.15,40.39,1237.59,0.0,0.0,,,,,,,,,,62,4,2052,,,,,,,27,4,1205,,,,,,,,,,,,,,,,136,6,4430,,,,48,8,557,15,6,296,,,
13037,Calhoun County,6,-96.67,28.5,734.71,0.0,0.0,131,8,4894,,,,,,,10,6,178,40,4,2353,,,,32,5,1246,,,,4,3,66,,,,,,,,,,72,8,2445,,,,13,4,121,24,8,352,,,
13193,Macon County,13,-88.96,39.85,1051.69,0.0,0.0,25,5,723,,,,,,,24,5,783,99,11,5116,,,,47,10,1935,7,4,100,21,8,458,,,,22,5,1216,12,3,186,428,21,12536,,,,150,15,1823,82,23,1949,,,
13021,Bibb County,153,-83.69,32.81,660.17,1.85,1.25,73,7,6227,,,,331,14,30982,2009,200,104340,3200,209,172983,1525,88,91846,9589,297,521148,1025,208,43450,2336,366,127512,1612,36,100897,4210,198,125225,3768,47,125029,16131,616,811645,406,39,5541,8972,450,133880,3393,393,99941,9,6,177
13285,Troup County,70,-85.03,33.02,1154.94,0.0,0.0,36,8,1421,,,,,,,1997,119,124526,832,61,37869,796,19,36388,1070,100,61234,207,69,8641,500,95,27971,722,9,104363,2699,76,80588,791,9,14579,3089,154,164934,228,19,4453,2588,145,46597,757,157,18282,,,
13145,Harris County,34,-95.37,29.81,1224.57,0.0,0.0,15,6,405,,,,49,4,3450,347,71,12385,132,16,6438,12,3,442,409,13,12240,50,28,1594,68,43,3156,,,,241,34,5963,37,3,2116,231,31,7356,270,13,4847,800,36,10462,201,49,3855,,,
13197,Marion County,8,-94.34,32.79,951.69,0.0,0.0,300,6,8880,,,,,,,15,6,599,,,,,,,13,5,430,,,,14,3,522,,,,78,3,2167,,,,135,8,2821,,,,30,7,329,20,8,249,,,
13249,Schley County,5,-84.32,32.25,435.06,0.0,0.0,30,3,1222,,,,,,,28,6,725,80,4,3075,,,,,,,,,,,,,,,,8,4,193,,,,29,5,974,,,,25,4,333,28,8,745,,,
13321,Worth County,21,-83.87,31.52,1488.68,0.0,0.0,78,3,2714,,,,,,,173,31,7543,378,28,15943,16,7,648,118,18,5025,11,4,176,76,15,2309,,,,118,15,2207,,,,412,21,12380,11,4,118,182,17,3485,150,35,3032,,,
13023,Bleckley County,13,-83.33,32.43,567.32,0.0,0.0,75,13,3904,,,,,,,148,6,7279,58,7,2045,,,,76,10,2383,24,4,906,19,7,965,,,,56,6,1895,,,,237,17,6999,23,3,280,257,14,3373,85,29,1835,,,
13093,Dooly County,14,-83.83,32.15,1028.85,0.0,0.0,70,10,2230,,,,,,,,,,98,12,4649,,,,57,11,2263,4,3,50,12,7,385,,,,182,7,3858,,,,57,9,1526,,,,140,15,1758,54,19,1557,,,
13307,Webster County,3,-84.55,32.05,544.91,0.0,0.0,28,4,1117,,,,,,,,,,,,,,,,5,3,265,,,,,,,,,,,,,,,,,,,,,,,,,5,3,57,,,
13103,Effingham County,59,-88.6,39.05,1251.11,0.0,0.0,75,16,2572,,,,124,5,13598,481,101,21058,140,23,8704,77,9,4698,155,39,6067,87,35,2332,237,56,9862,,,,248,43,8292,,,,886,69,40643,29,8,529,989,59,12428,792,99,28992,2,4,82
13171,Lamar County,19,-95.58,33.64,481.52,0.0,0.0,,,,,,,82,3,6458,61,21,2471,220,7,13289,12,3,522,108,10,4568,10,6,176,59,16,2082,,,,55,10,1255,116,3,3364,331,29,8082,11,3,265,496,39,4929,310,28,8612,,,
13109,Evans County,11,-81.9,32.16,483.91,0.0,0.0,50,5,3006,,,,,,,203,25,9234,25,6,1269,11,6,439,80,14,3464,14,4,278,64,17,2900,,,,191,9,3882,114,3,2779,425,14,13026,,,,200,12,2718,140,26,3796,,,
13119,Franklin County,23,-95.22,33.2,690.22,0.0,0.0,,,,,,,,,,148,36,8311,262,26,12459,23,5,792,151,27,7278,42,13,1567,111,27,3606,,,,253,22,11296,378,5,7728,628,37,25313,,,,1016,49,13649,376,59,9317,,,
13125,Glascock County,3,-82.61,33.22,374.08,0.0,0.0,,,,,,,,,,,,,,,,,,,,,,,,,,,,,,,,,,,,,95,3,2802,,,,24,3,242,10,5,124,,,
13107,Emanuel County,22,-82.29,32.61,1787.52,0.0,0.0,68,13,3263,,,,,,,97,24,3104,182,21,6066,44,6,1707,171,26,7401,38,12,1033,104,21,4293,,,,146,10,6233,,,,826,41,28034,25,6,576,450,35,5618,148,36,3444,,,
13239,Quitman County,2,-85.02,31.88,416.13,0.0,0.0,,,,,,,,,,,,,,,,,,,15,4,623,,,,,,,,,,,,,,,,,,,,,,,,,13,4,230,,,
13051,Chatham County,287,-79.25,35.72,1277.03,2.65,3.04,6,3,302,,,,368,17,34323,6953,515,362913,5886,386,356200,1571,124,87684,2397,437,172498,2386,479,97563,5144,749,284906,4095,51,210090,9603,416,319557,4836,95,161584,19907,784,981545,2001,136,54718,23196,1009,430083,6366,722,186621,2,12,556
13159,Jasper County,14,-94.0,30.75,967.57,0.0,0.0,9,3,150,,,,,,,141,43,4958,25,4,1039,13,5,703,52,10,2741,8,9,396,24,12,952,,,,102,8,1616,,,,218,17,7527,5,4,134,167,11,2234,77,13,1391,,,
13167,Johnson County,10,-97.36,32.38,794.12,0.0,0.0,47,6,2345,,,,,,,50,8,2111,18,4,619,,,,34,7,1412,,,,18,5,591,,,,24,4,513,,,,205,11,6985,,,,49,7,474,60,26,1336,,,
13173,Lanier County,10,-83.08,31.03,517.15,0.0,0.0,33,3,1534,,,,,,,22,10,455,11,3,548,,,,63,5,2521,,,,21,5,282,,,,,,,,,,189,15,9005,,,,131,11,1929,21,8,238,,,
13179,Liberty County,62,-94.79,30.09,1402.1,1.74,0.36,23,4,1006,,,,200,6,12294,404,47,18857,397,17,38298,123,16,5815,355,47,16346,171,49,5250,411,60,22714,,,,466,41,21930,115,9,2866,2085,92,103524,40,9,632,2231,111,29411,583,103,12696,,,
13195,Madison County,29,-95.95,30.96,739.67,0.0,0.0,,,,42,4,1719,,,,263,69,12319,59,15,2669,32,3,1589,62,17,2882,53,17,1392,160,29,5805,,,,155,17,3953,51,4,618,237,23,5622,2,3,99,239,26,3405,125,45,2124,,,
13253,Seminole County,8,-81.24,28.72,664.48,0.0,0.0,139,5,6103,,,,,,,8,3,109,90,12,4892,12,3,609,73,14,3121,,,,42,10,1662,,,,8,5,247,,,,430,24,16507,,,,121,15,1532,105,21,2731,,,
13205,Mitchell County,22,-100.92,32.29,1331.1,0.0,0.0,32,6,933,,,,,,,85,25,2630,216,27,9450,19,3,734,127,23,5764,91,12,3217,134,24,6282,,,,121,8,2755,52,3,1983,516,32,18775,,,,362,29,6302,146,39,3322,,,
13289,Twiggs County,8,-83.44,32.65,939.26,0.0,0.0,22,3,1085,,,,,,,66,9,1735,,,,,,,10,3,307,,,,7,3,358,,,,,,,,,,131,8,3747,,,,39,5,631,39,16,627,,,
13233,Polk County,42,-94.82,30.76,808.45,1.72,0.08,,,,,,,32,3,3220,406,63,21541,218,19,10020,361,20,15373,146,38,5876,45,16,2032,89,27,3105,,,,288,21,13504,,,,1046,55,42592,40,10,747,1199,68,16122,416,74,10458,,,
13277,Tift County,41,-83.52,31.46,696.26,1.87,0.22,57,6,2033,,,,155,6,10898,502,67,23098,1623,72,83426,191,16,9961,423,84,20706,169,46,6773,597,80,28694,51,3,5843,1064,32,27271,112,9,2996,2823,100,121836,95,9,1178,2831,104,35728,594,87,14558,1,3,30
13263,Talbot County,6,-84.51,32.7,1022.34,0.0,0.0,19,4,612,98,3,5867,,,,198,14,8031,14,3,393,,,,69,6,2967,,,,,,,,,,5,4,84,,,,13,5,205,,,,,,,10,5,97,,,
13269,Taylor County,8,-99.88,32.28,983.39,0.0,0.0,,,,,,,83,4,6503,94,7,19389,33,5,1706,,,,47,11,1609,,,,,,,45,4,2731,49,4,2754,,,,232,18,5941,,,,47,6,442,40,16,1155,,,
13273,Terrell County,9,-102.1,30.2,873.84,0.0,0.0,75,6,3927,,,,,,,50,11,1392,143,8,6736,20,3,966,70,15,4123,9,4,117,39,12,1300,,,,81,5,2065,,,,156,12,4855,6,3,143,138,12,1947,58,18,1218,,,
13275,Thomas County,45,-83.95,30.87,1430.23,0.0,0.0,118,19,3811,,,,,,,464,73,18938,478,57,27836,155,18,7494,698,87,43801,140,48,5570,458,74,20526,1873,10,142380,1264,62,30056,430,8,12584,3536,141,182018,62,15,1411,1764,100,25850,777,123,16074,,,
13279,Toombs County,27,-82.33,32.13,960.99,0.0,0.0,132,17,5703,,,,130,7,8555,374,31,18616,654,21,25565,88,9,3279,263,42,12407,40,15,1175,185,53,6602,13,3,520,281,25,6707,163,4,3321,1999,94,93924,25,5,201,1185,77,16123,368,67,11035,,,
13319,Wilkinson County,9,-83.16,32.79,1170.47,0.0,0.0,,,,546,5,39929,,,,398,16,17839,26,5,794,16,3,795,39,5,2121,4,4,70,34,5,765,,,,37,5,862,,,,157,13,4483,,,,12,3,155,80,21,1174,,,
13209,Montgomery County,9,-95.51,30.3,634.05,0.0,0.0,44,6,1300,,,,,,,112,11,4831,,,,,,,48,7,1564,,,,18,4,527,,,,25,4,648,,,,113,7,3438,,,,73,8,953,30,10,1152,,,
13221,Oglethorpe County,15,-83.1,33.87,1144.7,0.0,0.0,8,3,321,88,8,3572,,,,209,33,9136,84,10,4081,,,,29,4,1541,,,,53,15,1034,,,,100,17,1676,52,5,1068,115,9,3285,,,,155,6,2384,46,17,864,,,
13243,Randolph County,7,-89.81,38.05,1115.62,0.0,0.0,204,15,8529,,,,,,,24,9,595,88,8,3947,,,,38,9,1118,7,3,96,29,6,792,,,,12,4,528,,,,267,10,8474,,,,86,11,1135,22,12,498,,,
13247,Rockdale County,89,-84.03,33.64,342.13,1.69,0.37,,,,,,,130,4,8555,5019,199,365726,718,87,44779,1155,38,86495,1002,119,32192,504,89,32296,789,175,42925,1134,13,185598,2492,118,76823,219,23,4460,3984,265,182894,161,21,1848,5017,206,71040,1140,201,35252,1,5,53
13299,Ware County,36,-82.48,31.17,2348.2,0.0,0.0,120,11,4636,,,,72,7,4687,519,58,19644,351,38,15009,124,11,4498,231,49,17249,95,30,2202,230,55,6888,171,6,10714,591,28,13579,12,4,197,2610,108,92957,125,8,1678,1547,75,21067,582,101,13029,7,5,56
13305,Wayne County,30,-88.42,38.43,1680.16,0.0,0.0,31,7,1108,,,,43,5,2580,637,68,29389,160,14,5472,72,9,1894,158,28,7186,52,11,1420,146,34,7558,,,,77,12,2795,40,7,672,1164,74,46414,29,5,528,758,54,10528,306,75,6118,,,
13309,Wheeler County,8,-100.26,35.39,777.68,0.0,0.0,130,18,6422,,,,,,,7,3,118,,,,,,,,,,,,,,,,,,,,,,,,,,,,,,,7,3,44,7,4,97,,,
13315,Wilcox County,9,-83.44,31.96,989.38,0.0,0.0,123,6,4487,,,,,,,11,6,340,32,5,1114,,,,61,9,2716,,,,4,3,73,,,,,,,,,,77,8,2174,,,,,,,30,9,449,,,
13009,Baldwin County,45,-83.26,33.09,694.97,1.6,0.28,,,,,,,61,5,4580,276,55,11070,202,23,12688,158,10,6225,334,55,16164,83,31,2412,226,58,7322,,,,1025,31,27527,213,12,4476,3963,96,167131,178,10,3827,2184,107,26856,489,83,11160,,,
13101,Echols County,4,-82.91,30.7,1090.23,0.0,0.0,13,4,765,,,,,,,52,4,2063,,,,,,,,,,,,,,,,,,,,,,,,,5,3,84,,,,,,,,,,,,
13061,Clay County,3,-98.21,33.69,562.65,0.0,0.0,21,3,477,,,,,,,93,4,4288,,,,,,,,,,,,,,,,,,,,,,,,,15,4,296,,,,,,,5,3,60,,,
13031,Bulloch County,75,-81.74,32.38,1783.44,6.23,0.06,44,8,2261,,,,82,7,6740,1050,141,53761,391,51,20095,257,16,9138,525,105,29012,349,82,11570,679,129,27498,35,5,2522,324,70,7723,170,11,4456,3365,202,133939,202,17,2644,3527,150,45094,980,138,21804,,,
13059,Clarke County,125,-93.78,41.02,313.51,3.95,3.71,6,3,226,,,,198,8,17868,1830,145,100300,2528,122,137152,743,57,29975,1062,170,80147,1356,201,54111,1661,333,75108,156,9,4238,2396,144,66002,625,48,20251,10370,465,575097,816,69,14772,8800,367,128621,2181,289,69775,2,8,127
13127,Glynn County,84,-81.5,31.22,1205.63,2.02,0.39,43,4,2125,,,,129,12,11257,1279,233,55878,747,89,40724,293,41,12264,703,149,40384,462,166,17441,994,277,52587,135,10,7350,3167,156,88739,252,30,6689,5227,262,281050,346,34,7291,7865,290,176166,1600,242,40518,0,4,65
13089,DeKalb County,743,-88.77,41.89,702.33,2.44,20.49,95,8,9097,98,4,21244,1169,31,139953,9584,854,631423,11042,868,741544,18458,411,1937699,8316,856,729982,5421,1113,265361,20332,2979,1521724,11459,138,1211542,17372,873,728842,23726,352,1605819,46459,2109,2554899,4179,307,85794,29163,1597,537505,12925,1521,459765,17,35,640
13143,Haralson County,29,-85.2,33.78,733.41,0.0,0.0,,,,,,,,,,458,56,24578,116,16,7932,49,7,3027,136,23,5864,12,9,233,74,34,2686,,,,47,13,1255,,,,664,38,29208,29,4,1498,594,42,7719,287,58,7217,,,
13157,Jackson County,66,-96.56,28.92,888.58,0.0,0.0,54,8,2063,,,,248,3,20035,1076,184,60886,1697,74,98335,105,15,5189,226,56,13383,153,67,5104,449,108,25606,1916,3,44193,846,72,28904,58,7,970,1389,114,42479,63,10,1331,1424,80,20601,762,135,28135,4,3,177
13163,Jefferson County,16,-94.17,29.83,1372.06,0.0,0.0,138,20,6640,309,3,21645,101,3,6800,136,29,4349,231,11,5731,18,3,403,159,17,7148,40,9,1105,75,9,2372,,,,90,14,2651,39,3,891,485,21,14420,30,3,191,267,25,3213,116,32,2992,,,
13169,Jones County,29,-99.86,32.71,1024.14,0.0,0.0,47,5,1489,,,,56,3,4677,400,55,16108,41,9,2329,19,3,674,83,15,3130,18,13,405,73,15,1977,,,,197,26,9673,,,,393,39,12337,83,6,1685,335,25,4129,163,40,3772,,,
13181,Lincoln County,8,-81.21,35.49,666.35,0.0,0.0,116,11,4496,,,,,,,81,17,3853,29,6,1201,,,,42,6,2065,15,6,389,34,8,1002,,,,25,5,568,,,,45,7,1437,16,4,385,95,11,1045,93,20,2077,,,
13213,Murray County,40,-84.74,34.79,897.87,0.0,0.0,13,5,419,,,,,,,107,27,4386,642,29,45120,28,4,1319,98,20,4226,188,14,8592,77,15,1510,,,,87,13,3296,20,4,426,514,37,20884,22,5,478,620,41,8342,180,42,4826,,,
13215,Muscogee County,197,-84.85,32.48,572.53,1.95,3.79,50,8,2289,,,,159,7,15352,3314,245,156821,2785,163,150394,1259,61,61803,12396,335,1042242,1289,240,55923,2602,321,130348,1030,28,166478,3562,196,89419,807,44,20430,15649,656,728609,1140,58,19855,11110,474,174423,4121,451,101245,10,6,295
13235,Pulaski County,11,-89.12,37.23,650.79,0.0,0.0,2,3,257,,,,,,,49,15,1729,32,3,1133,49,4,10135,67,12,3328,10,5,259,36,14,1870,,,,108,7,6657,,,,801,24,37937,17,3,276,313,20,3903,58,19,1227,,,
13241,Rabun County,16,-83.43,34.88,977.24,0.0,0.0,,,,,,,19,3,1622,296,76,11530,7,5,326,32,3,1193,122,22,6558,58,20,1896,139,51,6052,,,,97,17,3091,312,6,13769,542,37,20904,165,12,4218,1213,71,23724,226,59,5070,,,
13259,Stewart County,6,-84.85,32.07,1200.74,0.0,0.0,46,4,1788,,,,,,,10,3,233,,,,,,,17,5,942,,,,7,4,465,,,,,,,,,,115,8,3539,,,,9,3,38,14,6,189,,,
13281,Towns County,11,-83.72,34.9,445.04,0.0,0.0,,,,,,,,,,127,36,4837,13,9,415,38,8,1751,55,14,2732,48,17,1987,51,16,2149,,,,102,11,2545,,,,554,29,19477,50,3,1041,662,39,11744,73,22,1472,,,
13283,Treutlen County,7,-82.57,32.4,524.3,0.0,0.0,,,,,,,,,,11,4,383,,,,,,,34,5,1345,,,,,,,,,,,,,,,,150,9,4290,,,,67,4,609,43,14,752,,,
13287,Turner County,8,-83.62,31.7,750.79,0.0,0.0,46,4,2141,,,,,,,9,3,215,164,15,6209,,,,63,13,2253,41,3,1357,44,9,1226,,,,18,4,596,,,,150,11,4063,,,,198,16,2190,40,18,618,,,
13155,Irwin County,9,-83.26,31.57,939.98,0.0,0.0,,,,,,,,,,122,10,6345,91,8,3312,8,4,526,31,7,1347,8,3,331,46,10,1596,,,,259,5,8997,,,,367,11,10285,,,,44,5,422,55,13,1270,,,
13003,Atkinson County,8,-82.88,31.3,893.08,0.0,0.0,,,,,,,,,,229,5,8442,110,5,5118,,,,58,7,2121,,,,,,,,,,,,,,,,33,5,907,,,,65,9,765,26,9,358,,,
13005,Bacon County,11,-82.44,31.56,740.18,0.0,0.0,63,16,3109,,,,,,,28,9,774,317,14,11870,95,5,6760,139,13,5740,4,4,67,54,17,2110,,,,387,7,2951,,,,591,22,20623,,,,190,17,2973,90,25,1884,,,
13001,Appling County,18,-82.3,31.78,1326.37,0.0,0.0,65,13,3790,,,,1132,7,127224,448,36,18661,203,20,8922,40,6,2374,137,22,6350,27,10,504,37,17,1436,,,,50,8,856,44,3,524,940,36,32340,,,,502,33,7012,139,43,3620,,,
13025,Brantley County,19,-81.99,31.19,1158.39,0.0,0.0,86,11,3432,,,,,,,144,28,5773,16,4,557,51,3,3836,27,5,804,,,,26,9,613,,,,22,10,469,,,,167,16,4443,,,,122,12,1850,55,27,1128,,,
13017,Ben Hill County,17,-83.24,31.75,657.69,0.0,0.0,37,4,1926,,,,,,,54,14,1925,69,13,3464,137,7,6897,136,23,5093,31,14,785,45,9,1477,,,,409,12,8719,,,,485,26,17541,8,3,162,363,27,6328,144,36,2919,,,
13033,Burke County,23,-81.66,35.73,2161.79,0.0,0.0,39,10,1521,,,,1823,9,204323,3984,33,311350,628,29,24604,36,8,1966,129,25,5401,25,14,902,114,18,5890,,,,103,7,3158,,,,623,28,19335,34,3,441,459,30,6199,146,38,2537,,,
13053,Chattahoochee County,11,-84.79,32.33,650.14,0.0,0.0,,,,,,,,,,14,3,528,,,,26,4,466,21,5,1025,,,,1078,35,64164,,,,306,6,9008,20,3,1059,46,8,2676,,,,57,5,785,109,7,3843,,,
13055,Chattooga County,25,-85.37,34.46,812.1,0.0,0.0,46,5,2166,,,,,,,219,32,9204,327,10,13286,25,5,1090,107,24,5130,27,10,727,79,16,2723,,,,43,7,1312,,,,373,28,13698,3,3,64,432,30,5247,89,37,1497,,,
13047,Catoosa County,66,-85.13,34.89,420.81,0.0,0.0,,,,,,,,,,605,84,25789,560,44,26653,184,20,8582,415,62,17215,160,39,4881,332,70,12220,,,,163,33,7761,29,9,283,1672,112,47238,142,12,3758,2603,101,36828,603,97,14648,,,
13073,Columbia County,147,-76.42,41.04,796.63,1.78,0.31,,,,,,,51,4,4973,2321,323,109201,1512,91,80350,723,32,25621,696,142,47342,585,131,23970,1503,232,90341,33,5,1744,2045,178,56384,598,42,14802,4104,277,170439,626,37,8319,4820,239,72217,1936,268,51879,6,5,119
13087,Decatur County,27,-84.57,30.87,1613.91,0.0,0.0,141,12,6889,,,,34,3,2946,270,43,12401,312,32,14371,82,11,3116,231,49,12504,62,26,2083,126,32,3977,,,,244,23,6701,66,3,915,895,49,35356,68,7,562,933,46,15071,269,72,4531,,,
13137,Habersham County,44,-83.5,34.63,722.71,0.0,0.0,44,5,1645,,,,163,7,13181,293,72,12893,330,34,14052,459,15,20893,410,51,20997,86,34,2798,269,68,12391,,,,311,34,11605,577,9,20169,1268,87,49479,70,5,1686,1385,75,20915,497,113,10456,,,
13147,Hart County,26,-82.95,34.34,665.2,0.0,0.0,,,,,,,122,4,8518,270,51,10680,84,15,3297,79,7,3535,135,24,6756,57,9,1474,154,40,7356,,,,147,19,5159,54,3,953,344,35,14628,93,6,2243,556,37,7882,184,53,3985,,,
13185,Lowndes County,115,-83.26,30.82,1321.93,1.98,0.84,89,12,4285,,,,178,16,14081,2156,205,108316,1348,129,68146,484,29,20096,1158,156,60769,800,150,31531,1216,227,61560,335,13,16878,3684,132,129134,386,26,9826,7875,456,333689,914,38,11021,6244,271,92259,1476,239,31022,8,6,234
13115,Floyd County,97,-101.28,34.03,1342.87,0.0,0.0,68,8,3112,,,,332,10,27769,837,111,39302,1257,72,63440,324,29,16561,771,116,49330,314,85,10857,712,182,46309,416,13,27197,2347,91,51632,2930,21,62335,8526,314,416083,145,24,3693,4528,203,70589,1372,201,35736,7,3,163
13117,Forsyth County,220,-80.24,36.15,640.0,1.59,0.67,13,7,194,53,4,2367,391,3,32129,8214,713,493550,6190,499,433454,1332,138,95885,1591,366,123803,848,368,40263,6304,1345,430483,1372,40,172452,6851,464,267570,1345,132,35254,8951,596,453394,1378,89,48282,6837,355,112233,3793,477,118358,6,10,481
13191,McIntosh County,14,-81.39,31.5,1243.97,0.0,0.0,,,,,,,,,,31,12,1326,108,8,3689,,,,61,7,3439,6,5,311,38,14,1427,,,,17,7,641,,,,46,15,1967,,,,449,30,6159,77,19,1112,,,
13199,Meriwether County,21,-84.67,33.04,1309.06,0.0,0.0,95,10,4550,,,,,,,428,40,21691,17,7,525,30,4,2355,56,16,2079,,,,43,11,1374,,,,111,15,4171,,,,827,25,30193,4,4,161,238,25,3167,102,34,1578,,,
13207,Monroe County,27,-90.18,38.27,1031.44,0.0,0.0,100,17,4796,,,,524,8,51350,362,58,15635,93,16,4894,20,5,1076,127,23,7092,35,21,1418,241,46,16182,43,3,4875,349,28,12746,44,3,676,1028,58,38991,91,7,1792,719,41,9443,285,59,8334,,,
13237,Putnam County,22,-89.27,41.2,933.85,0.0,0.0,9,4,276,,,,116,7,7888,310,58,14486,142,26,6935,41,4,1373,135,22,5941,50,20,4271,70,41,3533,,,,434,24,12239,,,,438,39,15036,37,10,694,566,26,8054,186,37,4179,,,
13261,Sumter County,30,-82.08,28.67,1275.08,0.0,0.0,136,12,5964,,,,108,3,8282,150,28,6186,388,32,14297,70,9,3507,205,39,10638,56,23,1556,371,36,8280,,,,620,15,9579,171,7,5053,2780,76,104077,21,8,404,956,57,12412,357,78,7554,,,
13301,Warren County,5,-79.27,41.81,742.43,0.0,0.0,29,3,1383,,,,,,,6,3,181,62,4,2385,,,,5,3,318,18,5,605,9,5,405,,,,,,,,,,133,7,4507,,,,,,,40,9,803,,,
13007,Baker County,3,-82.28,30.31,904.67,0.0,0.0,,,,,,,,,,,,,24,3,1052,,,,7,3,304,,,,,,,,,,,,,,,,28,3,1267,,,,,,,9,4,123,,,
13029,Bryan County,36,-81.42,32.0,1172.03,1.67,0.13,20,3,1037,,,,,,,499,78,22282,308,23,21330,52,8,2861,157,33,6906,133,47,5357,269,74,14499,,,,240,36,8018,22,5,204,752,71,22899,95,11,1676,1279,86,18297,593,67,14465,1,3,78
13035,Butts County,24,-83.95,33.28,486.91,0.0,0.0,,,,,,,,,,181,36,9929,285,12,13851,37,6,2343,72,18,3399,25,17,757,78,21,2592,,,,213,18,10042,11,3,129,529,29,20962,28,6,447,523,40,8031,297,50,6661,,,
13043,Candler County,11,-82.09,32.41,644.43,0.0,0.0,3,3,192,,,,,,,231,20,8514,108,9,3774,82,6,3770,100,17,3444,10,5,122,79,25,3554,,,,30,9,937,,,,455,18,13853,,,,331,18,5187,70,14,1195,,,
13045,Carroll County,116,-89.96,42.06,1304.79,0.0,0.0,46,6,2093,,,,490,7,39922,2362,214,121376,1169,95,54215,802,34,45039,675,143,44507,337,106,10368,612,147,27433,594,3,74132,2386,94,58325,149,17,3209,5478,211,325624,243,16,4045,4682,215,60489,1198,222,29320,,,
13039,Camden County,53,-81.62,30.93,1776.16,0.0,0.0,,,,,,,,,,359,75,14092,49,8,2144,114,16,4673,284,55,13261,323,41,11916,1299,76,80294,,,,587,38,24539,57,13,1574,993,99,41299,87,7,1305,2107,119,32328,562,101,11376,,,
13079,Crawford County,12,-80.14,41.7,845.7,0.0,0.0,49,6,2397,,,,,,,70,18,2967,,,,,,,18,5,503,,,,,,,,,,22,7,721,,,,40,5,1112,,,,48,7,492,58,16,1865,,,
13099,Early County,10,-84.93,31.35,1337.21,0.0,0.0,174,9,11279,,,,,,,54,10,2303,64,12,3254,18,3,707,114,19,6084,7,7,381,82,15,4084,,,,11,5,158,,,,362,12,10013,,,,247,21,2429,366,26,10366,,,
13011,Banks County,19,-83.5,34.34,605.7,0.0,0.0,34,7,1313,,,,,,,191,45,8517,98,15,4883,41,9,814,22,6,1227,15,6,342,48,15,2787,,,,271,16,7923,,,,161,15,8213,71,5,1503,1040,47,16882,91,29,2632,,,
13081,Crisp County,23,-83.78,31.92,728.11,2.54,0.08,56,4,2154,,,,,,,143,22,5816,500,36,25737,73,11,2433,189,37,9627,232,22,5817,140,24,7060,,,,380,18,8888,49,4,1130,1208,62,50697,,,,1107,56,16391,245,47,6864,0,3,18
13077,Coweta County,141,-84.75,33.35,1154.65,0.0,0.0,5,3,129,,,,311,7,26566,1492,240,71156,1702,126,98828,436,33,18306,700,164,37476,395,179,18927,1418,257,74446,269,11,13891,2779,153,78380,711,28,21847,5359,268,293713,661,51,9456,5134,200,73307,1630,250,38285,,,
13069,Coffee County,43,-82.84,31.53,1560.35,0.0,0.0,80,9,3205,,,,,,,405,58,13872,574,46,31977,104,9,3718,287,61,13915,68,26,1851,265,54,11653,68,3,2600,610,26,21797,69,4,1682,2185,109,97238,68,7,895,1621,66,20375,394,77,10385,0,3,24
13067,Cobb County,745,-84.57,33.94,892.37,2.44,8.69,48,9,2055,93,3,6860,1051,34,99220,27960,1716,1952939,35787,1279,2184123,13459,483,1184052,17001,1377,1482418,6991,1297,426485,34188,3493,2954704,19207,257,2448623,28986,1329,1190161,5077,345,158577,34881,2155,2003893,6195,321,311183,37611,1685,640464,15903,1747,502116,23,33,1089
13083,Dade County,16,-85.5,34.87,450.97,0.0,0.0,,,,,,,,,,693,22,41052,63,3,2822,29,3,1786,91,13,3364,3,5,163,42,10,1223,,,,12,6,434,64,4,3813,244,17,8251,,,,388,22,5953,149,29,4309,,,
13297,Walton County,90,-86.19,30.62,854.58,0.0,0.0,21,9,631,,,,204,5,18241,1766,300,87399,762,80,45132,127,26,7110,425,94,21511,228,93,7895,463,146,18989,23,7,2413,866,137,32126,510,20,13054,2287,155,100625,70,15,1663,2341,115,32480,869,177,19585,,,
13317,Wilkes County,10,-81.13,36.2,1227.95,0.0,0.0,93,12,3598,,,,,,,168,12,9860,61,6,2781,,,,78,16,3497,,,,30,11,1083,,,,28,6,1028,,,,324,20,5709,,,,160,15,2145,87,29,1668,,,
13123,Gilmer County,30,-84.45,34.69,1116.01,0.0,0.0,,,,81,3,6420,,,,273,68,13222,162,28,5780,224,9,12966,124,26,5935,135,41,4371,190,48,6161,,,,294,20,9054,66,10,1440,495,47,15424,17,6,234,886,68,13101,316,56,7131,,,
13027,Brooks County,16,-98.21,26.99,1289.0,0.0,0.0,79,7,4471,,,,,,,77,17,2171,97,8,4751,23,6,605,69,15,3203,19,8,481,42,14,1360,,,,30,8,789,,,,593,20,19120,36,7,1407,164,15,1834,376,29,11765,,,
13091,Dodge County,21,-83.15,32.15,1303.13,0.0,0.0,28,8,789,,,,,,,91,20,3951,43,10,1161,25,6,631,142,19,5733,36,10,889,64,17,3167,20,4,651,50,9,1860,,,,977,48,30411,,,,407,23,5032,129,39,3109,3,3,22
13129,Gordon County,57,-84.9,34.5,927.42,0.0,0.0,90,3,2042,,,,,,,732,80,37107,1417,85,67320,150,19,6390,308,67,15054,99,39,3725,207,53,8074,283,4,18220,1498,44,45049,269,8,1290,2062,88,101807,60,11,914,1840,93,31136,1323,96,34659,,,
13105,Elbert County,19,-82.84,34.12,969.01,0.0,0.0,,,,67,13,3045,,,,154,37,4524,213,37,9509,29,6,1385,217,29,10795,,,,76,20,1585,,,,260,16,4498,,,,511,27,16048,22,4,287,327,25,4400,135,40,3225,,,
13113,Fayette County,111,-96.96,29.84,516.16,0.0,0.0,,,,,,,,,,3393,329,201505,2373,205,175685,763,67,43323,1070,223,75372,625,244,26103,2431,441,117097,1101,11,159863,1589,187,69490,637,62,15927,6599,439,353085,657,78,21723,6335,268,95708,3542,368,89524,1,6,152
13165,Jenkins County,9,-81.96,32.78,912.9,0.0,0.0,8,5,270,,,,,,,25,8,916,17,4,786,,,,37,10,1231,,,,14,5,480,,,,204,5,7776,,,,252,10,7047,,,,173,14,1875,84,12,2757,,,
13177,Lee County,29,-96.96,30.3,937.31,0.0,0.0,54,7,2976,,,,,,,410,56,17313,350,20,51640,11,3,600,169,25,6606,65,21,2906,95,30,4232,,,,517,29,11868,,,,378,38,15715,,,,370,26,5040,313,41,9139,,,
13217,Newton County,106,-93.74,30.81,723.11,0.0,0.0,,,,,,,,,,1511,199,80992,1710,76,164735,430,35,26906,498,68,30772,210,60,7365,382,104,14488,38,7,2575,912,65,22946,299,17,14822,2393,131,114925,248,21,3985,2653,136,38356,708,132,17513,,,
13227,Pickens County,31,-84.47,34.46,602.53,0.0,0.0,42,3,1679,257,4,20355,,,,391,87,19253,203,47,8267,45,9,1524,255,45,12614,79,39,2627,180,85,7439,,,,82,27,2926,29,10,668,1388,70,74434,39,9,562,929,55,14514,604,78,16775,8,4,129
13057,Cherokee County,242,-95.18,31.84,1125.13,1.82,0.29,18,11,660,69,5,3355,92,7,7178,4510,774,251665,2549,309,160414,539,72,28257,1444,303,93429,733,303,34884,3404,807,197331,187,20,16966,3257,395,141859,1232,81,27663,7127,534,352273,1506,108,28677,8932,390,138278,3011,507,92389,6,12,464
13133,Greene County,17,-90.39,39.36,1052.21,0.0,0.0,101,11,5140,,,,,,,185,46,8474,136,29,6985,183,3,5829,200,38,14958,46,28,2196,339,47,40055,,,,190,17,21249,69,6,1463,705,45,28479,17,4,682,1627,37,48328,261,45,6217,,,
13071,Colquitt County,46,-83.77,31.18,1441.31,1.73,0.05,156,16,6596,,,,92,3,6320,432,76,15310,496,54,29972,111,12,4581,287,53,15784,89,32,3084,208,65,6880,178,3,10315,125,33,2856,27,6,851,2394,97,101858,286,8,3097,1044,68,13307,411,93,9129,,,
13075,Cook County,17,-87.76,41.82,604.07,0.0,0.0,43,8,1516,,,,,,,155,23,5322,66,13,3724,37,5,977,128,22,4628,17,6,601,94,19,2898,,,,110,12,2554,,,,441,41,16578,,,,684,35,7988,61,23,1490,,,
13085,Dawson County,24,-101.96,32.74,555.32,0.0,0.0,16,6,473,,,,,,,302,78,14346,151,20,5924,67,13,2638,159,29,8930,73,22,1995,193,57,9638,,,,139,32,5362,21,5,493,484,50,19193,199,15,4608,1455,63,21635,366,63,9351,,,
13063,Clayton County,279,-84.36,33.52,373.92,2.09,10.48,,,,,,,1727,23,165450,2915,236,172347,4848,245,265229,670,56,30996,1406,173,67281,1116,167,58877,993,220,48322,224,16,21596,8005,189,212216,456,32,10663,8271,415,363671,425,24,4420,9060,403,169307,2466,377,75794,9,6,234
13121,Fulton County,1022,-90.18,40.47,1384.04,3.23,11.38,28,14,1720,419,4,16881,4944,63,624479,22141,1337,1660005,38551,1924,3232130,60331,1274,6806292,62858,2788,8098435,27029,2735,2620696,106530,7598,11252888,70185,609,8945308,59903,1953,3122459,20899,656,884014,86340,4018,5198179,14709,782,562015,88132,3439,1936136,30468,2949,1212569,73,92,3295
13139,Hall County,196,-100.65,34.5,1111.92,1.75,0.63,50,8,1537,70,3,4129,134,6,11044,3298,488,167249,4383,307,260929,742,69,37390,2168,297,145569,577,225,33164,1951,427,124265,1745,24,143128,4615,240,126584,1383,50,44717,14300,498,784906,2518,75,311752,6276,315,102053,3010,410,85448,8,5,93
