Fips,Name,Population,Longitude,Latitude,Km2,UrbanDensity,UrbanPercent,Emp-11,Est-11,Pay-11,Emp-21,Est-21,Pay-21,Emp-22,Est-22,Pay-22,Emp-23,Est-23,Pay-23,Emp-42,Est-42,Pay-42,Emp-51,Est-51,Pay-51,Emp-52,Est-52,Pay-52,Emp-53,Est-53,Pay-53,Emp-54,Est-54,Pay-54,Emp-55,Est-55,Pay-55,Emp-56,Est-56,Pay-56,Emp-61,Est-61,Pay-61,Emp-62,Est-62,Pay-62,Emp-71,Est-71,Pay-71,Emp-72,Est-72,Pay-72,Emp-81,Est-81,Pay-81,Emp-99,Est-99,Pay-99
21001,Adair County,19,-92.62,40.18,1067.96,0.02,0.31,,,,17.0,3.0,497.0,,,,204.0,34.0,7941.0,87.0,18.0,2278.0,47.0,5.0,1120.0,261.0,27.0,14932.0,11.0,5.0,198.0,51.0,18.0,1444.0,,,,222.0,9.0,3310.0,,,,447.0,39.0,17950.0,,,,408.0,17.0,4727.0,104.0,25.0,2590.0,,,
21003,Allen County,21,-84.06,40.81,911.81,0.02,0.57,,,,,,,,,,115.0,22.0,4827.0,229.0,7.0,13220.0,24.0,5.0,533.0,134.0,16.0,6029.0,63.0,9.0,1146.0,63.0,10.0,1923.0,,,,77.0,12.0,1994.0,,,,342.0,18.0,11952.0,68.0,4.0,521.0,356.0,22.0,5707.0,75.0,19.0,1699.0,,,
21005,Anderson County,22,-95.63,31.78,529.07,0.04,0.58,,,,,,,,,,180.0,28.0,9571.0,55.0,12.0,2687.0,25.0,7.0,779.0,107.0,20.0,4638.0,57.0,16.0,1262.0,103.0,26.0,2838.0,,,,21.0,11.0,537.0,39.0,4.0,541.0,342.0,33.0,9605.0,,,,528.0,35.0,7523.0,230.0,54.0,6913.0,,,
21007,Ballard County,8,-88.99,37.02,708.56,0.01,0.1,,,,,,,8.0,3.0,755.0,42.0,11.0,1209.0,60.0,6.0,3674.0,127.0,5.0,5267.0,36.0,8.0,2062.0,8.0,3.0,72.0,140.0,12.0,9861.0,,,,78.0,7.0,2895.0,,,,154.0,10.0,4005.0,,,,37.0,7.0,332.0,39.0,19.0,867.0,,,
21009,Barren County,44,-85.93,36.96,1295.01,0.03,0.4,,,,7.0,6.0,415.0,,,,523.0,61.0,23673.0,543.0,43.0,24484.0,234.0,14.0,9693.0,342.0,66.0,15725.0,84.0,28.0,2388.0,452.0,39.0,12555.0,105.0,3.0,5412.0,1282.0,28.0,26592.0,57.0,6.0,618.0,2162.0,99.0,107335.0,138.0,18.0,2290.0,1931.0,93.0,27176.0,347.0,84.0,7149.0,,,
21011,Bath County,12,-83.72,38.12,735.46,0.02,0.52,,,,,,,,,,149.0,16.0,8846.0,14.0,5.0,336.0,,,,56.0,14.0,1908.0,15.0,6.0,269.0,29.0,9.0,970.0,,,,90.0,3.0,6699.0,,,,184.0,10.0,5982.0,,,,125.0,12.0,1755.0,31.0,9.0,321.0,,,
21013,Bell County,27,-97.43,31.01,935.32,0.03,0.22,17.0,3.0,443.0,312.0,8.0,18748.0,75.0,4.0,5550.0,102.0,15.0,5058.0,227.0,11.0,4464.0,62.0,14.0,2149.0,244.0,34.0,10887.0,120.0,16.0,2791.0,142.0,23.0,5367.0,19.0,3.0,542.0,54.0,7.0,1323.0,,,,1275.0,72.0,47658.0,11.0,6.0,128.0,1044.0,53.0,12716.0,191.0,46.0,4264.0,,,
21015,Boone County,129,-88.82,42.32,664.46,0.19,0.64,,,,14.0,3.0,632.0,340.0,17.0,30748.0,2809.0,280.0,165042.0,8665.0,200.0,792773.0,1194.0,36.0,48297.0,3668.0,192.0,205909.0,757.0,142.0,35052.0,2966.0,243.0,198885.0,1100.0,31.0,81872.0,6601.0,159.0,189467.0,2240.0,26.0,60704.0,4801.0,281.0,221750.0,1273.0,49.0,18058.0,7190.0,322.0,121279.0,2438.0,261.0,75670.0,,,
21017,Bourbon County,20,-94.87,37.85,755.28,0.03,0.13,36.0,8.0,1111.0,,,,10.0,3.0,1211.0,578.0,47.0,33634.0,124.0,8.0,9124.0,21.0,7.0,862.0,211.0,26.0,14131.0,31.0,10.0,775.0,298.0,30.0,9269.0,,,,63.0,13.0,2075.0,21.0,3.0,221.0,695.0,50.0,24202.0,126.0,12.0,2784.0,436.0,24.0,5792.0,167.0,40.0,2927.0,,,
21019,Boyd County,48,-82.69,38.36,419.56,0.11,0.52,,,,43.0,5.0,3958.0,172.0,7.0,18366.0,902.0,78.0,47263.0,707.0,64.0,33599.0,279.0,22.0,10991.0,607.0,79.0,30065.0,298.0,42.0,14922.0,722.0,82.0,38277.0,257.0,17.0,16630.0,711.0,41.0,30597.0,14.0,5.0,258.0,6454.0,201.0,341067.0,203.0,13.0,2319.0,3074.0,121.0,42400.0,1024.0,155.0,32799.0,5.0,7.0,149.0
21021,Boyle County,30,-84.85,37.62,473.54,0.06,0.53,,,,,,,113.0,6.0,9456.0,272.0,50.0,15092.0,244.0,21.0,10299.0,182.0,16.0,6189.0,343.0,60.0,18316.0,54.0,21.0,1635.0,346.0,53.0,20264.0,,,,563.0,28.0,15372.0,1221.0,9.0,26428.0,3199.0,137.0,147195.0,149.0,15.0,2211.0,1566.0,73.0,22211.0,443.0,87.0,9570.0,,,
21023,Bracken County,8,-84.08,38.69,541.09,0.01,0.24,,,,,,,,,,63.0,12.0,2127.0,49.0,3.0,1891.0,,,,26.0,6.0,965.0,,,,13.0,4.0,1056.0,,,,8.0,4.0,214.0,,,,139.0,6.0,4321.0,,,,59.0,8.0,816.0,49.0,20.0,1176.0,,,
21025,Breathitt County,13,-83.29,37.52,1282.64,0.01,0.0,,,,85.0,3.0,2291.0,,,,21.0,5.0,858.0,,,,24.0,6.0,741.0,110.0,9.0,4366.0,17.0,6.0,548.0,35.0,9.0,593.0,33.0,4.0,936.0,921.0,3.0,30027.0,130.0,4.0,1036.0,866.0,45.0,32099.0,,,,196.0,10.0,2490.0,47.0,14.0,1273.0,,,
21027,Breckinridge County,20,-86.41,37.74,1516.68,0.01,0.3,,,,,,,39.0,3.0,1770.0,216.0,38.0,10142.0,95.0,9.0,3456.0,25.0,4.0,885.0,177.0,18.0,7525.0,42.0,8.0,838.0,65.0,13.0,2299.0,,,,4.0,4.0,158.0,,,,510.0,32.0,15818.0,16.0,3.0,206.0,278.0,17.0,3647.0,171.0,44.0,4719.0,,,
21029,Bullitt County,79,-85.67,37.97,777.74,0.1,0.55,11.0,4.0,454.0,,,,,,,1432.0,191.0,92788.0,1329.0,34.0,61452.0,34.0,9.0,1953.0,286.0,68.0,12576.0,182.0,43.0,5598.0,278.0,79.0,11238.0,,,,1198.0,72.0,35407.0,55.0,8.0,874.0,1433.0,118.0,49652.0,192.0,18.0,2704.0,2126.0,97.0,31351.0,1340.0,136.0,40223.0,,,
21031,Butler County,13,-79.93,40.92,1117.83,0.01,0.69,,,,8.0,3.0,270.0,,,,93.0,17.0,3205.0,37.0,7.0,1123.0,12.0,4.0,261.0,66.0,10.0,2672.0,7.0,3.0,121.0,24.0,9.0,763.0,,,,63.0,6.0,1496.0,,,,239.0,22.0,8513.0,,,,167.0,13.0,2405.0,119.0,31.0,2163.0,,,
21033,Caldwell County,13,-97.6,29.83,901.26,0.01,0.0,15.0,4.0,394.0,16.0,3.0,464.0,,,,79.0,15.0,3801.0,54.0,7.0,2394.0,39.0,7.0,1417.0,133.0,18.0,6044.0,16.0,5.0,320.0,54.0,21.0,1177.0,,,,113.0,9.0,2566.0,,,,409.0,35.0,15394.0,14.0,3.0,236.0,400.0,26.0,5000.0,158.0,39.0,3535.0,,,
21035,Calloway County,39,-88.27,36.63,1064.05,0.04,0.25,,,,,,,,,,689.0,96.0,25424.0,365.0,33.0,18236.0,273.0,18.0,12858.0,464.0,60.0,21194.0,304.0,29.0,6739.0,330.0,62.0,14257.0,114.0,5.0,4484.0,240.0,32.0,7747.0,48.0,6.0,1675.0,1818.0,110.0,83828.0,32.0,7.0,700.0,1689.0,75.0,21896.0,496.0,96.0,9439.0,,,
21037,Campbell County,92,-84.37,38.93,413.63,0.22,0.5,,,,,,,,,,1577.0,197.0,90740.0,973.0,62.0,57120.0,394.0,33.0,15971.0,480.0,88.0,26634.0,637.0,85.0,47648.0,1040.0,162.0,62099.0,848.0,8.0,113379.0,839.0,73.0,31880.0,242.0,22.0,6032.0,3604.0,167.0,150992.0,1015.0,34.0,15425.0,4817.0,226.0,71875.0,1308.0,180.0,43606.0,2.0,3.0,55.0
21039,Carlisle County,5,-88.96,36.84,515.23,0.01,0.28,,,,,,,,,,42.0,14.0,1260.0,18.0,8.0,913.0,,,,65.0,8.0,2417.0,7.0,4.0,339.0,11.0,4.0,186.0,,,,162.0,4.0,5846.0,,,,66.0,10.0,1999.0,,,,37.0,7.0,417.0,44.0,11.0,931.0,,,
21041,Carroll County,11,-89.96,42.06,355.61,0.03,0.03,,,,,,,319.0,9.0,32972.0,81.0,11.0,3626.0,176.0,8.0,10472.0,,,,72.0,14.0,2881.0,27.0,5.0,1302.0,80.0,14.0,4538.0,,,,409.0,14.0,11989.0,,,,352.0,23.0,14845.0,,,,513.0,24.0,8228.0,97.0,25.0,2007.0,,,
21043,Carter County,27,-97.28,34.23,1067.45,0.03,0.3,,,,59.0,4.0,2515.0,,,,186.0,34.0,6854.0,268.0,11.0,8081.0,410.0,12.0,16644.0,192.0,27.0,6841.0,40.0,17.0,1249.0,105.0,26.0,2943.0,,,,103.0,13.0,2431.0,387.0,3.0,3841.0,581.0,38.0,17691.0,14.0,3.0,256.0,706.0,38.0,9141.0,141.0,43.0,2958.0,,,
21045,Casey County,16,-84.91,37.29,1154.33,0.01,0.3,19.0,3.0,390.0,,,,,,,56.0,18.0,2028.0,80.0,14.0,4208.0,,,,83.0,13.0,3378.0,,,,175.0,11.0,8154.0,,,,18.0,4.0,170.0,,,,543.0,32.0,19543.0,,,,252.0,14.0,2178.0,139.0,18.0,2373.0,,,
21047,Christian County,72,-89.28,39.52,1874.83,0.04,0.32,,,,,,,,,,449.0,82.0,21667.0,830.0,75.0,42963.0,247.0,22.0,9134.0,629.0,85.0,33427.0,343.0,59.0,16057.0,951.0,85.0,51079.0,245.0,7.0,18783.0,1625.0,55.0,43874.0,264.0,12.0,6421.0,3347.0,151.0,140530.0,127.0,11.0,1717.0,2752.0,125.0,37743.0,876.0,159.0,20374.0,3.0,3.0,38.0
21049,Clark County,36,-87.78,39.33,660.78,0.05,0.27,7.0,3.0,67.0,,,,501.0,8.0,50350.0,536.0,62.0,26039.0,654.0,35.0,26687.0,101.0,13.0,5249.0,282.0,46.0,15076.0,109.0,33.0,4068.0,1128.0,48.0,22564.0,48.0,3.0,3785.0,1502.0,33.0,46045.0,11.0,6.0,158.0,1717.0,117.0,73080.0,15.0,8.0,423.0,1189.0,62.0,16188.0,472.0,78.0,12162.0,,,
21051,Clay County,21,-98.21,33.69,1220.26,0.02,0.16,,,,11.0,3.0,529.0,,,,71.0,16.0,3032.0,,,,29.0,5.0,1294.0,75.0,15.0,2734.0,13.0,8.0,314.0,79.0,17.0,2501.0,,,,26.0,4.0,820.0,,,,826.0,43.0,35796.0,,,,325.0,20.0,4374.0,60.0,26.0,1544.0,,,
21053,Clinton County,10,-89.42,38.59,532.48,0.02,0.61,,,,28.0,5.0,777.0,,,,68.0,16.0,3157.0,61.0,10.0,1976.0,,,,78.0,11.0,2669.0,39.0,5.0,830.0,28.0,12.0,527.0,,,,25.0,3.0,536.0,,,,422.0,22.0,15768.0,,,,248.0,20.0,2799.0,28.0,11.0,526.0,,,
21055,Crittenden County,9,-88.09,37.36,961.14,0.01,0.0,,,,16.0,3.0,407.0,,,,33.0,11.0,1256.0,138.0,4.0,4723.0,14.0,3.0,269.0,56.0,10.0,2544.0,13.0,7.0,294.0,32.0,14.0,899.0,,,,,,,,,,333.0,15.0,11035.0,6.0,4.0,134.0,229.0,12.0,2291.0,94.0,33.0,2032.0,,,
21057,Cumberland County,7,-77.28,40.15,804.93,0.01,0.0,,,,,,,,,,68.0,4.0,3341.0,22.0,3.0,897.0,,,,62.0,7.0,2371.0,13.0,4.0,261.0,37.0,10.0,2799.0,,,,,,,,,,369.0,13.0,12620.0,,,,93.0,12.0,1764.0,27.0,9.0,488.0,,,
21059,Daviess County,100,-94.0,39.96,1234.49,0.08,0.65,2.0,3.0,219.0,91.0,9.0,5407.0,166.0,6.0,14411.0,2246.0,223.0,100045.0,1431.0,111.0,76412.0,338.0,25.0,14295.0,3180.0,182.0,157142.0,554.0,100.0,16663.0,816.0,147.0,45134.0,352.0,13.0,17540.0,3222.0,98.0,70620.0,1244.0,34.0,28235.0,8352.0,330.0,400654.0,422.0,35.0,7882.0,4786.0,190.0,73244.0,1723.0,242.0,46634.0,,,
21061,Edmonson County,12,-86.22,37.2,797.18,0.02,0.18,,,,,,,,,,132.0,20.0,5110.0,,,,,,,61.0,9.0,2260.0,,,,12.0,4.0,415.0,,,,,,,,,,188.0,16.0,5899.0,,,,168.0,15.0,2967.0,19.0,7.0,641.0,,,
21063,Elliott County,8,-83.07,38.12,609.58,0.01,0.13,,,,,,,,,,12.0,4.0,490.0,,,,,,,14.0,4.0,462.0,,,,,,,,,,,,,,,,172.0,11.0,5563.0,,,,46.0,4.0,718.0,1.0,3.0,33.0,,,
21065,Estill County,14,-83.94,37.69,662.2,0.02,0.34,,,,,,,,,,46.0,13.0,1092.0,75.0,5.0,3541.0,48.0,7.0,1536.0,71.0,10.0,3160.0,19.0,4.0,226.0,39.0,9.0,480.0,,,,58.0,7.0,2561.0,,,,397.0,23.0,18339.0,,,,253.0,19.0,3031.0,90.0,28.0,1741.0,,,
21067,Fayette County,319,-96.96,29.84,739.52,0.43,0.39,231.0,28.0,9384.0,165.0,14.0,12450.0,588.0,16.0,54560.0,10553.0,587.0,638892.0,6661.0,402.0,412924.0,5192.0,204.0,217303.0,5494.0,590.0,410346.0,2244.0,491.0,88577.0,11909.0,1148.0,760231.0,3889.0,71.0,380529.0,11795.0,470.0,401704.0,2543.0,126.0,68072.0,32451.0,1208.0,1814965.0,3211.0,170.0,89178.0,21674.0,844.0,384073.0,7791.0,809.0,245485.0,13.0,22.0,515.0
21069,Fleming County,14,-83.68,38.37,909.92,0.02,0.47,,,,,,,66.0,3.0,4326.0,155.0,23.0,6448.0,71.0,9.0,1896.0,13.0,5.0,874.0,111.0,19.0,4872.0,12.0,9.0,252.0,40.0,13.0,1095.0,,,,,,,,,,457.0,17.0,15381.0,8.0,3.0,72.0,154.0,9.0,2582.0,85.0,31.0,2015.0,,,
21071,Floyd County,37,-101.28,34.03,1024.94,0.04,0.06,,,,454.0,24.0,27921.0,28.0,5.0,1724.0,315.0,42.0,14098.0,365.0,33.0,16262.0,315.0,27.0,14019.0,201.0,40.0,7814.0,137.0,25.0,5250.0,184.0,46.0,6496.0,115.0,3.0,9377.0,646.0,24.0,29790.0,13.0,4.0,248.0,2052.0,127.0,87782.0,36.0,7.0,968.0,750.0,49.0,10426.0,288.0,60.0,8305.0,12.0,7.0,285.0
21073,Franklin County,50,-95.22,33.2,549.19,0.09,0.38,,,,,,,44.0,10.0,4282.0,620.0,68.0,30845.0,533.0,53.0,31513.0,453.0,28.0,26552.0,899.0,77.0,49701.0,189.0,46.0,6291.0,1079.0,129.0,54575.0,33.0,4.0,2186.0,1025.0,40.0,25484.0,340.0,10.0,9168.0,2276.0,158.0,105443.0,223.0,16.0,4093.0,2343.0,109.0,35286.0,1111.0,180.0,43699.0,,,
21075,Fulton County,6,-90.18,40.47,597.03,0.01,0.0,,,,,,,,,,31.0,5.0,2272.0,61.0,8.0,2513.0,24.0,5.0,976.0,76.0,11.0,3238.0,4.0,3.0,104.0,21.0,6.0,550.0,,,,,,,,,,324.0,22.0,9725.0,,,,224.0,13.0,2421.0,45.0,13.0,936.0,,,
21077,Gallatin County,9,-88.23,37.75,271.26,0.03,1.0,,,,,,,,,,52.0,9.0,1791.0,,,,,,,23.0,7.0,838.0,7.0,3.0,160.0,21.0,8.0,871.0,,,,23.0,3.0,701.0,,,,198.0,6.0,7685.0,,,,131.0,7.0,1812.0,75.0,9.0,2880.0,,,
21079,Garrard County,17,-84.54,37.64,605.88,0.03,0.51,,,,,,,,,,268.0,45.0,12374.0,18.0,4.0,696.0,27.0,7.0,1871.0,55.0,12.0,1952.0,6.0,5.0,150.0,37.0,15.0,972.0,,,,179.0,16.0,7356.0,,,,263.0,23.0,8203.0,,,,119.0,16.0,1304.0,81.0,20.0,2111.0,,,
21081,Grant County,25,-96.03,45.94,675.44,0.04,0.58,,,,,,,,,,68.0,38.0,2566.0,190.0,11.0,7085.0,26.0,5.0,1617.0,71.0,18.0,2703.0,29.0,19.0,1145.0,87.0,28.0,2971.0,,,,109.0,14.0,4308.0,,,,477.0,37.0,23694.0,16.0,5.0,348.0,728.0,39.0,12519.0,172.0,42.0,3877.0,,,
21083,Graves County,37,-88.66,36.72,1442.01,0.03,0.39,18.0,3.0,338.0,,,,88.0,3.0,6720.0,319.0,66.0,13137.0,765.0,47.0,28247.0,40.0,8.0,1410.0,331.0,45.0,17381.0,97.0,34.0,2421.0,267.0,46.0,10651.0,,,,216.0,22.0,5269.0,22.0,5.0,455.0,1496.0,73.0,61553.0,72.0,5.0,650.0,765.0,48.0,10397.0,416.0,65.0,12833.0,,,
21085,Grayson County,26,-96.67,33.56,1323.77,0.02,0.19,,,,,,,,,,394.0,56.0,16264.0,344.0,15.0,14552.0,26.0,7.0,970.0,205.0,33.0,7547.0,232.0,16.0,6087.0,65.0,15.0,2257.0,,,,350.0,14.0,8872.0,,,,951.0,60.0,34836.0,11.0,5.0,136.0,571.0,32.0,7014.0,164.0,41.0,3471.0,,,
21087,Green County,11,-85.53,37.24,747.65,0.01,0.11,,,,,,,,,,28.0,16.0,559.0,44.0,6.0,1590.0,17.0,3.0,871.0,48.0,10.0,1640.0,8.0,3.0,330.0,43.0,13.0,837.0,,,,2.0,3.0,158.0,,,,488.0,24.0,18615.0,,,,133.0,10.0,1712.0,95.0,25.0,1356.0,,,
21089,Greenup County,36,-82.92,38.51,917.85,0.04,0.35,,,,,,,,,,255.0,38.0,11194.0,22.0,5.0,828.0,48.0,5.0,2406.0,225.0,40.0,9514.0,28.0,15.0,790.0,140.0,23.0,4864.0,90.0,7.0,10944.0,491.0,28.0,15064.0,23.0,4.0,221.0,1056.0,77.0,41364.0,58.0,6.0,1481.0,848.0,45.0,12675.0,247.0,54.0,4910.0,,,
21091,Hancock County,9,-91.15,40.39,515.05,0.02,0.21,,,,27.0,3.0,1410.0,,,,74.0,12.0,4060.0,,,,,,,80.0,12.0,2434.0,11.0,5.0,217.0,48.0,5.0,1504.0,,,,26.0,4.0,711.0,6.0,3.0,103.0,101.0,14.0,3149.0,,,,93.0,4.0,998.0,99.0,16.0,998.0,,,
21093,Hardin County,108,-94.4,30.3,1632.47,0.07,0.34,3.0,4.0,197.0,45.0,3.0,1487.0,150.0,10.0,12418.0,1078.0,171.0,45815.0,718.0,71.0,30851.0,1047.0,39.0,59886.0,1286.0,140.0,84620.0,470.0,114.0,15164.0,1179.0,147.0,69616.0,512.0,15.0,17207.0,2718.0,86.0,72273.0,195.0,17.0,4893.0,7451.0,306.0,387955.0,300.0,26.0,3866.0,4982.0,195.0,71677.0,1373.0,217.0,33104.0,,,
21095,Harlan County,27,-83.23,36.84,1212.59,0.02,0.0,12.0,3.0,143.0,684.0,19.0,49021.0,18.0,3.0,1536.0,76.0,18.0,1908.0,117.0,18.0,3728.0,52.0,12.0,2416.0,115.0,30.0,4095.0,32.0,12.0,902.0,134.0,25.0,4627.0,,,,106.0,5.0,2339.0,53.0,7.0,1153.0,1340.0,48.0,52206.0,8.0,3.0,127.0,583.0,36.0,6788.0,120.0,46.0,2139.0,,,
21097,Harrison County,19,-94.4,32.52,802.53,0.02,0.31,,,,,,,,,,200.0,18.0,12640.0,36.0,8.0,1323.0,22.0,5.0,790.0,80.0,20.0,4059.0,32.0,8.0,691.0,57.0,16.0,1520.0,,,,95.0,5.0,5116.0,,,,1077.0,45.0,42884.0,13.0,3.0,175.0,502.0,28.0,5428.0,135.0,38.0,3277.0,,,
21099,Hart County,19,-82.95,34.34,1082.08,0.02,0.17,,,,,,,,,,104.0,27.0,3696.0,35.0,7.0,1184.0,41.0,5.0,1086.0,64.0,14.0,2566.0,12.0,7.0,328.0,46.0,16.0,1645.0,,,,8.0,5.0,348.0,,,,360.0,28.0,13961.0,28.0,4.0,692.0,279.0,16.0,4049.0,100.0,43.0,1905.0,1.0,3.0,29.0
21101,Henderson County,46,-95.79,32.18,1205.88,0.04,0.34,,,,4.0,4.0,267.0,401.0,6.0,38612.0,810.0,85.0,42405.0,493.0,42.0,29999.0,199.0,14.0,8179.0,408.0,76.0,22373.0,239.0,53.0,6558.0,550.0,71.0,16704.0,46.0,5.0,3355.0,494.0,48.0,16672.0,47.0,6.0,954.0,2313.0,146.0,94104.0,225.0,10.0,3770.0,1541.0,80.0,20326.0,755.0,102.0,23359.0,,,
21103,Henry County,16,-90.12,41.34,753.9,0.02,0.07,,,,,,,,,,102.0,34.0,4051.0,202.0,11.0,8713.0,,,,83.0,12.0,2778.0,4.0,6.0,175.0,53.0,17.0,1874.0,,,,69.0,12.0,3437.0,,,,228.0,19.0,7744.0,10.0,4.0,308.0,289.0,17.0,3890.0,115.0,36.0,2350.0,,,
21105,Hickman County,5,-88.96,36.69,655.17,0.01,0.0,,,,,,,,,,51.0,7.0,1623.0,68.0,8.0,3077.0,,,,49.0,4.0,2029.0,,,,7.0,3.0,246.0,,,,11.0,3.0,500.0,,,,161.0,8.0,4926.0,,,,,,,32.0,8.0,611.0,,,
21107,Hopkins County,46,-95.57,33.14,1435.84,0.03,0.2,,,,745.0,6.0,65619.0,71.0,10.0,6642.0,733.0,56.0,44783.0,418.0,46.0,24485.0,135.0,10.0,6369.0,440.0,76.0,21286.0,114.0,30.0,3862.0,399.0,55.0,15972.0,40.0,4.0,1881.0,437.0,41.0,12901.0,67.0,12.0,1466.0,3091.0,143.0,130121.0,99.0,8.0,1128.0,1269.0,63.0,17080.0,679.0,153.0,16528.0,2.0,4.0,84.0
21109,Jackson County,13,-96.56,28.92,897.54,0.01,0.21,,,,,,,,,,34.0,6.0,991.0,,,,60.0,5.0,3317.0,49.0,4.0,1839.0,5.0,3.0,140.0,11.0,3.0,389.0,,,,,,,,,,235.0,19.0,7506.0,,,,47.0,7.0,650.0,17.0,6.0,350.0,,,
21111,Jefferson County,767,-94.17,29.83,1029.84,0.74,0.47,32.0,4.0,770.0,85.0,4.0,6884.0,2141.0,35.0,234441.0,18790.0,1426.0,1030840.0,21067.0,1077.0,1311692.0,10607.0,392.0,627858.0,29541.0,1486.0,2726901.0,5760.0,1098.0,301471.0,23448.0,2230.0,1492351.0,24204.0,271.0,2055511.0,29091.0,1109.0,913104.0,8859.0,249.0,317177.0,67175.0,2516.0,3618802.0,6020.0,333.0,175430.0,46564.0,1819.0,811086.0,19697.0,1866.0,620349.0,9.0,17.0,181.0
21113,Jessamine County,52,-84.58,37.87,452.03,0.12,0.45,32.0,6.0,1020.0,31.0,4.0,1469.0,,,,1304.0,168.0,63353.0,843.0,40.0,44506.0,245.0,14.0,4480.0,247.0,60.0,10957.0,144.0,47.0,5298.0,1102.0,107.0,71991.0,830.0,4.0,60972.0,958.0,78.0,44312.0,1623.0,15.0,30581.0,1286.0,125.0,45848.0,148.0,20.0,4019.0,1843.0,85.0,24889.0,827.0,137.0,20104.0,,,
21115,Johnson County,23,-97.36,32.38,684.24,0.03,0.21,,,,20.0,6.0,1141.0,53.0,3.0,3921.0,315.0,23.0,19718.0,88.0,12.0,3065.0,117.0,11.0,6864.0,112.0,25.0,4080.0,45.0,13.0,1563.0,142.0,21.0,6147.0,,,,54.0,15.0,2101.0,,,,655.0,47.0,28205.0,,,,497.0,35.0,7297.0,173.0,39.0,3558.0,5.0,3.0,44.0
21117,Kenton County,165,-84.53,38.93,425.41,0.39,0.69,,,,,,,43.0,8.0,3608.0,3166.0,297.0,190555.0,2638.0,164.0,171694.0,661.0,51.0,51041.0,5359.0,236.0,474722.0,856.0,145.0,44638.0,3083.0,376.0,214474.0,1983.0,34.0,165780.0,2681.0,157.0,83367.0,952.0,35.0,31205.0,11382.0,390.0,637086.0,750.0,44.0,11956.0,7704.0,327.0,129611.0,2821.0,296.0,82442.0,,,
21119,Knott County,16,-82.93,37.35,913.81,0.02,0.1,,,,267.0,8.0,16658.0,,,,101.0,10.0,3684.0,,,,106.0,5.0,4570.0,44.0,9.0,1974.0,19.0,3.0,303.0,50.0,12.0,5400.0,,,,13.0,5.0,730.0,269.0,4.0,6663.0,381.0,30.0,8220.0,,,,106.0,8.0,1665.0,50.0,15.0,1425.0,,,
21121,Knox County,31,-99.71,33.59,1004.33,0.03,0.19,,,,62.0,3.0,4696.0,,,,107.0,25.0,3300.0,94.0,11.0,1806.0,140.0,10.0,4180.0,174.0,40.0,7263.0,72.0,14.0,2694.0,2180.0,41.0,37685.0,,,,250.0,13.0,7994.0,,,,1325.0,73.0,43008.0,27.0,4.0,474.0,1043.0,45.0,16050.0,124.0,42.0,2319.0,,,
21123,Larue County,14,-85.7,37.53,682.85,0.02,0.54,,,,,,,,,,161.0,34.0,7545.0,14.0,3.0,464.0,,,,343.0,15.0,18238.0,,,,42.0,15.0,1134.0,,,,25.0,6.0,182.0,,,,319.0,20.0,9904.0,20.0,4.0,166.0,141.0,11.0,1818.0,130.0,38.0,2614.0,,,
21125,Laurel County,60,-84.11,37.1,1149.12,0.05,0.5,29.0,5.0,834.0,281.0,10.0,18698.0,20.0,4.0,2038.0,830.0,94.0,29853.0,825.0,58.0,38585.0,1235.0,37.0,28502.0,916.0,79.0,43676.0,219.0,49.0,6518.0,2806.0,91.0,39810.0,79.0,5.0,3946.0,2268.0,49.0,64380.0,47.0,7.0,910.0,2667.0,155.0,131947.0,73.0,9.0,1331.0,2526.0,101.0,38085.0,564.0,95.0,12940.0,4.0,3.0,38.0
21127,Lawrence County,16,-80.35,41.0,1087.85,0.01,0.08,,,,36.0,3.0,1085.0,,,,110.0,15.0,3325.0,198.0,6.0,8654.0,,,,53.0,13.0,1983.0,30.0,10.0,759.0,51.0,12.0,2040.0,,,,18.0,3.0,320.0,,,,679.0,25.0,32484.0,,,,323.0,20.0,4794.0,99.0,21.0,2837.0,,,
21129,Lee County,7,-96.96,30.3,547.05,0.01,0.32,,,,44.0,3.0,1887.0,,,,48.0,6.0,2190.0,12.0,5.0,860.0,51.0,4.0,1061.0,16.0,5.0,520.0,7.0,3.0,400.0,16.0,5.0,295.0,,,,,,,,,,754.0,18.0,11983.0,,,,82.0,10.0,1085.0,20.0,3.0,555.0,,,
21131,Leslie County,10,-83.38,37.08,1047.43,0.01,0.1,7.0,3.0,110.0,82.0,3.0,4153.0,,,,3.0,5.0,71.0,,,,25.0,3.0,771.0,64.0,8.0,2555.0,,,,38.0,8.0,1347.0,,,,15.0,4.0,529.0,,,,316.0,17.0,10595.0,,,,68.0,6.0,1086.0,28.0,9.0,875.0,,,
21133,Letcher County,23,-82.85,37.12,878.04,0.03,0.04,,,,363.0,9.0,11799.0,,,,38.0,9.0,889.0,141.0,11.0,6292.0,36.0,8.0,1433.0,103.0,23.0,2821.0,32.0,9.0,1084.0,89.0,16.0,3012.0,,,,75.0,5.0,4170.0,,,,984.0,59.0,47137.0,,,,377.0,30.0,4842.0,85.0,26.0,1712.0,,,
21135,Lewis County,13,-91.7,40.09,1283.42,0.01,0.3,,,,,,,,,,91.0,14.0,5061.0,17.0,4.0,773.0,,,,77.0,10.0,2800.0,,,,14.0,5.0,327.0,,,,,,,,,,254.0,11.0,9413.0,,,,78.0,6.0,871.0,17.0,12.0,303.0,,,
21137,Lincoln County,24,-81.21,35.49,871.28,0.03,0.43,,,,,,,,,,185.0,35.0,7145.0,39.0,8.0,1001.0,16.0,3.0,206.0,116.0,20.0,4716.0,5.0,3.0,132.0,119.0,22.0,4275.0,,,,43.0,8.0,2376.0,,,,555.0,38.0,19524.0,15.0,4.0,252.0,340.0,18.0,3952.0,142.0,49.0,2752.0,,,
21139,Livingston County,9,-88.56,40.87,885.81,0.01,0.05,,,,340.0,5.0,22923.0,,,,155.0,13.0,11093.0,70.0,8.0,3494.0,,,,30.0,6.0,936.0,,,,28.0,7.0,1605.0,,,,18.0,4.0,189.0,,,,347.0,16.0,11780.0,53.0,5.0,1553.0,272.0,12.0,4217.0,45.0,18.0,855.0,,,
21141,Logan County,27,-89.38,40.11,1442.94,0.02,0.37,25.0,3.0,819.0,,,,9.0,3.0,363.0,326.0,48.0,12450.0,210.0,27.0,9694.0,62.0,7.0,2701.0,198.0,36.0,8907.0,27.0,11.0,740.0,170.0,31.0,6804.0,,,,316.0,13.0,5580.0,52.0,7.0,450.0,610.0,47.0,26889.0,,,,576.0,36.0,7456.0,258.0,74.0,6450.0,,,
21143,Lyon County,8,-95.83,44.39,665.09,0.01,0.39,,,,,,,,,,117.0,21.0,5414.0,20.0,7.0,1269.0,7.0,3.0,330.0,21.0,5.0,554.0,15.0,6.0,836.0,27.0,8.0,934.0,,,,52.0,8.0,944.0,,,,260.0,21.0,8526.0,40.0,4.0,2314.0,335.0,25.0,5607.0,52.0,18.0,790.0,,,
21145,McCracken County,65,-88.71,37.03,694.05,0.09,0.41,,,,,,,110.0,4.0,8112.0,1786.0,151.0,95390.0,1568.0,109.0,74239.0,800.0,37.0,43525.0,1228.0,138.0,65051.0,294.0,71.0,11096.0,1128.0,184.0,52654.0,162.0,23.0,15153.0,2158.0,82.0,96464.0,168.0,17.0,3464.0,6828.0,291.0,374825.0,357.0,22.0,6444.0,4568.0,220.0,68614.0,1492.0,221.0,39833.0,,,
21147,McCreary County,18,-84.5,36.74,1116.56,0.02,0.32,,,,,,,,,,12.0,3.0,396.0,,,,,,,108.0,12.0,4102.0,12.0,6.0,297.0,79.0,8.0,1455.0,,,,,,,12.0,3.0,244.0,257.0,30.0,8752.0,,,,269.0,20.0,2689.0,39.0,14.0,951.0,,,
21149,McLean County,9,-88.82,40.46,663.61,0.01,0.17,14.0,3.0,642.0,188.0,3.0,17756.0,,,,50.0,17.0,1884.0,136.0,10.0,4783.0,,,,63.0,11.0,2884.0,,,,37.0,7.0,1174.0,,,,12.0,4.0,188.0,5.0,4.0,131.0,146.0,12.0,3956.0,,,,69.0,13.0,911.0,102.0,33.0,3382.0,,,
21151,Madison County,90,-95.95,30.96,1148.03,0.08,0.8,,,,52.0,3.0,3227.0,47.0,5.0,3964.0,1035.0,146.0,45784.0,433.0,46.0,20228.0,386.0,33.0,15523.0,551.0,120.0,25876.0,286.0,89.0,8287.0,872.0,142.0,44083.0,,,,1551.0,66.0,70978.0,877.0,21.0,40169.0,4201.0,269.0,160654.0,214.0,21.0,2502.0,3842.0,170.0,58468.0,956.0,168.0,24243.0,,,
21153,Magoffin County,13,-83.04,37.69,800.64,0.02,0.1,,,,46.0,7.0,2523.0,,,,36.0,7.0,812.0,15.0,3.0,446.0,15.0,3.0,291.0,57.0,9.0,1938.0,,,,133.0,15.0,5266.0,,,,20.0,5.0,538.0,,,,240.0,22.0,8763.0,,,,175.0,11.0,2052.0,32.0,10.0,627.0,,,
21155,Marion County,19,-94.34,32.79,898.42,0.02,0.37,,,,,,,,,,191.0,34.0,8599.0,78.0,13.0,2642.0,20.0,3.0,351.0,145.0,26.0,6972.0,18.0,7.0,739.0,113.0,24.0,4422.0,,,,542.0,11.0,14530.0,,,,1336.0,36.0,38838.0,17.0,5.0,360.0,540.0,35.0,6440.0,141.0,37.0,3916.0,,,
21157,Marshall County,31,-89.3,41.03,881.09,0.04,0.35,,,,,,,,,,913.0,74.0,47930.0,163.0,27.0,9344.0,85.0,10.0,4010.0,379.0,31.0,19750.0,84.0,20.0,5712.0,199.0,42.0,12331.0,,,,236.0,30.0,8740.0,20.0,5.0,258.0,1013.0,71.0,30647.0,165.0,11.0,4417.0,1308.0,85.0,16151.0,655.0,97.0,16087.0,,,
21159,Martin County,12,-101.92,32.27,597.43,0.02,0.31,,,,81.0,4.0,6237.0,,,,24.0,7.0,571.0,29.0,4.0,1314.0,7.0,3.0,288.0,65.0,6.0,2424.0,,,,17.0,7.0,384.0,48.0,3.0,2185.0,68.0,10.0,1693.0,,,,212.0,17.0,8166.0,,,,164.0,10.0,1729.0,53.0,12.0,2056.0,,,
21161,Mason County,17,-99.22,30.71,638.7,0.03,0.41,,,,,,,264.0,5.0,23969.0,188.0,22.0,10053.0,241.0,18.0,11521.0,154.0,14.0,10990.0,182.0,36.0,9272.0,79.0,11.0,2293.0,98.0,22.0,4008.0,,,,383.0,13.0,11345.0,19.0,3.0,452.0,1292.0,56.0,56551.0,98.0,7.0,1632.0,938.0,40.0,11993.0,227.0,62.0,4414.0,,,
21163,Meade County,28,-100.4,37.21,839.65,0.03,0.4,,,,124.0,6.0,5883.0,,,,397.0,47.0,21719.0,82.0,9.0,3780.0,84.0,4.0,4048.0,138.0,20.0,5378.0,71.0,20.0,1637.0,254.0,16.0,4144.0,,,,50.0,12.0,1570.0,,,,284.0,34.0,8363.0,46.0,4.0,834.0,472.0,28.0,6073.0,221.0,42.0,5424.0,,,
21165,Menifee County,6,-83.6,37.94,533.37,0.01,0.65,,,,,,,,,,8.0,5.0,235.0,,,,,,,,,,,,,,,,,,,,,,,,,191.0,9.0,5967.0,,,,,,,6.0,3.0,108.0,,,
21167,Mercer County,22,-80.3,41.33,655.97,0.03,0.34,,,,,,,130.0,5.0,14397.0,154.0,40.0,6220.0,39.0,7.0,1221.0,34.0,5.0,1061.0,113.0,23.0,5129.0,14.0,6.0,300.0,55.0,28.0,1816.0,,,,44.0,7.0,799.0,,,,547.0,38.0,17317.0,157.0,9.0,4178.0,478.0,35.0,6646.0,218.0,58.0,4112.0,,,
21169,Metcalfe County,10,-85.63,36.98,754.24,0.01,0.0,,,,,,,10.0,3.0,419.0,1.0,3.0,68.0,14.0,4.0,877.0,,,,41.0,8.0,1609.0,7.0,4.0,187.0,31.0,10.0,413.0,,,,,,,,,,114.0,17.0,3096.0,,,,125.0,11.0,1383.0,35.0,15.0,455.0,,,
21171,Monroe County,11,-90.18,38.27,860.19,0.01,0.31,,,,,,,,,,219.0,19.0,15585.0,48.0,6.0,1868.0,13.0,4.0,188.0,80.0,14.0,2841.0,35.0,8.0,876.0,24.0,8.0,740.0,,,,,,,,,,486.0,26.0,17817.0,,,,191.0,18.0,2258.0,56.0,18.0,1242.0,,,
21173,Montgomery County,28,-95.51,30.3,515.09,0.05,0.48,,,,,,,21.0,4.0,1496.0,276.0,38.0,15965.0,218.0,24.0,6124.0,113.0,12.0,3787.0,271.0,42.0,12114.0,39.0,20.0,1161.0,184.0,35.0,7199.0,,,,1194.0,21.0,24401.0,,,,952.0,63.0,41864.0,21.0,6.0,368.0,983.0,43.0,14552.0,190.0,49.0,5178.0,,,
21175,Morgan County,13,-90.19,39.71,994.04,0.01,0.07,,,,,,,,,,148.0,11.0,6815.0,,,,130.0,6.0,4832.0,96.0,12.0,3566.0,,,,78.0,15.0,2172.0,,,,,,,,,,373.0,18.0,16327.0,,,,151.0,10.0,2181.0,80.0,15.0,2389.0,,,
21177,Muhlenberg County,31,-87.14,37.2,1241.76,0.02,0.07,,,,485.0,10.0,40362.0,26.0,4.0,2538.0,144.0,27.0,5945.0,126.0,12.0,4140.0,88.0,10.0,2779.0,195.0,34.0,9048.0,41.0,11.0,774.0,208.0,26.0,8597.0,,,,224.0,15.0,6842.0,20.0,8.0,353.0,1357.0,76.0,49939.0,10.0,3.0,152.0,720.0,48.0,8690.0,330.0,105.0,6174.0,,,
21179,Nelson County,45,-85.47,37.81,1098.41,0.04,0.65,,,,,,,68.0,4.0,6260.0,1422.0,125.0,67018.0,412.0,36.0,22007.0,285.0,14.0,7680.0,331.0,77.0,15352.0,86.0,34.0,3071.0,217.0,59.0,6427.0,65.0,3.0,9673.0,712.0,42.0,20232.0,28.0,6.0,329.0,1173.0,104.0,59664.0,87.0,16.0,1529.0,1212.0,73.0,18666.0,478.0,85.0,12033.0,,,
21181,Nicholas County,7,-84.02,38.33,509.82,0.01,0.37,,,,,,,,,,10.0,6.0,334.0,,,,16.0,3.0,382.0,17.0,7.0,522.0,,,,13.0,6.0,437.0,,,,16.0,3.0,455.0,,,,160.0,11.0,6184.0,,,,20.0,4.0,125.0,48.0,13.0,849.0,,,
21183,Ohio County,24,-86.86,37.48,1544.44,0.02,0.14,,,,386.0,5.0,24984.0,,,,101.0,32.0,4076.0,122.0,12.0,5472.0,29.0,7.0,1029.0,121.0,18.0,4642.0,34.0,12.0,943.0,101.0,22.0,2837.0,,,,237.0,19.0,7867.0,23.0,3.0,387.0,1134.0,46.0,36867.0,21.0,3.0,149.0,400.0,26.0,4809.0,184.0,63.0,4220.0,,,
21185,Oldham County,65,-102.62,35.39,508.83,0.13,0.53,73.0,12.0,2813.0,,,,38.0,4.0,2169.0,983.0,184.0,49320.0,369.0,68.0,21597.0,188.0,16.0,11058.0,1741.0,70.0,110762.0,147.0,70.0,7362.0,663.0,176.0,43916.0,4.0,3.0,411.0,697.0,89.0,21016.0,176.0,19.0,5352.0,2665.0,149.0,111844.0,336.0,27.0,6991.0,1420.0,73.0,22974.0,663.0,116.0,19420.0,,,
21187,Owen County,11,-84.82,38.53,917.49,0.01,0.4,,,,,,,117.0,5.0,8677.0,18.0,5.0,411.0,65.0,7.0,1867.0,,,,43.0,7.0,1531.0,30.0,3.0,241.0,9.0,6.0,293.0,,,,3.0,3.0,16.0,,,,132.0,10.0,5132.0,99.0,3.0,3879.0,182.0,15.0,2203.0,68.0,22.0,1455.0,,,
21189,Owsley County,4,-83.68,37.41,513.54,0.01,0.0,,,,,,,,,,,,,,,,,,,,,,9.0,4.0,200.0,,,,,,,,,,,,,219.0,12.0,6086.0,,,,,,,9.0,4.0,277.0,,,
21191,Pendleton County,15,-84.37,38.69,730.15,0.02,0.34,,,,,,,,,,71.0,18.0,2290.0,15.0,4.0,433.0,76.0,3.0,2220.0,55.0,9.0,1492.0,8.0,3.0,59.0,50.0,10.0,1438.0,,,,154.0,6.0,9858.0,,,,222.0,18.0,5400.0,33.0,5.0,447.0,117.0,10.0,1468.0,58.0,27.0,1174.0,,,
21193,Perry County,27,-89.38,38.08,887.24,0.03,0.21,,,,793.0,10.0,54667.0,,,,118.0,25.0,4632.0,214.0,26.0,12219.0,71.0,13.0,3799.0,307.0,35.0,13211.0,88.0,17.0,3987.0,430.0,39.0,11812.0,265.0,7.0,11570.0,621.0,14.0,12269.0,,,,2890.0,121.0,137484.0,,,,965.0,44.0,12703.0,155.0,42.0,3560.0,,,
21195,Pike County,60,-90.85,39.61,2042.6,0.03,0.07,,,,1254.0,49.0,83958.0,188.0,5.0,12877.0,656.0,63.0,31845.0,619.0,37.0,33957.0,189.0,20.0,7271.0,763.0,73.0,36180.0,127.0,38.0,3731.0,542.0,96.0,26765.0,88.0,6.0,4677.0,524.0,37.0,14151.0,598.0,7.0,19543.0,4761.0,179.0,279278.0,101.0,11.0,1683.0,1879.0,99.0,28683.0,418.0,103.0,10393.0,9.0,7.0,190.0
21197,Powell County,12,-83.82,37.82,466.51,0.03,0.28,,,,,,,,,,103.0,14.0,3979.0,75.0,7.0,2261.0,23.0,4.0,785.0,71.0,12.0,1871.0,17.0,5.0,349.0,9.0,7.0,220.0,,,,,,,,,,252.0,19.0,9304.0,10.0,4.0,234.0,239.0,20.0,3406.0,37.0,15.0,677.0,,,
21199,Pulaski County,64,-89.12,37.23,1752.78,0.04,0.41,,,,47.0,4.0,1760.0,222.0,8.0,17983.0,819.0,99.0,35066.0,1033.0,66.0,37001.0,183.0,14.0,7531.0,679.0,109.0,29926.0,214.0,55.0,6100.0,392.0,96.0,15941.0,98.0,9.0,7576.0,1077.0,49.0,28146.0,93.0,13.0,1661.0,5115.0,224.0,228995.0,125.0,16.0,1905.0,2289.0,101.0,33553.0,536.0,116.0,13621.0,11.0,3.0,44.0
21201,Robertson County,2,-96.51,31.03,259.27,0.01,0.0,,,,,,,,,,20.0,3.0,213.0,,,,,,,,,,,,,,,,,,,,,,,,,,,,,,,,,,14.0,5.0,375.0,,,
21203,Rockcastle County,17,-84.33,37.39,824.67,0.02,0.33,,,,,,,13.0,3.0,521.0,74.0,20.0,2592.0,52.0,6.0,1773.0,423.0,4.0,10957.0,89.0,12.0,3282.0,14.0,5.0,527.0,309.0,16.0,9222.0,,,,13.0,5.0,469.0,,,,1130.0,26.0,41426.0,28.0,5.0,465.0,252.0,18.0,3152.0,45.0,16.0,924.0,,,
21205,Rowan County,24,-80.52,35.63,741.4,0.03,0.56,,,,,,,,,,210.0,31.0,9450.0,166.0,14.0,5723.0,91.0,11.0,5536.0,230.0,38.0,9462.0,100.0,22.0,2414.0,73.0,27.0,2255.0,,,,136.0,19.0,5546.0,61.0,3.0,750.0,2201.0,88.0,101431.0,,,,1295.0,53.0,17283.0,220.0,38.0,3844.0,,,
21207,Russell County,18,-98.8,38.9,732.94,0.02,0.17,,,,,,,,,,284.0,27.0,12060.0,677.0,10.0,25244.0,54.0,4.0,3510.0,146.0,23.0,6613.0,11.0,5.0,246.0,50.0,19.0,1203.0,,,,50.0,10.0,1066.0,12.0,4.0,251.0,916.0,41.0,31619.0,16.0,5.0,465.0,430.0,37.0,6691.0,111.0,36.0,2385.0,,,
21209,Scott County,54,-90.48,39.63,739.29,0.07,0.35,18.0,8.0,858.0,,,,,,,668.0,75.0,37533.0,669.0,31.0,48173.0,87.0,12.0,4096.0,337.0,58.0,18739.0,161.0,55.0,4685.0,392.0,86.0,21068.0,44.0,3.0,5168.0,933.0,47.0,25191.0,773.0,10.0,13269.0,1703.0,127.0,78308.0,111.0,18.0,3324.0,2305.0,107.0,37676.0,527.0,101.0,14993.0,,,
21211,Shelby County,47,-94.13,31.77,998.73,0.05,0.73,31.0,18.0,1294.0,,,,156.0,10.0,14824.0,691.0,96.0,35487.0,628.0,48.0,33019.0,69.0,14.0,2865.0,359.0,65.0,19278.0,171.0,46.0,5211.0,337.0,98.0,13447.0,,,,3887.0,51.0,83283.0,70.0,8.0,1530.0,1361.0,99.0,56403.0,81.0,10.0,1979.0,1624.0,77.0,25674.0,813.0,107.0,23102.0,,,
21213,Simpson County,18,-86.58,36.74,612.35,0.03,0.41,,,,,,,,,,392.0,40.0,18099.0,189.0,16.0,8600.0,49.0,9.0,1246.0,144.0,28.0,7063.0,39.0,13.0,963.0,68.0,14.0,2443.0,,,,320.0,16.0,12897.0,,,,444.0,32.0,16789.0,238.0,10.0,7042.0,1010.0,50.0,13930.0,181.0,36.0,4872.0,,,
21215,Spencer County,18,-87.0,38.03,496.37,0.04,0.73,,,,,,,,,,163.0,56.0,7002.0,3.0,4.0,309.0,,,,50.0,11.0,2459.0,11.0,5.0,271.0,38.0,18.0,1420.0,,,,34.0,16.0,1280.0,,,,235.0,21.0,7630.0,21.0,5.0,511.0,226.0,15.0,2872.0,81.0,27.0,1963.0,,,
21217,Taylor County,26,-99.88,32.28,717.33,0.04,0.38,,,,,,,67.0,4.0,4382.0,306.0,55.0,11151.0,171.0,22.0,6570.0,76.0,12.0,3696.0,223.0,43.0,11811.0,113.0,28.0,3518.0,110.0,57.0,4199.0,76.0,3.0,4458.0,1139.0,25.0,18557.0,1135.0,4.0,35992.0,1508.0,84.0,64836.0,66.0,10.0,1138.0,954.0,42.0,12241.0,266.0,77.0,4893.0,1.0,3.0,43.0
21219,Todd County,12,-94.89,46.06,976.84,0.01,0.46,4.0,3.0,18.0,,,,,,,87.0,11.0,2816.0,64.0,12.0,2736.0,,,,77.0,13.0,2883.0,4.0,3.0,98.0,41.0,10.0,1859.0,,,,8.0,3.0,635.0,,,,153.0,16.0,5052.0,,,,85.0,11.0,1056.0,94.0,33.0,1908.0,,,
21221,Trigg County,14,-87.88,36.79,1246.02,0.01,0.5,,,,,,,,,,73.0,22.0,1971.0,34.0,5.0,1366.0,37.0,4.0,1602.0,87.0,14.0,3950.0,21.0,6.0,1491.0,44.0,11.0,1577.0,,,,65.0,9.0,1458.0,,,,405.0,28.0,12656.0,17.0,3.0,674.0,329.0,20.0,5069.0,155.0,39.0,2857.0,2.0,3.0,19.0
21223,Trimble County,9,-85.32,38.6,404.59,0.02,0.47,,,,,,,189.0,3.0,20149.0,99.0,14.0,2709.0,,,,,,,55.0,4.0,2235.0,,,,5.0,5.0,95.0,,,,20.0,8.0,660.0,,,,114.0,4.0,4339.0,,,,32.0,3.0,405.0,38.0,13.0,914.0,,,
21225,Union County,15,-89.25,37.46,940.94,0.02,0.06,,,,636.0,6.0,58333.0,,,,109.0,19.0,5594.0,385.0,18.0,19080.0,18.0,3.0,574.0,95.0,16.0,4513.0,13.0,7.0,409.0,45.0,9.0,2046.0,,,,35.0,9.0,1443.0,18.0,3.0,425.0,862.0,35.0,27087.0,16.0,5.0,387.0,294.0,20.0,3226.0,133.0,28.0,3190.0,,,
21227,Warren County,126,-79.27,41.81,1418.17,0.09,0.39,,,,43.0,10.0,3410.0,158.0,3.0,11759.0,2384.0,239.0,121887.0,2298.0,159.0,112178.0,557.0,39.0,21774.0,1479.0,200.0,94097.0,618.0,143.0,20427.0,3053.0,214.0,188938.0,1966.0,22.0,169397.0,4087.0,154.0,103374.0,413.0,33.0,12921.0,8717.0,362.0,430250.0,665.0,43.0,14851.0,7441.0,290.0,113747.0,1983.0,248.0,47524.0,1.0,3.0,41.0
21229,Washington County,12,-96.39,30.22,780.06,0.02,0.4,,,,,,,,,,241.0,27.0,11978.0,113.0,15.0,4014.0,,,,75.0,14.0,3547.0,5.0,4.0,124.0,42.0,11.0,910.0,,,,63.0,7.0,2804.0,,,,485.0,27.0,14788.0,,,,165.0,15.0,2091.0,137.0,38.0,3436.0,,,
21231,Wayne County,21,-88.42,38.43,1253.81,0.02,0.28,7.0,3.0,211.0,,,,,,,72.0,13.0,3189.0,131.0,13.0,3754.0,124.0,8.0,3400.0,151.0,21.0,7702.0,,,,43.0,18.0,1206.0,,,,468.0,7.0,14279.0,30.0,3.0,472.0,660.0,37.0,21886.0,25.0,4.0,968.0,461.0,24.0,6006.0,71.0,32.0,1576.0,,,
21233,Webster County,13,-84.55,32.05,869.47,0.01,0.0,,,,,,,,,,215.0,18.0,18834.0,114.0,13.0,5634.0,,,,97.0,14.0,3166.0,6.0,3.0,55.0,40.0,9.0,1761.0,,,,33.0,5.0,1330.0,,,,255.0,22.0,7742.0,,,,142.0,15.0,1709.0,90.0,32.0,1885.0,,,
21235,Whitley County,36,-84.15,36.73,1152.71,0.03,0.35,,,,128.0,7.0,6559.0,,,,155.0,20.0,8223.0,267.0,20.0,14333.0,119.0,10.0,3407.0,241.0,50.0,9586.0,76.0,21.0,3567.0,797.0,50.0,21957.0,,,,682.0,24.0,23774.0,1383.0,3.0,34111.0,2777.0,93.0,129256.0,,,,1285.0,68.0,18121.0,289.0,64.0,6142.0,,,
21237,Wolfe County,7,-83.49,37.74,576.95,0.01,0.03,,,,,,,,,,,,,22.0,3.0,1917.0,,,,15.0,5.0,414.0,25.0,4.0,365.0,8.0,4.0,232.0,,,,,,,,,,285.0,12.0,7202.0,,,,54.0,4.0,714.0,38.0,5.0,391.0,,,
21239,Woodford County,26,-89.21,40.81,497.28,0.05,0.56,412.0,22.0,18015.0,,,,,,,281.0,44.0,14350.0,272.0,19.0,13987.0,38.0,9.0,1688.0,200.0,29.0,8782.0,46.0,22.0,2144.0,498.0,75.0,38735.0,,,,118.0,24.0,3742.0,406.0,7.0,9145.0,664.0,67.0,24473.0,117.0,19.0,4018.0,804.0,46.0,13655.0,295.0,56.0,6371.0,,,
