Fips,Name,Population,Longitude,Latitude,Km2,UrbanDensity,UrbanPercent,Emp-11,Est-11,Pay-11,Emp-21,Est-21,Pay-21,Emp-22,Est-22,Pay-22,Emp-23,Est-23,Pay-23,Emp-42,Est-42,Pay-42,Emp-51,Est-51,Pay-51,Emp-52,Est-52,Pay-52,Emp-53,Est-53,Pay-53,Emp-54,Est-54,Pay-54,Emp-55,Est-55,Pay-55,Emp-56,Est-56,Pay-56,Emp-61,Est-61,Pay-61,Emp-62,Est-62,Pay-62,Emp-71,Est-71,Pay-71,Emp-72,Est-72,Pay-72,Emp-81,Est-81,Pay-81,Emp-99,Est-99,Pay-99
27001,Aitkin County,16,-93.38,46.57,5168.02,0.0,0.05,16.0,5.0,640.0,,,,,,,153.0,61.0,9014.0,164.0,12.0,6980.0,11.0,5.0,376.0,93.0,18.0,3680.0,8.0,11.0,510.0,37.0,15.0,1354.0,,,,55.0,20.0,2619.0,,,,962.0,39.0,38317.0,21.0,11.0,822.0,476.0,53.0,8263.0,187.0,43.0,3307.0,,,
27003,Anoka County,347,-93.28,45.27,1155.39,0.3,0.5,30.0,8.0,1536.0,,,,534.0,6.0,47074.0,8966.0,1326.0,642419.0,8470.0,423.0,663326.0,819.0,73.0,62340.0,2214.0,378.0,142879.0,1417.0,410.0,52646.0,4987.0,740.0,341513.0,1798.0,42.0,323272.0,10978.0,486.0,298773.0,1409.0,81.0,42608.0,18159.0,787.0,874982.0,3080.0,123.0,54536.0,10785.0,515.0,188263.0,6470.0,784.0,199581.0,6.0,7.0,397.0
27005,Becker County,34,-95.68,46.93,3742.64,0.01,0.24,31.0,8.0,877.0,,,,,,,559.0,169.0,33892.0,166.0,31.0,8831.0,109.0,12.0,4291.0,277.0,62.0,14177.0,69.0,31.0,2464.0,192.0,53.0,10367.0,40.0,4.0,1871.0,254.0,32.0,13957.0,29.0,4.0,556.0,2251.0,87.0,91810.0,166.0,17.0,2460.0,1082.0,87.0,20333.0,555.0,110.0,13544.0,,,
27007,Beltrami County,46,-94.88,48.0,7913.65,0.01,0.31,84.0,17.0,1304.0,,,,92.0,3.0,8368.0,913.0,153.0,64568.0,397.0,42.0,17744.0,366.0,16.0,17981.0,393.0,63.0,19461.0,113.0,41.0,3074.0,422.0,63.0,23014.0,66.0,7.0,2931.0,382.0,45.0,12072.0,244.0,15.0,6709.0,4216.0,187.0,166438.0,191.0,34.0,4000.0,2171.0,120.0,39198.0,778.0,130.0,22507.0,,,
27009,Benton County,40,-94.05,45.72,1069.79,0.04,0.36,3.0,3.0,111.0,,,,,,,2182.0,181.0,161884.0,1234.0,44.0,63704.0,104.0,10.0,6296.0,212.0,37.0,12013.0,91.0,37.0,2481.0,256.0,51.0,13679.0,339.0,5.0,29628.0,1039.0,43.0,43028.0,36.0,4.0,1633.0,2565.0,96.0,67803.0,76.0,20.0,2650.0,967.0,57.0,15556.0,653.0,105.0,15837.0,,,
27011,Big Stone County,5,-96.36,45.39,1367.68,0.0,0.0,,,,,,,,,,139.0,27.0,14148.0,74.0,10.0,4265.0,,,,73.0,14.0,3423.0,5.0,6.0,239.0,33.0,7.0,1423.0,,,,5.0,5.0,242.0,,,,562.0,19.0,16864.0,11.0,4.0,167.0,115.0,19.0,908.0,79.0,29.0,1434.0,,,
27013,Blue Earth County,66,-94.06,44.01,1982.83,0.03,0.19,50.0,7.0,2239.0,,,,221.0,11.0,21440.0,1611.0,224.0,109797.0,1260.0,94.0,63621.0,873.0,31.0,30018.0,1017.0,131.0,72721.0,694.0,86.0,20625.0,1151.0,134.0,66136.0,363.0,9.0,33014.0,1434.0,81.0,43936.0,872.0,20.0,15324.0,9011.0,275.0,377332.0,926.0,43.0,8919.0,4210.0,158.0,58685.0,1243.0,179.0,33596.0,,,
27015,Brown County,25,-98.99,31.75,1601.26,0.02,0.04,12.0,8.0,618.0,,,,,,,498.0,94.0,35483.0,472.0,33.0,23658.0,178.0,15.0,8516.0,487.0,60.0,24078.0,162.0,20.0,3876.0,466.0,50.0,22298.0,188.0,4.0,11467.0,125.0,23.0,3934.0,701.0,13.0,13922.0,2425.0,90.0,97046.0,147.0,26.0,1900.0,1093.0,60.0,14186.0,413.0,101.0,10659.0,,,
27017,Carlton County,36,-92.72,46.58,2266.88,0.02,0.13,56.0,9.0,4163.0,,,,89.0,5.0,8728.0,301.0,82.0,25681.0,276.0,17.0,14900.0,36.0,9.0,2059.0,330.0,43.0,18560.0,78.0,14.0,1744.0,170.0,38.0,5702.0,,,,140.0,33.0,4535.0,11.0,3.0,131.0,2047.0,92.0,82319.0,59.0,18.0,1183.0,767.0,59.0,10872.0,456.0,92.0,10617.0,,,
27019,Carver County,100,-93.79,44.81,974.21,0.1,0.69,39.0,12.0,1434.0,,,,,,,1967.0,372.0,156290.0,2618.0,159.0,212121.0,525.0,45.0,31745.0,923.0,140.0,66965.0,735.0,123.0,42958.0,2931.0,336.0,202164.0,1486.0,10.0,147608.0,1238.0,154.0,46115.0,1448.0,52.0,33490.0,5184.0,241.0,254731.0,999.0,40.0,22996.0,3373.0,175.0,54445.0,1682.0,234.0,47950.0,,,
27021,Cass County,29,-94.35,33.06,6251.67,0.0,0.06,43.0,11.0,1094.0,,,,10.0,3.0,839.0,404.0,141.0,21399.0,293.0,15.0,15006.0,42.0,14.0,2801.0,174.0,27.0,8908.0,276.0,42.0,7778.0,161.0,37.0,6714.0,,,,171.0,43.0,7610.0,118.0,4.0,3280.0,1305.0,68.0,45447.0,180.0,20.0,7279.0,1575.0,127.0,45746.0,340.0,94.0,6831.0,,,
27023,Chippewa County,12,-95.53,45.03,1522.44,0.01,0.17,17.0,6.0,670.0,,,,36.0,3.0,3659.0,258.0,52.0,17891.0,339.0,14.0,22260.0,37.0,4.0,771.0,201.0,28.0,10063.0,111.0,9.0,2190.0,95.0,21.0,3362.0,19.0,3.0,1199.0,73.0,14.0,2377.0,,,,1184.0,43.0,41685.0,18.0,7.0,239.0,335.0,24.0,4286.0,291.0,61.0,6780.0,,,
27025,Chisago County,55,-92.88,45.48,1145.66,0.05,0.67,2.0,3.0,92.0,9.0,3.0,910.0,,,,1069.0,222.0,80812.0,364.0,47.0,16304.0,29.0,9.0,2271.0,243.0,44.0,12121.0,124.0,51.0,4145.0,1019.0,86.0,94753.0,33.0,5.0,3146.0,432.0,60.0,15939.0,47.0,9.0,1311.0,4215.0,155.0,172923.0,291.0,29.0,5560.0,1191.0,83.0,19921.0,709.0,147.0,18161.0,,,
27027,Clay County,63,-98.21,33.69,2726.57,0.02,0.28,20.0,5.0,821.0,,,,,,,929.0,201.0,58803.0,1119.0,70.0,66729.0,104.0,15.0,4596.0,475.0,91.0,25163.0,174.0,47.0,4834.0,515.0,95.0,27265.0,156.0,7.0,19185.0,632.0,54.0,23360.0,2173.0,8.0,42502.0,4484.0,183.0,151408.0,159.0,27.0,3146.0,1843.0,101.0,27236.0,917.0,169.0,22767.0,,,
27029,Clearwater County,9,-95.37,47.56,2667.89,0.0,0.11,33.0,4.0,941.0,,,,,,,278.0,35.0,27500.0,46.0,5.0,1185.0,,,,77.0,10.0,3046.0,,,,58.0,15.0,1262.0,,,,26.0,8.0,1172.0,,,,549.0,21.0,20320.0,63.0,4.0,1969.0,237.0,22.0,1787.0,77.0,29.0,1513.0,,,
27031,Cook County,5,-87.76,41.82,4164.73,0.0,0.0,,,,,,,,,,126.0,56.0,5880.0,16.0,4.0,642.0,31.0,6.0,964.0,33.0,6.0,1900.0,58.0,15.0,1469.0,57.0,11.0,2594.0,,,,24.0,12.0,1328.0,56.0,5.0,1556.0,238.0,13.0,9987.0,142.0,8.0,3182.0,803.0,66.0,24226.0,43.0,23.0,970.0,,,
27033,Cottonwood County,11,-95.17,44.02,1679.56,0.01,0.0,,,,,,,16.0,3.0,1427.0,234.0,42.0,12015.0,255.0,24.0,12956.0,49.0,9.0,1689.0,99.0,24.0,4679.0,20.0,7.0,1003.0,73.0,17.0,3045.0,,,,58.0,13.0,2569.0,,,,772.0,46.0,22851.0,23.0,9.0,609.0,272.0,20.0,3620.0,206.0,51.0,5108.0,,,
27035,Crow Wing County,64,-94.1,46.47,2995.72,0.02,0.21,38.0,10.0,779.0,,,,120.0,5.0,9528.0,1929.0,295.0,125836.0,715.0,83.0,29108.0,580.0,58.0,28660.0,1255.0,132.0,84253.0,261.0,98.0,9489.0,1068.0,163.0,65119.0,181.0,9.0,8740.0,864.0,106.0,26786.0,892.0,18.0,11848.0,6065.0,247.0,282071.0,329.0,43.0,6046.0,3198.0,197.0,68319.0,1252.0,207.0,27749.0,,,
27037,Dakota County,418,-93.04,44.67,1519.74,0.28,0.65,50.0,16.0,1380.0,104.0,8.0,9522.0,477.0,13.0,53408.0,9476.0,1067.0,747457.0,11462.0,688.0,822815.0,7138.0,193.0,713170.0,13445.0,669.0,1130994.0,2446.0,615.0,115473.0,9722.0,1398.0,681525.0,7222.0,162.0,737918.0,8190.0,642.0,360660.0,3055.0,156.0,107889.0,26394.0,1156.0,943080.0,4262.0,183.0,298191.0,18233.0,740.0,320113.0,9858.0,987.0,320817.0,5.0,10.0,158.0
27039,Dodge County,21,-83.15,32.15,1138.53,0.02,0.04,25.0,5.0,1323.0,,,,,,,381.0,76.0,27226.0,552.0,19.0,34358.0,71.0,7.0,2655.0,112.0,22.0,5027.0,13.0,7.0,349.0,88.0,27.0,3217.0,,,,47.0,16.0,2152.0,,,,350.0,40.0,10618.0,45.0,10.0,793.0,407.0,28.0,5670.0,348.0,62.0,9954.0,1.0,4.0,69.0
27041,Douglas County,37,-88.22,39.76,1864.95,0.02,0.31,,,,,,,73.0,5.0,5412.0,1095.0,178.0,69394.0,861.0,53.0,45231.0,233.0,18.0,12347.0,463.0,83.0,26516.0,181.0,43.0,9614.0,437.0,91.0,24062.0,,,,481.0,70.0,13269.0,48.0,7.0,1034.0,3933.0,141.0,150699.0,146.0,37.0,3872.0,1835.0,112.0,31924.0,760.0,156.0,18366.0,,,
27043,Faribault County,14,-93.95,43.66,1870.05,0.01,0.0,19.0,7.0,815.0,,,,,,,213.0,47.0,10017.0,159.0,29.0,6537.0,116.0,8.0,5953.0,219.0,32.0,13008.0,12.0,6.0,178.0,77.0,18.0,2815.0,,,,20.0,9.0,1117.0,21.0,3.0,553.0,681.0,35.0,25719.0,10.0,5.0,138.0,286.0,33.0,3544.0,283.0,60.0,4144.0,,,
27045,Fillmore County,21,-92.06,43.65,2233.09,0.01,0.03,11.0,7.0,467.0,,,,107.0,3.0,8568.0,302.0,72.0,17709.0,333.0,26.0,15398.0,64.0,10.0,2333.0,226.0,38.0,12118.0,10.0,6.0,360.0,130.0,36.0,5372.0,,,,57.0,13.0,1542.0,46.0,5.0,1214.0,866.0,42.0,25363.0,77.0,12.0,1597.0,413.0,68.0,5973.0,246.0,92.0,4906.0,,,
27047,Freeborn County,31,-93.35,43.68,1871.41,0.02,0.13,10.0,4.0,222.0,,,,,,,364.0,86.0,28700.0,602.0,46.0,37507.0,113.0,12.0,2610.0,446.0,54.0,23561.0,50.0,18.0,1108.0,207.0,39.0,10774.0,,,,526.0,30.0,14574.0,46.0,7.0,1007.0,2087.0,73.0,102907.0,94.0,11.0,1828.0,949.0,67.0,13823.0,602.0,103.0,10804.0,,,
27049,Goodhue County,46,-92.72,44.4,2021.24,0.02,0.22,19.0,6.0,966.0,13.0,3.0,619.0,779.0,8.0,101260.0,962.0,152.0,71058.0,440.0,38.0,25982.0,210.0,14.0,14272.0,987.0,73.0,56900.0,127.0,42.0,5400.0,435.0,79.0,29217.0,,,,775.0,47.0,25983.0,96.0,13.0,2256.0,3316.0,154.0,140952.0,545.0,27.0,4467.0,3177.0,111.0,87708.0,816.0,166.0,20118.0,4.0,3.0,8.0
27051,Grant County,6,-96.03,45.94,1490.14,0.0,0.36,22.0,4.0,700.0,,,,,,,169.0,30.0,8139.0,106.0,9.0,5904.0,37.0,5.0,2145.0,77.0,20.0,4444.0,,,,28.0,8.0,895.0,,,,9.0,6.0,250.0,,,,383.0,18.0,12236.0,5.0,4.0,238.0,44.0,9.0,605.0,129.0,30.0,1678.0,,,
27053,Hennepin County,1235,-93.49,45.03,1571.12,0.79,0.47,81.0,29.0,2238.0,106.0,5.0,9348.0,4675.0,52.0,577233.0,35426.0,2811.0,2786097.0,45706.0,2516.0,3879409.0,27741.0,994.0,2716847.0,88819.0,2985.0,11012962.0,18580.0,2585.0,1163242.0,85366.0,6902.0,7401852.0,79622.0,524.0,7036423.0,53829.0,2307.0,2441294.0,25552.0,732.0,947557.0,147160.0,4532.0,7306367.0,16481.0,762.0,738796.0,76926.0,3038.0,1695095.0,36215.0,3618.0,1327037.0,51.0,45.0,1777.0
27055,Houston County,19,-95.39,31.34,1473.33,0.01,0.16,,,,,,,,,,333.0,59.0,21954.0,176.0,14.0,7069.0,148.0,9.0,8098.0,105.0,25.0,5081.0,13.0,6.0,531.0,90.0,20.0,4173.0,,,,30.0,20.0,1825.0,128.0,6.0,2180.0,1120.0,48.0,25687.0,36.0,12.0,687.0,298.0,30.0,2422.0,266.0,65.0,5817.0,,,
27057,Hubbard County,21,-94.94,47.11,2588.75,0.01,0.22,61.0,10.0,2480.0,,,,38.0,4.0,3003.0,344.0,105.0,20502.0,22.0,5.0,1037.0,58.0,11.0,1606.0,156.0,25.0,7698.0,41.0,19.0,1519.0,104.0,30.0,3371.0,,,,67.0,22.0,2749.0,,,,907.0,50.0,44223.0,37.0,11.0,590.0,545.0,83.0,11340.0,260.0,61.0,5188.0,,,
27059,Isanti County,39,-93.33,45.57,1169.74,0.03,0.3,,,,,,,126.0,3.0,10291.0,515.0,176.0,27507.0,167.0,28.0,6665.0,192.0,13.0,10672.0,233.0,41.0,11395.0,111.0,33.0,3100.0,196.0,64.0,9665.0,,,,483.0,37.0,8803.0,98.0,6.0,2860.0,2225.0,83.0,93840.0,71.0,16.0,890.0,945.0,56.0,13566.0,471.0,104.0,10381.0,,,
27061,Itasca County,45,-93.62,47.5,7583.17,0.01,0.1,213.0,28.0,9108.0,497.0,4.0,40130.0,393.0,8.0,39394.0,887.0,149.0,75229.0,267.0,36.0,13279.0,116.0,13.0,4628.0,396.0,65.0,21439.0,79.0,26.0,2348.0,430.0,79.0,14097.0,23.0,3.0,2441.0,534.0,45.0,12866.0,168.0,11.0,3418.0,3473.0,166.0,132744.0,427.0,30.0,9629.0,1320.0,108.0,21508.0,638.0,122.0,18758.0,,,
27063,Jackson County,10,-96.56,28.92,1863.65,0.01,0.0,69.0,3.0,4028.0,,,,48.0,3.0,3541.0,103.0,37.0,6085.0,327.0,17.0,13125.0,42.0,6.0,1231.0,85.0,19.0,4084.0,5.0,4.0,146.0,68.0,16.0,4971.0,,,,197.0,13.0,4164.0,,,,459.0,26.0,13151.0,5.0,6.0,172.0,216.0,21.0,2365.0,194.0,46.0,3885.0,,,
27065,Kanabec County,16,-93.29,45.9,1381.96,0.01,0.15,,,,,,,,,,194.0,47.0,19962.0,35.0,10.0,1126.0,28.0,4.0,1108.0,98.0,16.0,4143.0,52.0,4.0,1721.0,59.0,17.0,2079.0,,,,36.0,13.0,2073.0,,,,994.0,35.0,46789.0,55.0,7.0,891.0,244.0,25.0,3835.0,152.0,40.0,3120.0,,,
27067,Kandiyohi County,43,-95.0,45.14,2233.3,0.02,0.05,87.0,12.0,3963.0,,,,59.0,4.0,5088.0,1058.0,190.0,74112.0,1065.0,71.0,71790.0,285.0,22.0,12547.0,527.0,81.0,32545.0,105.0,45.0,3527.0,511.0,79.0,31535.0,344.0,12.0,21271.0,682.0,71.0,28175.0,102.0,5.0,2652.0,5515.0,206.0,210656.0,150.0,22.0,2642.0,1699.0,91.0,24554.0,982.0,163.0,22233.0,,,
27069,Kittson County,4,-96.81,48.77,2858.38,0.0,0.0,,,,,,,,,,21.0,12.0,1474.0,116.0,13.0,5717.0,,,,60.0,16.0,2766.0,,,,21.0,3.0,1180.0,,,,,,,,,,330.0,10.0,10213.0,3.0,4.0,147.0,84.0,10.0,576.0,80.0,21.0,1103.0,,,
27071,Koochiching County,13,-93.77,48.22,8169.97,0.0,0.0,170.0,22.0,5903.0,,,,19.0,4.0,1943.0,159.0,31.0,13245.0,78.0,10.0,2519.0,64.0,7.0,1800.0,215.0,18.0,10566.0,26.0,10.0,1266.0,60.0,20.0,2080.0,,,,100.0,11.0,2037.0,,,,740.0,53.0,25589.0,34.0,12.0,641.0,471.0,46.0,8754.0,135.0,36.0,1933.0,,,
27073,Lac qui Parle County,7,-96.2,44.99,2015.01,0.0,0.01,,,,,,,,,,59.0,30.0,2702.0,229.0,13.0,8312.0,25.0,5.0,433.0,95.0,19.0,4579.0,8.0,3.0,138.0,19.0,9.0,273.0,,,,26.0,5.0,1147.0,,,,574.0,17.0,19180.0,0.0,3.0,88.0,91.0,15.0,1054.0,121.0,26.0,1687.0,,,
27075,Lake County,11,-122.78,39.05,5926.92,0.0,0.0,20.0,8.0,628.0,,,,50.0,3.0,4989.0,49.0,21.0,2457.0,49.0,5.0,1773.0,47.0,5.0,1503.0,108.0,15.0,4646.0,16.0,6.0,486.0,44.0,11.0,2078.0,,,,141.0,15.0,3458.0,45.0,4.0,1280.0,522.0,33.0,16660.0,84.0,13.0,3136.0,710.0,59.0,15440.0,149.0,32.0,4317.0,,,
27077,Lake of the Woods County,4,-94.85,48.7,4608.91,0.0,0.14,8.0,3.0,316.0,,,,,,,28.0,14.0,1083.0,33.0,5.0,1443.0,14.0,3.0,370.0,25.0,4.0,947.0,6.0,4.0,149.0,19.0,8.0,415.0,,,,35.0,4.0,790.0,,,,172.0,9.0,6445.0,44.0,9.0,767.0,497.0,40.0,9574.0,74.0,22.0,1247.0,,,
27079,Le Sueur County,28,-93.71,44.38,1227.08,0.02,0.23,38.0,5.0,2580.0,154.0,3.0,12200.0,45.0,3.0,4300.0,439.0,133.0,28770.0,246.0,29.0,16011.0,41.0,4.0,1780.0,224.0,37.0,11281.0,67.0,19.0,1817.0,168.0,45.0,8776.0,77.0,4.0,18621.0,92.0,22.0,2942.0,79.0,6.0,1209.0,863.0,65.0,25814.0,85.0,18.0,1265.0,401.0,49.0,5937.0,368.0,87.0,8092.0,,,
27081,Lincoln County,6,-81.21,35.49,1420.54,0.0,0.12,32.0,3.0,2004.0,,,,33.0,4.0,2577.0,88.0,31.0,3638.0,75.0,5.0,5175.0,,,,46.0,12.0,1892.0,7.0,3.0,145.0,28.0,6.0,1064.0,,,,25.0,8.0,565.0,,,,396.0,17.0,10800.0,3.0,3.0,316.0,91.0,15.0,890.0,71.0,30.0,1297.0,,,
27083,Lyon County,26,-95.83,44.39,1868.64,0.01,0.01,13.0,7.0,575.0,,,,12.0,3.0,1013.0,385.0,90.0,28222.0,601.0,41.0,33158.0,254.0,17.0,17638.0,1150.0,55.0,65981.0,111.0,27.0,3877.0,370.0,53.0,24871.0,831.0,13.0,59643.0,203.0,27.0,4355.0,129.0,8.0,2727.0,2478.0,119.0,90649.0,142.0,14.0,1579.0,1159.0,66.0,15599.0,382.0,84.0,7641.0,,,
27085,McLeod County,36,-94.25,44.82,1309.09,0.03,0.05,6.0,3.0,323.0,,,,,,,545.0,108.0,34953.0,546.0,29.0,32893.0,157.0,14.0,6411.0,391.0,75.0,19812.0,94.0,30.0,2848.0,384.0,64.0,17790.0,38.0,4.0,1910.0,411.0,41.0,12331.0,203.0,6.0,4708.0,2765.0,122.0,115549.0,156.0,16.0,3152.0,1131.0,67.0,16800.0,667.0,116.0,15122.0,,,
27087,Mahnomen County,6,-95.81,47.33,1509.46,0.0,0.0,,,,,,,,,,34.0,12.0,2332.0,39.0,8.0,2307.0,,,,56.0,7.0,2875.0,,,,16.0,4.0,319.0,,,,,,,,,,358.0,9.0,9925.0,,,,870.0,11.0,26376.0,68.0,10.0,1641.0,,,
27089,Marshall County,9,-89.3,41.03,4695.85,0.0,0.0,8.0,5.0,384.0,,,,,,,87.0,46.0,10666.0,238.0,21.0,14236.0,27.0,5.0,1101.0,121.0,24.0,6152.0,,,,32.0,9.0,1525.0,,,,7.0,6.0,482.0,,,,247.0,16.0,7195.0,1.0,4.0,101.0,96.0,17.0,1033.0,137.0,40.0,1851.0,,,
27091,Martin County,20,-101.92,32.27,1890.07,0.01,0.0,33.0,8.0,1794.0,,,,35.0,5.0,3374.0,303.0,51.0,15192.0,650.0,37.0,64308.0,55.0,6.0,1484.0,343.0,53.0,21789.0,49.0,13.0,3985.0,200.0,37.0,10056.0,58.0,7.0,2627.0,245.0,19.0,6741.0,89.0,7.0,1926.0,1551.0,92.0,60820.0,62.0,16.0,1248.0,825.0,46.0,11173.0,263.0,71.0,5419.0,,,
27093,Meeker County,23,-94.52,45.12,1669.83,0.01,0.08,,,,,,,,,,404.0,86.0,25997.0,172.0,21.0,9224.0,30.0,6.0,950.0,187.0,30.0,10761.0,30.0,15.0,1371.0,86.0,28.0,4198.0,75.0,3.0,7380.0,165.0,26.0,5870.0,,,,1464.0,60.0,49301.0,28.0,11.0,855.0,442.0,40.0,5542.0,301.0,72.0,5775.0,,,
27095,Mille Lacs County,26,-93.64,45.93,1765.52,0.01,0.41,4.0,4.0,293.0,,,,25.0,6.0,2415.0,394.0,129.0,23464.0,292.0,25.0,11415.0,39.0,9.0,1491.0,228.0,27.0,12722.0,70.0,25.0,1258.0,219.0,32.0,18423.0,112.0,3.0,8234.0,178.0,30.0,4007.0,16.0,3.0,400.0,2759.0,74.0,98564.0,211.0,17.0,3627.0,1900.0,72.0,38888.0,377.0,83.0,6623.0,,,
27097,Morrison County,33,-94.26,45.99,2987.6,0.01,0.04,33.0,8.0,1198.0,11.0,3.0,1459.0,56.0,3.0,5779.0,423.0,123.0,24659.0,229.0,24.0,11152.0,199.0,13.0,13122.0,248.0,48.0,12675.0,52.0,13.0,1567.0,168.0,33.0,7439.0,,,,207.0,57.0,9401.0,177.0,6.0,9101.0,1607.0,91.0,59089.0,77.0,21.0,1681.0,1028.0,98.0,16924.0,632.0,124.0,13838.0,,,
27099,Mower County,40,-92.75,43.68,1843.64,0.02,0.32,9.0,5.0,257.0,,,,42.0,6.0,3946.0,380.0,89.0,20698.0,311.0,36.0,29174.0,140.0,15.0,4061.0,274.0,51.0,14110.0,223.0,21.0,4884.0,230.0,49.0,10617.0,1112.0,8.0,223506.0,582.0,38.0,20352.0,112.0,9.0,2130.0,2426.0,100.0,96511.0,196.0,15.0,3267.0,1019.0,68.0,14880.0,734.0,119.0,14639.0,,,
27101,Murray County,8,-84.74,34.79,1863.99,0.0,0.05,10.0,4.0,203.0,17.0,3.0,1194.0,37.0,7.0,2662.0,152.0,58.0,8911.0,194.0,13.0,9610.0,43.0,5.0,1989.0,166.0,21.0,8134.0,17.0,5.0,632.0,71.0,12.0,3033.0,10.0,3.0,382.0,16.0,5.0,644.0,,,,441.0,18.0,16080.0,10.0,6.0,260.0,153.0,23.0,2036.0,155.0,46.0,2866.0,,,
27103,Nicollet County,34,-94.24,44.34,1209.57,0.03,0.34,24.0,4.0,774.0,,,,,,,368.0,75.0,19462.0,481.0,35.0,26396.0,440.0,11.0,25573.0,222.0,38.0,12540.0,131.0,26.0,5165.0,914.0,43.0,63249.0,500.0,6.0,40484.0,545.0,34.0,14962.0,728.0,7.0,33353.0,2694.0,88.0,132777.0,56.0,10.0,2071.0,808.0,48.0,11336.0,712.0,89.0,21353.0,,,
27105,Nobles County,22,-95.75,43.66,1871.48,0.01,0.02,67.0,7.0,2452.0,,,,,,,212.0,69.0,11985.0,360.0,42.0,18757.0,100.0,12.0,3483.0,263.0,40.0,13172.0,35.0,11.0,462.0,201.0,26.0,8069.0,,,,311.0,16.0,8783.0,23.0,6.0,340.0,1504.0,68.0,52062.0,37.0,8.0,727.0,578.0,39.0,8341.0,423.0,82.0,8905.0,,,
27107,Norman County,7,-96.46,47.32,2270.77,0.0,0.0,75.0,4.0,9859.0,,,,,,,74.0,25.0,2584.0,122.0,19.0,7016.0,81.0,9.0,3491.0,96.0,18.0,4455.0,3.0,3.0,378.0,24.0,11.0,1118.0,,,,,,,,,,470.0,17.0,14346.0,3.0,3.0,99.0,54.0,10.0,524.0,63.0,21.0,1414.0,,,
27109,Olmsted County,153,-92.38,44.0,1696.04,0.09,0.26,19.0,7.0,418.0,13.0,4.0,639.0,151.0,3.0,12379.0,3340.0,397.0,215281.0,1275.0,118.0,74398.0,1743.0,57.0,84983.0,1647.0,225.0,118751.0,771.0,181.0,31237.0,34961.0,274.0,3618627.0,409.0,16.0,21227.0,2713.0,175.0,88958.0,949.0,60.0,24551.0,20662.0,491.0,953032.0,1215.0,71.0,19677.0,8220.0,350.0,163468.0,2827.0,397.0,77808.0,5.0,4.0,118.0
27111,Otter Tail County,58,-95.71,46.42,5761.98,0.01,0.08,10.0,7.0,454.0,14.0,3.0,709.0,520.0,7.0,48200.0,981.0,254.0,59965.0,555.0,55.0,28111.0,406.0,30.0,21977.0,537.0,114.0,30373.0,81.0,45.0,3264.0,395.0,100.0,18865.0,348.0,12.0,13188.0,661.0,67.0,25785.0,176.0,10.0,4663.0,4085.0,176.0,134548.0,275.0,39.0,4767.0,1590.0,159.0,29514.0,972.0,218.0,20138.0,16.0,6.0,143.0
27113,Pennington County,14,-96.08,48.05,1600.83,0.01,0.0,30.0,4.0,1270.0,,,,,,,146.0,38.0,7781.0,3510.0,23.0,216014.0,69.0,5.0,2686.0,153.0,23.0,9099.0,29.0,14.0,1154.0,349.0,18.0,20607.0,46.0,3.0,4192.0,78.0,11.0,1424.0,,,,1207.0,42.0,58954.0,55.0,11.0,589.0,843.0,27.0,14624.0,329.0,50.0,5729.0,,,
27115,Pine County,29,-92.75,46.08,3714.96,0.01,0.29,91.0,8.0,3237.0,,,,33.0,3.0,2656.0,362.0,105.0,22247.0,119.0,21.0,3094.0,90.0,7.0,3022.0,172.0,24.0,7658.0,78.0,19.0,1204.0,159.0,32.0,9221.0,,,,88.0,31.0,2640.0,105.0,7.0,3472.0,1460.0,76.0,39656.0,37.0,12.0,673.0,2375.0,68.0,48134.0,356.0,66.0,7099.0,,,
27117,Pipestone County,9,-96.26,44.03,1206.77,0.01,0.0,13.0,7.0,444.0,,,,33.0,6.0,3172.0,217.0,55.0,13394.0,227.0,19.0,9936.0,61.0,6.0,2314.0,97.0,19.0,5385.0,,,,91.0,10.0,4381.0,,,,46.0,13.0,1077.0,43.0,3.0,1777.0,703.0,23.0,22922.0,9.0,4.0,246.0,268.0,20.0,3892.0,125.0,43.0,2541.0,,,
27119,Polk County,32,-94.82,30.76,5173.97,0.01,0.0,21.0,8.0,1250.0,,,,,,,443.0,93.0,28251.0,445.0,43.0,25274.0,200.0,14.0,9050.0,241.0,49.0,12977.0,46.0,11.0,1492.0,185.0,43.0,9741.0,,,,104.0,31.0,3534.0,128.0,5.0,2782.0,2410.0,100.0,93185.0,80.0,18.0,1360.0,1039.0,68.0,14906.0,471.0,85.0,9328.0,,,
27121,Pope County,11,-88.59,37.39,1857.62,0.01,0.0,7.0,3.0,522.0,,,,,,,134.0,48.0,8365.0,664.0,62.0,33542.0,18.0,4.0,494.0,120.0,17.0,6470.0,9.0,7.0,186.0,231.0,21.0,11996.0,186.0,4.0,8206.0,47.0,12.0,2673.0,,,,668.0,25.0,27440.0,10.0,6.0,521.0,245.0,30.0,4104.0,190.0,48.0,3159.0,,,
27123,Ramsey County,541,-93.09,45.02,440.5,1.23,0.49,20.0,7.0,1770.0,23.0,3.0,4054.0,711.0,21.0,72399.0,11150.0,898.0,890093.0,15048.0,661.0,1208959.0,9705.0,268.0,783423.0,18627.0,717.0,1578209.0,4414.0,750.0,227518.0,14144.0,1685.0,1177334.0,26586.0,152.0,3988348.0,16916.0,621.0,627503.0,20155.0,255.0,551089.0,62568.0,2101.0,3020231.0,6946.0,276.0,241897.0,24677.0,1180.0,475052.0,15581.0,1517.0,585603.0,6.0,16.0,694.0
27125,Red Lake County,4,-96.1,47.86,1120.3,0.0,0.0,,,,,,,,,,57.0,14.0,2022.0,26.0,5.0,1238.0,,,,56.0,7.0,2539.0,,,,20.0,5.0,543.0,,,,,,,,,,106.0,5.0,2356.0,,,,44.0,11.0,512.0,38.0,11.0,331.0,,,
27127,Redwood County,15,-95.25,44.38,2283.49,0.01,0.0,8.0,3.0,244.0,,,,,,,283.0,81.0,13668.0,447.0,34.0,28744.0,55.0,8.0,1780.0,390.0,38.0,25232.0,30.0,15.0,522.0,71.0,23.0,2917.0,,,,88.0,16.0,2595.0,41.0,7.0,521.0,931.0,55.0,31301.0,30.0,10.0,496.0,1125.0,34.0,24523.0,354.0,80.0,8106.0,,,
27129,Renville County,15,-94.91,44.72,2556.62,0.01,0.0,33.0,7.0,1698.0,,,,26.0,3.0,2190.0,184.0,52.0,12124.0,218.0,28.0,10687.0,40.0,10.0,1334.0,175.0,42.0,9768.0,4.0,5.0,37.0,153.0,21.0,8127.0,,,,25.0,13.0,1318.0,,,,845.0,39.0,27859.0,23.0,10.0,582.0,235.0,24.0,1982.0,216.0,70.0,3872.0,,,
27131,Rice County,66,-93.29,44.34,1336.5,0.05,0.19,7.0,3.0,138.0,,,,39.0,4.0,3726.0,1167.0,233.0,74659.0,1189.0,58.0,79244.0,207.0,18.0,11004.0,438.0,70.0,29574.0,246.0,63.0,8115.0,498.0,123.0,27681.0,444.0,4.0,24331.0,507.0,72.0,16538.0,5450.0,25.0,132670.0,3287.0,176.0,119944.0,339.0,29.0,5596.0,2087.0,127.0,35238.0,956.0,181.0,22791.0,,,
27133,Rock County,9,-96.26,43.67,1250.1,0.01,0.0,,,,,,,,,,99.0,29.0,4726.0,199.0,18.0,10869.0,23.0,5.0,708.0,269.0,24.0,14483.0,26.0,10.0,729.0,88.0,19.0,4868.0,,,,42.0,13.0,1036.0,,,,963.0,26.0,26222.0,14.0,6.0,254.0,229.0,20.0,3084.0,148.0,37.0,2882.0,,,
27135,Roseau County,15,-95.77,48.77,4346.53,0.0,0.1,12.0,7.0,362.0,,,,31.0,3.0,2216.0,53.0,49.0,2241.0,92.0,17.0,4112.0,50.0,8.0,728.0,193.0,22.0,11493.0,29.0,16.0,946.0,87.0,24.0,2510.0,,,,84.0,16.0,3041.0,,,,757.0,33.0,29581.0,28.0,10.0,525.0,522.0,32.0,9197.0,169.0,49.0,3892.0,,,
27137,St. Louis County,200,-90.52,38.64,17461.67,0.01,0.04,126.0,33.0,4656.0,3173.0,15.0,341131.0,947.0,15.0,84632.0,3711.0,527.0,292114.0,2401.0,209.0,136766.0,1531.0,88.0,89532.0,4271.0,312.0,230707.0,976.0,216.0,30861.0,3199.0,382.0,195187.0,2316.0,40.0,127810.0,2986.0,181.0,92484.0,2493.0,54.0,64019.0,24684.0,803.0,1202585.0,1799.0,139.0,28363.0,10441.0,559.0,185289.0,3922.0,588.0,101083.0,,,
27139,Scott County,143,-90.48,39.63,954.0,0.15,0.67,12.0,5.0,1050.0,77.0,8.0,5823.0,129.0,5.0,11765.0,4862.0,595.0,386132.0,3239.0,201.0,237497.0,451.0,41.0,22316.0,696.0,164.0,42960.0,549.0,191.0,22815.0,1900.0,425.0,180787.0,942.0,21.0,71159.0,2081.0,250.0,86312.0,434.0,41.0,8088.0,5397.0,274.0,237031.0,2806.0,79.0,101467.0,7101.0,220.0,174201.0,2461.0,291.0,67542.0,3.0,6.0,122.0
27141,Sherburne County,93,-93.75,45.44,1168.08,0.08,0.86,11.0,4.0,836.0,111.0,4.0,6492.0,208.0,5.0,22644.0,2443.0,494.0,252829.0,653.0,82.0,39391.0,108.0,17.0,5107.0,455.0,91.0,27121.0,185.0,94.0,7513.0,761.0,166.0,34283.0,116.0,6.0,12494.0,1191.0,136.0,42800.0,81.0,16.0,818.0,3525.0,182.0,111235.0,380.0,44.0,6525.0,2491.0,116.0,37638.0,1118.0,204.0,30689.0,,,
27143,Sibley County,15,-94.21,44.56,1555.58,0.01,0.15,7.0,4.0,194.0,,,,70.0,4.0,3244.0,154.0,66.0,7800.0,191.0,20.0,11010.0,27.0,4.0,757.0,92.0,20.0,3598.0,37.0,10.0,961.0,62.0,22.0,2478.0,,,,33.0,13.0,1526.0,23.0,5.0,1970.0,538.0,23.0,22517.0,12.0,6.0,421.0,145.0,20.0,1932.0,157.0,43.0,2274.0,,,
27145,Stearns County,157,-94.61,45.54,3600.24,0.04,0.49,81.0,16.0,3606.0,96.0,6.0,8343.0,152.0,8.0,14285.0,5599.0,540.0,458903.0,3907.0,205.0,205173.0,1751.0,76.0,112264.0,4058.0,310.0,264289.0,954.0,186.0,32499.0,2429.0,286.0,149576.0,1653.0,22.0,116296.0,3995.0,182.0,130277.0,2784.0,58.0,84062.0,17539.0,467.0,1053993.0,1176.0,80.0,16328.0,6770.0,374.0,101636.0,3164.0,496.0,92617.0,14.0,5.0,75.0
27147,Steele County,37,-93.22,44.01,1119.67,0.03,0.28,43.0,6.0,2710.0,,,,,,,677.0,99.0,36101.0,536.0,43.0,28997.0,1009.0,22.0,43984.0,2228.0,71.0,257968.0,306.0,28.0,5706.0,208.0,52.0,7879.0,259.0,7.0,15592.0,800.0,37.0,13319.0,96.0,9.0,1956.0,2628.0,130.0,108305.0,145.0,19.0,2835.0,1385.0,82.0,20739.0,788.0,128.0,19647.0,,,
27149,Stevens County,10,-95.99,45.58,1490.03,0.01,0.0,12.0,4.0,402.0,,,,,,,151.0,35.0,15495.0,137.0,19.0,6640.0,97.0,10.0,5026.0,112.0,19.0,6498.0,17.0,7.0,312.0,105.0,11.0,4985.0,,,,41.0,15.0,1357.0,,,,1443.0,40.0,44890.0,21.0,7.0,231.0,414.0,22.0,4136.0,153.0,39.0,2201.0,,,
27151,Swift County,9,-95.69,45.28,1948.04,0.0,0.0,25.0,5.0,2705.0,,,,,,,129.0,40.0,5949.0,246.0,20.0,13674.0,47.0,7.0,1604.0,89.0,23.0,4488.0,61.0,5.0,1614.0,82.0,14.0,3469.0,,,,66.0,11.0,2335.0,,,,618.0,23.0,20171.0,36.0,7.0,996.0,260.0,23.0,3031.0,173.0,39.0,3856.0,,,
27153,Todd County,24,-94.89,46.06,2536.41,0.01,0.01,14.0,5.0,1046.0,,,,,,,193.0,70.0,7942.0,129.0,17.0,5059.0,30.0,4.0,716.0,215.0,29.0,9748.0,29.0,17.0,541.0,76.0,26.0,2900.0,,,,64.0,10.0,1791.0,32.0,3.0,621.0,1583.0,57.0,77388.0,60.0,12.0,749.0,358.0,41.0,4671.0,298.0,81.0,5605.0,,,
27155,Traverse County,3,-96.42,45.78,1517.51,0.0,0.0,22.0,3.0,881.0,,,,,,,29.0,8.0,1281.0,76.0,11.0,4629.0,8.0,3.0,265.0,39.0,11.0,1755.0,,,,9.0,4.0,137.0,,,,11.0,7.0,199.0,,,,246.0,12.0,11445.0,,,,18.0,5.0,184.0,50.0,16.0,715.0,,,
27157,Wabasha County,22,-92.2,44.28,1423.26,0.02,0.24,23.0,8.0,595.0,,,,,,,234.0,78.0,10250.0,259.0,26.0,11508.0,38.0,8.0,1532.0,169.0,25.0,10707.0,21.0,10.0,462.0,112.0,34.0,4955.0,,,,52.0,14.0,1684.0,,,,1015.0,57.0,33687.0,132.0,17.0,2050.0,555.0,62.0,7318.0,317.0,70.0,5818.0,,,
27159,Wadena County,14,-94.96,46.59,1407.05,0.01,0.0,21.0,6.0,723.0,,,,,,,317.0,63.0,18393.0,532.0,21.0,22151.0,74.0,9.0,3076.0,136.0,23.0,7006.0,13.0,7.0,537.0,79.0,19.0,4389.0,,,,103.0,10.0,1436.0,,,,942.0,42.0,39607.0,13.0,7.0,452.0,334.0,31.0,4840.0,178.0,47.0,3684.0,5.0,3.0,69.0
27161,Waseca County,19,-93.59,44.02,1121.3,0.02,0.03,54.0,6.0,1980.0,,,,,,,237.0,59.0,16070.0,155.0,20.0,8454.0,94.0,3.0,4399.0,177.0,33.0,10206.0,23.0,9.0,695.0,163.0,34.0,7607.0,,,,86.0,16.0,4282.0,42.0,4.0,1038.0,958.0,55.0,27281.0,42.0,13.0,735.0,316.0,40.0,4252.0,263.0,54.0,5008.0,2.0,3.0,92.0
27163,Washington County,253,-96.39,30.22,1095.58,0.23,0.56,36.0,10.0,894.0,67.0,7.0,5320.0,218.0,7.0,23009.0,3952.0,650.0,264600.0,3610.0,233.0,256638.0,1485.0,81.0,94086.0,3538.0,415.0,275510.0,1575.0,360.0,77033.0,4007.0,838.0,269732.0,1382.0,32.0,130865.0,2731.0,334.0,130125.0,1942.0,94.0,46150.0,12713.0,699.0,568966.0,3363.0,144.0,73360.0,10445.0,452.0,181499.0,4568.0,569.0,121452.0,2.0,8.0,132.0
27165,Watonwan County,11,-94.64,43.97,1139.06,0.01,0.0,,,,,,,22.0,3.0,2359.0,272.0,44.0,14159.0,132.0,11.0,6899.0,33.0,6.0,966.0,154.0,22.0,6306.0,18.0,4.0,411.0,50.0,9.0,2169.0,,,,168.0,16.0,4431.0,,,,523.0,26.0,20130.0,16.0,5.0,203.0,234.0,24.0,2791.0,240.0,46.0,4166.0,,,
27167,Wilkin County,6,-96.46,46.33,1945.49,0.0,0.0,40.0,3.0,1662.0,,,,,,,66.0,16.0,3337.0,143.0,12.0,10220.0,,,,64.0,15.0,4002.0,10.0,7.0,201.0,446.0,5.0,12763.0,,,,5.0,3.0,269.0,,,,386.0,22.0,17144.0,,,,82.0,7.0,967.0,81.0,19.0,1840.0,,,
27169,Winona County,51,-91.78,43.96,1661.61,0.03,0.68,10.0,5.0,365.0,6.0,3.0,250.0,,,,573.0,116.0,35761.0,547.0,48.0,28517.0,718.0,16.0,26323.0,526.0,61.0,31547.0,94.0,34.0,2469.0,330.0,74.0,12737.0,2383.0,11.0,99799.0,598.0,45.0,17493.0,2003.0,12.0,43143.0,3314.0,134.0,112305.0,366.0,31.0,5148.0,2194.0,129.0,25943.0,687.0,116.0,16125.0,1.0,3.0,35.0
27171,Wright County,133,-93.96,45.15,1849.71,0.07,0.41,92.0,14.0,3666.0,54.0,6.0,5845.0,661.0,10.0,74676.0,3917.0,647.0,302120.0,1993.0,133.0,123121.0,317.0,38.0,10946.0,684.0,157.0,39839.0,282.0,145.0,10831.0,1213.0,333.0,56582.0,157.0,9.0,11662.0,1809.0,226.0,78178.0,341.0,23.0,6843.0,5860.0,312.0,241039.0,488.0,66.0,7214.0,3791.0,208.0,57259.0,1861.0,329.0,52180.0,4.0,4.0,54.0
27173,Yellow Medicine County,10,-95.85,44.72,1977.13,0.01,0.0,,,,,,,27.0,4.0,2892.0,114.0,36.0,6646.0,210.0,14.0,11228.0,64.0,7.0,2760.0,121.0,25.0,5639.0,5.0,3.0,98.0,654.0,18.0,58400.0,,,,6.0,6.0,205.0,,,,930.0,35.0,30450.0,11.0,9.0,284.0,577.0,21.0,12943.0,145.0,55.0,3536.0,,,
