Fips,Name,Population,Longitude,Latitude,Km2,UrbanDensity,PercentUrban,Emp-11,Est-11,Pay-11,Emp-21,Est-21,Pay-21,Emp-22,Est-22,Pay-22,Emp-23,Est-23,Pay-23,Emp-42,Est-42,Pay-42,Emp-51,Est-51,Pay-51,Emp-52,Est-52,Pay-52,Emp-53,Est-53,Pay-53,Emp-54,Est-54,Pay-54,Emp-55,Est-55,Pay-55,Emp-56,Est-56,Pay-56,Emp-61,Est-61,Pay-61,Emp-62,Est-62,Pay-62,Emp-71,Est-71,Pay-71,Emp-72,Est-72,Pay-72,Emp-81,Est-81,Pay-81,Emp-99,Est-99,Pay-99
51147,Prince Edward County,23,-78.46,37.23,916.45,3.63,0.05,56,7,2564,,,,,,,219,46,7560,151,17,5176,132,11,3939,134,32,7345,127,28,3110,232,28,9246,93,3,3153,351,21,15955,497,6,24498,1964,79,85573,94,8,2141,1028,43,17757,282,61,6042,,,
51149,Prince George County,38,-77.22,37.18,729.9,0.0,0.0,,,,,,,,,,460,57,17752,581,20,20286,39,5,2048,108,19,5635,112,18,4883,981,52,42604,,,,2593,33,70654,74,6,1601,435,35,22888,113,7,1910,855,46,13641,265,60,7401,,,
51159,Richmond County,9,-74.15,40.58,510.25,0.0,0.0,,,,,,,,,,114,21,6736,91,11,3885,60,6,2791,44,6,2464,14,6,350,24,9,970,,,,117,10,3891,,,,931,12,13598,33,3,620,123,10,1838,134,28,4123,,,
51165,Rockingham County,79,-79.74,36.39,2212.03,0.0,0.0,30,4,1179,38,4,2075,117,4,10065,2837,279,116717,1119,60,61023,46,16,1641,422,65,22941,573,41,25335,484,74,29069,328,9,14095,1160,88,27546,916,12,20607,3886,134,219787,197,23,3270,2633,91,49927,1071,202,27962,,,
51169,Scott County,22,-90.48,39.63,1395.69,0.0,0.0,35,7,1207,,,,,,,71,12,2263,57,6,2942,125,4,6301,85,20,2925,9,5,134,115,21,5744,,,,215,7,3083,,,,718,34,22348,13,3,424,402,22,5249,179,31,6504,,,
51181,Surry County,7,-80.7,36.41,733.7,0.0,0.0,,,,,,,869,3,108840,80,11,3989,14,3,606,,,,,,,15,4,594,22,9,799,,,,26,5,713,,,,11,3,553,,,,10,3,194,61,12,618,,,
51177,Spotsylvania County,131,-77.67,38.19,1072.85,1.79,0.67,26,4,513,,,,,,,2322,336,110086,873,98,50586,490,39,21158,532,101,28955,714,137,29774,2298,253,152777,465,11,23774,2078,151,54476,536,28,18769,4357,280,214541,809,34,13207,4572,206,70243,1696,269,50597,,,
51011,Appomattox County,16,-78.79,37.38,868.37,0.0,0.0,47,10,1417,,,,,,,226,41,8440,66,12,2716,10,3,331,92,11,3731,24,13,561,44,16,1164,,,,37,13,1396,,,,495,23,11919,25,6,558,252,18,3450,183,40,4744,,,
51097,King and Queen County,7,-76.88,37.72,845.13,0.0,0.0,78,12,3315,,,,,,,74,17,3177,45,6,2414,,,,,,,4,4,109,62,12,3733,,,,31,8,1290,,,,16,4,420,,,,48,4,723,44,18,683,,,
51043,Clarke County,14,-93.78,41.02,461.38,0.0,0.0,15,7,328,,,,,,,383,68,20943,133,11,7276,8,3,501,97,9,5903,37,21,1041,106,33,6829,,,,99,25,3925,273,7,11979,392,27,19559,23,8,828,218,22,4021,258,53,5705,,,
51067,Franklin County,56,-95.22,33.2,1843.1,0.0,0.0,48,16,1577,17,3,545,29,3,2683,1242,221,50319,485,41,31603,106,22,4556,278,59,12612,108,43,3721,319,85,14085,15,3,1156,753,62,16763,967,9,16384,1508,81,53184,177,22,3478,1112,73,17247,527,145,12558,,,
51117,Mecklenburg County,31,-80.81,35.24,1759.45,0.0,0.0,106,11,5030,,,,,,,336,83,12359,297,31,16001,221,16,16658,265,46,11978,92,34,3883,322,41,19599,,,,339,32,6120,51,6,1547,1779,77,72262,80,16,1400,1161,71,16147,481,105,10362,,,
51121,Montgomery County,98,-95.51,30.3,1008.28,4.74,0.72,18,7,215,63,5,2478,,,,1233,187,55749,781,38,35610,1274,48,65523,700,110,44490,507,98,21522,2140,257,161098,36,6,2700,975,94,27886,995,29,39636,4731,227,211106,525,35,5890,5002,223,75735,1355,231,35559,,,
51127,New Kent County,21,-77.0,37.5,579.61,0.0,0.0,23,3,1108,,,,,,,435,88,23682,45,11,2651,21,3,716,39,9,1668,25,15,868,124,35,6118,,,,558,31,27273,24,6,514,616,26,21166,93,13,1766,389,33,6032,200,44,5482,,,
51049,Cumberland County,10,-77.28,40.15,776.47,0.0,0.0,34,3,1590,,,,,,,104,36,2920,,,,15,3,481,22,7,835,5,3,45,20,3,381,,,,33,7,744,,,,106,13,2278,,,,67,8,1016,42,12,885,,,
51015,Augusta County,75,-79.15,38.18,2514.12,3.26,0.03,12,8,368,29,4,1579,65,3,5032,1761,255,84942,964,62,45812,90,14,6262,261,59,13741,158,54,4547,446,82,19014,29,3,1893,965,87,29232,71,14,1816,3797,115,197152,69,13,995,1417,98,23042,900,200,22932,,,
51051,Dickenson County,15,-82.36,37.12,864.02,0.0,0.0,21,6,443,172,5,13227,,,,108,14,3931,26,5,1164,15,7,892,64,11,2366,,,,343,14,8530,,,,21,5,250,,,,373,24,11531,,,,189,13,2261,84,22,1842,,,
51153,Prince William County,457,-77.55,38.74,888.21,2.71,11.03,48,4,1899,67,5,4522,619,13,49406,14452,1337,863476,3474,226,237238,1284,109,87275,2122,331,135779,1611,382,86996,11038,1254,938115,862,42,60250,6680,546,299850,1964,142,57700,11628,813,562806,2161,148,40918,14595,759,257150,6031,798,186606,13,16,463
51161,Roanoke County,94,-80.08,37.24,650.73,1.96,1.23,,,,,,,180,4,17808,994,188,42035,1197,102,64448,534,29,32051,3904,186,208579,499,118,18613,1458,221,88925,654,21,59757,1614,106,49105,1119,36,25206,4415,228,189231,452,32,5947,3210,157,49798,1468,232,35454,,,
51075,Goochland County,22,-77.88,37.72,749.42,0.0,0.0,16,6,441,108,4,9141,,,,1045,123,54422,471,43,28035,14,8,743,6005,36,1523382,146,19,6442,314,80,19419,5216,5,454960,594,60,28499,140,14,4292,461,31,18687,583,16,15217,610,49,13969,529,77,21246,,,
51083,Halifax County,35,-78.94,36.75,2149.16,0.0,0.0,150,8,6249,,,,162,3,14878,516,69,21541,241,15,9902,125,13,5787,194,41,8363,59,17,1479,168,39,5795,,,,399,32,9791,141,6,4420,1613,75,75274,303,10,4656,816,64,11377,415,97,7190,,,
51107,Loudoun County,385,-77.67,39.1,1349.94,2.57,5.99,84,29,2360,289,6,30781,93,5,8084,14306,882,1020159,3533,295,245282,9937,313,1239270,3134,402,300419,1629,464,92046,31384,3096,2730531,3935,60,317378,13353,609,563824,2723,244,76448,14525,1016,713947,3670,178,300617,17621,793,411845,6978,859,300939,44,16,1074
51113,Madison County,13,-95.95,30.96,833.66,0.0,0.0,22,8,979,,,,,,,183,48,7697,67,13,2945,,,,23,6,883,12,7,204,86,24,3722,,,,45,15,1368,324,4,13690,292,21,7571,6,4,545,225,20,3500,99,34,2814,,,
51175,Southampton County,18,-77.16,36.7,1560.3,0.0,0.0,81,14,4360,,,,,,,75,24,3074,208,14,10563,54,5,1489,17,6,613,18,10,443,52,13,1803,,,,38,9,1066,,,,163,6,5452,36,3,337,110,7,1362,192,34,3800,,,
51025,Brunswick County,17,-78.19,34.07,1474.67,0.0,0.0,233,20,12214,,,,48,4,5921,201,25,6613,64,9,3166,6,3,125,48,13,1603,29,8,646,47,15,1332,,,,440,15,16243,84,3,1594,175,14,3739,,,,131,10,1957,98,28,1646,,,
51033,Caroline County,30,-77.36,38.03,1391.61,0.0,0.0,13,3,270,,,,105,3,10925,335,56,16421,336,12,16066,18,6,507,253,11,20113,30,13,454,142,30,5967,,,,92,17,2451,71,5,2626,312,21,10360,143,5,1703,555,38,8905,321,66,6566,,,
51091,Highland County,2,-83.63,39.18,1077.44,0.0,0.0,25,6,299,,,,,,,36,17,932,,,,27,5,796,20,4,496,,,,13,6,907,,,,,,,,,,65,6,2445,,,,,,,21,8,570,,,
51073,Gloucester County,37,-76.56,37.45,642.94,0.0,0.0,7,4,213,,,,54,3,4742,643,168,25792,80,21,2602,99,11,3002,214,47,11828,105,40,3200,322,67,12592,,,,247,55,8344,74,9,1517,1316,69,44693,139,20,1979,1134,65,16751,515,101,12198,,,
51131,Northampton County,12,-75.33,40.75,897.09,0.0,0.0,211,9,11468,,,,,,,76,24,2782,119,17,5730,10,4,469,57,17,3257,27,14,734,72,21,3255,,,,59,8,1745,71,3,2246,728,35,30581,102,4,3612,478,42,10114,105,36,2249,,,
51163,Rockbridge County,23,-79.46,37.83,1554.22,0.0,0.0,21,9,623,291,3,23815,,,,312,62,10835,76,16,3798,36,7,1493,86,20,3438,24,9,638,139,27,6205,,,,101,19,2459,53,3,2168,397,27,13225,100,8,3133,897,57,15610,214,53,4934,,,
51171,Shenandoah County,43,-78.59,38.86,1325.6,0.0,0.0,19,5,283,,,,56,3,5510,647,111,25539,486,19,20789,368,15,32998,272,50,13422,91,29,2450,456,66,36654,,,,584,38,14773,111,5,3391,1611,76,62801,269,9,2889,1489,86,20771,594,131,14848,,,
51141,Patrick County,18,-80.28,36.68,1258.64,0.0,0.0,239,8,7334,,,,,,,115,30,4054,47,6,1930,47,6,1709,74,16,2626,5,6,104,68,20,1775,,,,235,11,4905,7,3,38,484,23,13198,13,3,958,174,21,2364,107,33,2092,,,
51145,Powhatan County,29,-77.91,37.55,679.38,0.0,0.0,,,,,,,,,,1400,194,66988,214,28,10061,56,3,8972,142,28,7177,69,25,3297,397,61,19222,,,,371,56,13956,191,9,2579,238,34,12140,99,7,2001,539,32,8500,498,90,14767,,,
51790,Staunton city,24,-89.79,39.01,51.67,1.77,4.16,,,,,,,98,4,8667,345,39,16246,247,29,9783,117,20,4629,314,54,21485,139,39,5583,313,64,16452,501,7,23886,232,23,5615,791,13,17443,2459,90,91622,269,15,4267,1389,85,23317,755,129,18973,,,
51007,Amelia County,13,-78.01,37.33,928.81,0.0,0.0,36,9,1380,,,,,,,386,73,14738,115,13,7075,16,4,653,34,10,1135,11,11,369,61,15,2168,,,,112,20,3335,44,3,804,307,17,7276,,,,179,13,1790,97,32,2304,,,
51840,Winchester city,28,-78.17,39.19,23.85,2.3,28.02,,,,,,,,,,354,51,16655,533,37,26867,193,16,7997,656,103,49594,261,66,10606,974,147,46439,1182,4,78486,1372,45,38186,2032,23,44236,7875,277,452502,267,19,5303,3033,142,53054,857,131,21649,,,
51061,Fauquier County,69,-77.81,38.75,1687.96,0.0,0.0,63,20,2260,75,3,5460,112,5,11062,2508,342,130825,456,38,27790,178,24,10422,760,89,94801,223,93,11359,2044,295,177724,,,,622,118,27320,475,26,13087,2565,116,124014,344,38,10851,2581,133,46881,1641,216,55058,10,5,417
51720,Norton city,4,-1.18,53.63,19.44,0.0,0.0,,,,557,4,42448,,,,82,7,2413,164,7,10421,71,10,2745,80,15,3755,48,9,1224,126,11,4192,,,,,,,,,,1100,46,49527,,,,423,25,5030,67,16,1869,,,
51065,Fluvanna County,26,-78.28,37.85,753.87,0.0,0.0,78,10,3897,,,,98,4,7722,708,99,31990,151,16,10522,15,6,740,35,11,1490,44,23,1104,62,30,2618,,,,212,40,6345,63,5,1177,228,29,7618,10,5,355,211,22,3575,296,40,6490,,,
51750,Radford city,18,-80.57,37.13,25.92,11.01,1.06,,,,,,,,,,78,10,4119,29,11,1560,14,6,937,128,24,10134,110,24,3282,136,22,7922,,,,183,11,4480,3,3,254,541,42,21853,,,,1162,44,11335,186,46,3427,,,
51001,Accomack County,33,-75.67,37.74,1458.64,0.0,0.0,16,7,819,,,,87,5,7518,287,75,10087,129,21,5834,103,14,4215,147,34,8378,76,40,2331,405,49,22532,63,3,3868,335,28,10334,34,3,875,1184,55,39189,80,15,1706,1034,100,18843,387,91,8716,,,
51045,Craig County,5,-80.2,37.48,852.42,0.0,0.0,5,3,70,,,,,,,16,9,380,18,4,973,,,,23,4,1035,,,,8,6,437,,,,7,3,174,,,,55,4,1687,,,,38,4,829,21,9,611,,,
51063,Floyd County,16,-101.28,34.03,988.45,0.0,0.0,22,7,426,,,,,,,248,61,8168,33,9,997,71,5,3898,27,8,916,19,7,332,74,28,2374,,,,125,16,3485,20,4,335,663,22,18615,46,10,1074,223,18,2984,144,47,3310,,,
51071,Giles County,17,-80.71,37.31,936.4,0.0,0.0,,,,,,,12,3,1197,144,32,5937,76,9,2233,36,8,1322,73,13,2982,14,8,439,385,16,15550,,,,26,7,1218,,,,482,28,19346,,,,469,29,7070,228,50,7748,,,
51077,Grayson County,16,-96.67,33.56,1153.52,0.0,0.0,,,,,,,,,,42,18,999,10,5,308,18,3,742,148,10,6966,4,5,231,14,10,672,,,,77,7,2716,,,,165,12,4846,4,3,94,111,13,1320,42,17,734,,,
51157,Rappahannock County,7,-78.15,38.69,691.96,0.0,0.0,20,7,700,,,,,,,120,39,4828,12,6,758,30,6,2758,10,3,446,13,10,272,82,32,5013,,,,44,7,1646,68,5,2111,62,14,1538,3,3,89,254,18,7186,72,27,1721,,,
51135,Nottoway County,16,-78.06,37.15,818.37,0.0,0.0,16,6,555,,,,,,,128,24,4612,109,11,4089,34,5,1467,106,19,4625,26,12,586,77,22,3104,,,,12,6,188,,,,1011,32,33404,14,3,156,350,29,4206,187,56,3292,,,
51036,Charles City County,7,-77.06,37.37,518.71,0.0,0.0,32,5,1139,,,,,,,367,24,20547,66,9,4859,,,,4,3,132,28,6,1134,48,8,3030,,,,85,9,2531,9,3,413,26,3,1137,40,9,1025,53,5,864,102,22,1077,,,
51047,Culpeper County,50,-77.96,38.49,991.23,1.88,0.05,18,7,726,74,3,4277,,,,955,146,48367,723,27,23523,763,23,83839,240,45,14236,233,41,8965,595,91,30299,59,4,5633,432,76,17913,90,6,1590,2198,80,99441,325,17,4241,1629,88,25095,789,126,27915,2,3,28
51053,Dinwiddie County,28,-77.65,37.07,1313.96,0.0,0.0,32,5,1261,50,4,3137,,,,442,67,24101,93,10,4148,,,,107,13,5773,64,15,3672,43,15,1591,,,,154,29,3820,56,5,1596,1403,22,51416,69,3,1340,337,23,4894,248,49,5818,,,
51079,Greene County,19,-90.39,39.36,405.51,0.0,0.0,,,,,,,,,,278,75,10702,63,11,4011,17,4,669,53,14,2034,79,13,1801,133,28,6629,,,,341,31,16133,,,,208,17,5279,32,4,575,352,30,5656,137,36,4347,,,
51085,Hanover County,104,-77.45,37.74,1224.46,0.0,0.0,22,9,701,83,3,4883,,,,5217,550,259350,5140,255,306459,535,35,23535,965,151,63953,466,145,23332,1689,281,86040,2822,18,177423,2952,210,98167,1275,38,30869,5972,287,294948,2173,45,35620,4244,223,65236,2432,380,79440,2,5,176
51111,Lunenburg County,12,-78.26,36.94,1119.83,0.0,0.0,39,6,1878,,,,,,,130,25,6004,113,8,5541,,,,60,8,4257,5,3,118,39,8,1128,,,,66,8,1971,,,,261,16,8714,,,,38,8,430,60,27,810,,,
51137,Orange County,36,-117.87,33.75,890.03,0.0,0.0,82,14,3640,,,,,,,569,105,21506,233,11,10903,42,9,1875,124,37,6858,44,24,1025,226,53,9429,,,,332,28,10783,44,6,1772,379,35,11438,173,10,4973,834,62,13340,558,85,16687,,,
51003,Albemarle County,106,-78.61,38.01,1880.3,3.34,0.35,96,25,3880,74,6,4287,,,,2253,288,113064,520,75,29903,920,72,56334,2414,198,224849,899,180,40651,4212,402,306386,588,23,40900,2195,135,61337,837,64,27825,8461,362,561797,1713,51,41554,5097,208,103907,1778,256,60964,4,4,181
51595,Emporia city,5,-77.54,36.69,18.05,0.0,0.0,,,,,,,,,,40,6,1641,49,3,2529,23,7,1269,62,15,2267,34,14,1071,61,14,1995,,,,77,5,2847,,,,1180,44,39203,54,3,1049,690,28,9181,130,27,2431,,,
51197,Wythe County,29,-81.06,36.91,1203.54,0.0,0.0,,,,132,5,5020,21,3,2045,407,47,16346,493,22,22257,86,13,3042,254,47,10638,62,23,2235,188,38,8115,6,4,398,550,37,8495,66,7,1751,1329,77,52219,73,7,1386,1585,78,22202,415,85,11371,,,
51550,Chesapeake city,238,-75.81,39.53,908.76,2.3,3.82,9,3,309,,,,135,9,12073,8674,750,471845,4044,266,242312,2695,72,128585,4161,287,247017,1401,318,64194,9003,492,573213,2165,45,230737,8730,342,274338,1792,91,62920,10743,540,549036,1290,53,16835,10567,502,159165,4642,630,156243,2,9,44
51570,Colonial Heights city,18,-80.83,35.21,20.21,1.87,12.24,,,,,,,,,,144,34,5438,38,7,2182,135,7,4447,278,53,14882,144,33,6169,304,39,9723,57,3,5077,114,20,3682,27,5,284,1680,93,65288,207,9,2324,2398,86,35846,744,80,19317,,,
51660,Harrisonburg city,53,-78.87,38.45,44.98,2.67,23.06,,,,,,,,,,985,94,51317,1063,60,61420,874,34,44579,833,130,55672,366,71,13753,1073,136,52891,115,4,3339,551,54,21187,1165,20,20887,3068,188,120708,258,27,5217,5499,224,90303,1052,184,33776,3,4,84
51021,Bland County,6,-81.12,37.13,928.96,0.0,0.0,,,,,,,,,,134,6,1147,222,4,15657,57,3,2463,,,,,,,,,,,,,,,,,,,145,7,7502,,,,43,6,599,70,11,2027,,,
51019,Bedford County,78,-78.52,40.03,2010.38,0.0,0.0,79,15,3083,,,,,,,1213,281,52908,468,51,26722,214,18,9928,453,98,25297,229,111,7343,943,189,49952,80,4,6197,1175,112,31583,58,16,1755,2267,153,92029,293,27,6240,1479,108,21196,1173,212,35007,,,
51023,Botetourt County,33,-79.8,37.55,1414.14,0.0,0.0,23,3,1092,,,,,,,1470,121,105727,624,40,34583,99,10,5479,206,45,9604,122,31,5375,205,64,8279,17,4,1869,585,59,21816,23,3,176,981,54,31228,143,10,1625,894,49,13195,511,106,12883,,,
51029,Buckingham County,17,-78.55,37.56,1511.58,0.0,0.0,78,16,3299,90,6,4717,,,,184,50,6215,28,6,916,,,,26,9,784,5,5,117,50,9,4060,25,3,3127,38,4,800,77,4,2634,395,16,13379,,,,88,8,1345,173,33,4635,,,
51195,Wise County,39,-97.66,33.21,1050.39,6.79,0.02,14,3,432,424,28,24418,132,5,13754,287,46,10220,261,29,12605,47,9,2787,205,34,7475,78,23,2446,308,58,12585,,,,925,20,19665,37,3,705,1428,84,58908,134,4,2298,1081,58,14129,213,74,4432,,,
51580,Covington city,6,-122.1,47.37,14.65,0.0,0.0,,,,,,,,,,272,19,15960,34,6,1131,49,7,1646,104,16,4936,29,9,935,37,13,1067,,,,46,5,1079,33,3,1223,168,16,3411,,,,305,22,3880,151,39,3092,,,
51520,Bristol city,17,-82.15,36.62,33.62,1.55,2.63,,,,541,14,53610,,,,204,16,11311,445,32,17667,277,11,12238,225,48,12910,76,21,2777,164,35,7488,198,3,22408,111,10,2019,56,8,1089,915,50,31958,98,11,2079,1867,78,29669,484,76,10120,,,
51740,Portsmouth city,95,-1.06,50.84,101.8,2.36,23.9,,,,,,,31,3,3882,2100,147,109769,594,45,30617,131,14,7973,426,70,19089,491,83,19711,1403,145,74965,11,8,907,2067,84,79142,239,12,5752,7108,232,383465,284,21,2991,2697,165,39230,1748,237,62427,0,4,379
51830,Williamsburg city,15,-76.69,37.28,23.54,1.81,9.46,,,,,,,,,,73,14,2733,52,8,4028,16,7,1155,147,28,12804,163,22,10320,146,30,7983,121,4,6512,363,17,13794,107,5,4556,694,44,27391,662,11,24134,3991,151,88860,594,56,19935,,,
51005,Alleghany County,15,-81.13,36.5,1165.18,1.73,0.05,,,,,,,7,3,735,128,21,4949,29,5,1217,,,,47,11,1816,20,3,402,49,15,1204,,,,62,9,1884,11,3,248,873,37,33909,16,4,832,428,25,5781,183,46,4575,,,
51810,Virginia Beach city,450,-75.89,36.59,794.27,2.83,15.72,46,13,1397,,,,303,8,27892,10387,1232,545441,3909,337,254793,3667,152,187714,12366,707,843090,5483,768,255467,16186,1373,1040952,2318,81,152805,11757,626,368961,4376,176,157282,20334,1145,1018600,3586,210,69449,25722,1310,475282,7920,1168,219083,4,15,236
51035,Carroll County,30,-89.96,42.06,1237.52,0.0,0.0,,,,,,,,,,142,45,4810,185,16,4249,,,,102,17,3496,33,15,1092,117,32,4916,,,,111,16,4165,,,,727,39,21449,51,4,1349,632,38,8274,201,62,5336,,,
51193,Westmoreland County,18,-79.49,40.29,631.39,0.0,0.0,,,,,,,11,3,657,151,48,6266,31,12,1084,24,6,302,82,14,3390,12,7,267,67,23,4300,,,,244,14,6011,15,3,229,218,16,6107,70,7,2029,259,27,4768,204,54,3514,,,
51133,Northumberland County,12,-76.69,40.85,549.99,0.0,0.0,6,7,1043,,,,,,,196,65,7144,65,9,2346,,,,54,15,2155,54,18,2809,60,20,2210,,,,56,17,1943,,,,149,8,3346,98,8,2139,90,16,1989,151,46,2988,,,
51139,Page County,24,-78.5,38.6,811.32,0.0,0.0,2,3,77,,,,,,,280,60,9540,32,4,1673,22,9,1038,132,26,5174,20,13,790,334,35,20382,,,,193,21,5882,,,,628,24,24497,166,9,4731,679,53,12511,164,54,3730,3,3,69
51191,Washington County,54,-96.39,30.22,1466.61,0.0,0.0,20,5,920,145,7,17904,87,7,7764,521,113,18741,556,35,25120,82,15,6082,450,78,24644,133,46,5768,437,96,24275,764,4,45661,793,46,17125,505,15,20068,2797,151,134597,337,17,8423,1634,99,25377,704,108,14623,4,4,65
51640,Galax city,7,-80.92,36.66,21.43,0.0,0.0,,,,,,,,,,71,9,2369,45,5,1505,152,11,4989,127,27,6077,50,14,1923,111,23,3844,,,,243,6,4515,,,,1487,43,63629,,,,666,38,9085,150,36,3622,,,
51155,Pulaski County,34,-89.12,37.23,853.21,1.53,0.11,,,,,,,36,4,3629,300,52,10067,231,18,10680,55,7,2426,169,34,5333,69,25,2225,151,39,4815,,,,243,20,8333,5,5,49,1156,72,49591,88,11,1559,1137,72,16826,450,88,9410,,,
51187,Warren County,39,-79.27,41.81,564.25,2.37,0.14,,,,,,,109,4,11304,796,132,32933,199,18,6594,113,19,6771,243,52,11570,79,28,3102,328,81,19987,,,,212,23,7801,711,14,21438,1615,64,63375,173,14,2968,1408,80,23898,616,99,18821,,,
51510,Alexandria city,157,29.9,31.2,39.9,6.98,78.85,,,,,,,177,4,18172,1826,146,129884,1263,80,78399,2136,102,208891,3037,231,297183,1252,262,87134,18457,1173,1934677,812,41,89908,13197,279,573764,1464,96,87919,7683,455,406363,1207,72,36063,8408,402,203622,10978,699,832110,12,16,674
51590,Danville city,42,28.13,-25.74,113.42,1.66,2.17,,,,,,,,,,331,48,13118,680,50,33913,269,23,10548,800,102,42227,254,50,7006,430,62,20274,249,10,10660,1273,46,26295,585,17,12997,5319,179,221288,179,14,2594,3066,149,44686,909,156,18433,,,
51630,Fredericksburg city,28,-77.47,38.3,27.24,2.71,13.8,,,,,,,,,,565,70,33720,257,24,12941,462,26,19633,523,89,41059,265,75,14117,1267,175,85235,722,8,54375,580,39,27941,122,16,4400,4606,224,309287,417,19,6755,4454,184,76028,1052,144,32525,4,3,121
51650,Hampton city,136,145.0,-37.94,152.25,2.3,21.83,,,,,,,,,,1817,201,90472,795,72,40117,817,30,28959,966,118,51581,687,124,27388,5285,276,435721,107,9,7917,3901,123,121397,1977,28,60092,7775,272,494965,528,35,8917,6070,256,92091,1980,273,55087,1,4,72
51009,Amherst County,32,-79.15,37.6,1240.48,0.0,0.0,33,10,980,,,,,,,485,83,24560,196,12,7410,24,6,1194,121,26,4794,22,15,393,218,36,11392,70,3,2767,156,24,4580,357,8,13078,652,47,19360,30,7,656,653,45,9060,322,96,6391,1,3,61
51013,Arlington County,232,-77.09,38.88,67.38,7.23,74.18,,,,,,,701,6,182727,1389,197,143732,590,82,55851,8075,202,943636,3803,276,697232,3915,460,286637,47800,1884,5865964,2819,49,428859,8947,273,689764,4870,123,218649,10503,520,608176,2399,108,58726,18770,659,485811,15564,840,1070195,19,14,559
51017,Bath County,4,-83.72,38.12,1384.53,0.0,0.0,4,3,130,,,,122,3,9483,152,21,4904,,,,12,4,518,9,3,217,20,5,811,28,12,4983,,,,19,5,350,,,,259,5,10905,10,4,218,1029,18,30745,61,13,1653,,,
51670,Hopewell city,22,-77.28,37.31,28.04,2.37,4.58,,,,,,,104,4,10401,540,31,23590,153,9,8231,,,,93,21,3798,56,20,2169,246,39,10866,,,,124,14,2577,49,5,1324,1115,43,57286,19,7,205,785,47,10083,395,67,8186,,,
51027,Buchanan County,22,-94.79,39.67,1305.04,0.0,0.0,14,4,337,1626,21,132743,,,,161,26,6894,171,15,10655,42,9,1083,179,24,8262,31,10,974,225,30,4997,,,,179,9,3555,,,,607,40,22229,13,3,248,245,18,3793,197,41,6777,,,
51700,Newport News city,180,-76.43,36.98,182.59,2.48,25.63,14,6,534,,,,122,4,9919,2729,279,150686,2373,119,157930,1696,50,114194,1677,223,104568,1349,266,59287,4876,346,466534,2313,20,216713,5899,201,159195,1176,58,50020,15527,458,786877,1179,55,21375,7886,398,121617,2803,436,72202,,,
51069,Frederick County,85,-78.28,39.21,1075.81,1.53,0.4,85,3,3718,,,,,,,1859,213,91114,2114,98,116264,272,26,12132,2296,57,121467,240,65,11418,861,128,44958,650,9,66412,865,82,29062,171,18,3100,1828,117,72121,197,20,2629,2453,131,40755,1244,175,39732,2,3,42
51179,Stafford County,144,-98.72,38.04,722.21,2.18,0.54,33,4,1080,,,,60,4,5465,2372,373,118089,1771,64,90364,370,34,18111,4730,85,225279,378,103,15727,4321,342,344613,23,8,1453,2384,168,114409,552,44,26361,3505,206,134317,781,33,10777,3981,202,62635,2187,303,74417,2,5,46
51680,Lynchburg city,80,-79.14,37.41,128.37,2.86,3.33,,,,,,,89,6,8161,1768,129,87493,893,77,45524,605,46,30172,2449,173,164249,444,118,17059,3160,188,222937,603,22,69661,2336,99,52236,11573,40,355201,10344,287,579104,732,38,9223,6590,275,91780,1673,274,43596,,,
51199,York County,68,-76.74,39.97,322.72,2.77,1.65,20,6,611,,,,59,4,6378,1497,208,70465,439,43,18165,270,14,3802,450,72,25549,293,61,11429,2587,183,159115,122,13,12872,1443,100,55449,231,21,5229,2217,147,118636,982,33,15360,4169,173,75604,1108,167,32409,,,
51760,Richmond city,224,80.22,6.06,161.97,3.17,33.09,,,,64,3,2990,2342,27,307866,5781,406,331033,4024,287,235563,2305,128,150207,9003,398,1111769,2783,340,160264,11271,902,1126934,4046,54,430367,8006,297,274025,4231,101,213234,26389,615,1737127,2556,120,68158,14699,702,286224,7395,756,276700,19,13,783
51125,Nelson County,15,-85.47,37.81,1228.03,0.0,0.0,61,12,2060,,,,,,,224,69,7346,8,5,348,37,6,2320,35,10,1301,21,10,650,175,42,8117,,,,117,24,3425,31,4,876,188,20,7821,24,14,583,1092,24,21309,273,35,7996,,,
51057,Essex County,11,-73.75,44.06,692.12,0.0,0.0,17,3,541,,,,,,,92,31,3113,72,9,4047,29,5,847,118,19,6158,41,10,874,81,19,2467,,,,107,12,2445,46,4,898,546,32,21922,17,5,569,538,31,7453,165,41,3676,,,
51143,Pittsylvania County,62,-79.44,36.81,2533.91,0.0,0.0,60,18,2384,5,3,249,51,6,4258,1046,133,43974,723,33,27257,48,7,2147,154,40,6478,76,26,2676,173,48,7837,,,,407,47,14044,269,7,10255,1087,63,36041,55,10,947,534,46,7962,602,146,11901,,,
51530,Buena Vista city,6,-122.42,37.81,16.93,0.0,0.0,,,,,,,,,,14,5,565,,,,,,,26,7,979,7,3,197,20,6,621,,,,83,4,2841,377,4,8875,210,10,4990,,,,215,13,4042,49,19,966,,,
51690,Martinsville city,13,151.41,-33.06,28.53,1.79,2.32,,,,,,,,,,100,11,3918,110,16,5168,118,14,5449,215,42,11944,88,21,2546,169,43,8188,221,3,6608,1394,25,29991,,,,2412,103,97202,100,8,2376,597,42,8828,353,71,7058,,,
51185,Tazewell County,42,-89.54,40.51,1346.13,0.0,0.0,,,,300,22,19102,62,3,6064,601,64,30395,479,46,20716,98,20,3789,577,85,29501,107,42,3697,381,62,17187,63,4,3996,138,27,3439,277,4,6249,2453,126,93969,69,6,963,1288,71,17968,660,127,21604,,,
51730,Petersburg city,32,-77.37,37.19,59.39,1.75,3.43,,,,,,,103,5,9706,1125,36,59283,276,23,20740,52,5,1569,158,33,7751,174,35,5197,228,39,9773,30,3,3193,445,19,18305,,,,3581,127,171873,81,9,893,1026,86,14299,737,111,19435,,,
51183,Sussex County,11,-77.27,36.91,1276.26,0.0,0.0,,,,41,4,3491,,,,74,11,1803,93,8,4873,,,,28,9,1358,13,7,376,22,7,498,,,,147,11,7718,,,,324,14,10919,,,,332,21,4912,114,28,2131,,,
51600,Fairfax city,24,-77.3,38.85,16.22,2.4,28.33,,,,,,,,,,1234,82,91616,250,32,17899,310,39,27291,1359,158,114106,246,59,14615,5227,547,531789,310,7,36070,2048,77,82154,735,35,19807,4490,269,172245,597,29,12661,3293,192,64287,1546,192,68310,,,
51610,Falls Church city,14,0.0,0.0,5.3,2.75,100.0,,,,,,,,,,686,37,61598,136,19,8647,365,24,29340,197,44,13668,196,40,18439,1873,165,164224,24,5,1925,1135,43,54459,216,17,6015,2325,127,94533,253,18,4149,1260,108,25890,952,97,37156,3,4,122
51685,Manassas Park city,16,-77.44,38.77,6.53,3.34,100.0,,,,,,,,,,1470,108,75435,284,22,19760,17,5,800,18,6,927,52,9,2666,169,20,9262,,,,304,39,15266,12,3,349,139,8,4370,27,5,443,74,12,2058,244,57,9894,,,
51735,Poquoson city,12,-76.4,37.12,52.84,0.0,0.0,,,,,,,,,,164,41,6559,,,,,,,44,9,1931,15,9,1026,66,16,2636,,,,100,22,2278,,,,192,17,5742,,,,343,21,4173,184,40,4694,,,
51820,Waynesboro city,22,-82.01,33.09,39.11,1.95,4.37,,,,,,,,,,421,35,19027,229,13,12823,355,18,21038,404,40,25610,89,36,3065,361,44,18392,237,7,20453,288,25,7922,104,7,2681,509,44,17138,113,10,1505,1704,79,26471,551,90,17952,,,
51683,Manassas city,41,-77.44,38.77,25.59,3.97,42.6,,,,,,,,,,1580,237,93217,466,53,23259,109,17,9528,492,76,38500,240,51,11894,1350,210,97497,180,5,10612,1376,101,60317,309,21,6330,3222,183,163623,205,18,2712,1996,132,34776,1240,166,43282,,,
51770,Roanoke city,100,-85.37,33.15,110.97,2.02,17.83,,,,,,,388,10,35797,3173,194,163141,3292,172,179101,683,47,37634,3444,222,239316,885,172,36396,2792,306,183677,13250,46,570603,4438,145,163738,635,32,18965,14634,323,858316,569,49,10381,6854,311,117255,2632,379,67999,5,7,116
51800,Suffolk city,89,-76.62,36.74,1078.23,2.09,0.56,7,3,825,11,3,486,152,3,14533,1210,160,63491,1190,48,74831,225,20,11591,792,86,64545,278,76,12542,1042,144,70340,,,,779,85,18906,372,16,11570,4788,246,228416,331,19,4865,3483,160,55565,1393,234,30689,0,3,26
51037,Charlotte County,12,-81.92,26.9,1236.74,0.0,0.0,102,20,4072,,,,,,,62,17,1877,64,12,3421,,,,53,12,2429,9,6,227,35,9,1025,,,,44,10,524,,,,324,20,8603,16,3,384,107,6,1271,96,30,1006,,,
51710,Norfolk city,246,-76.29,36.85,160.41,3.01,46.33,,,,,,,,,,4132,353,213963,4249,210,208596,2036,139,124364,4155,271,359404,3363,313,179424,11104,702,829469,2161,43,191089,9336,251,434093,2245,80,71688,20834,598,1115332,1510,80,37602,11916,619,199068,4884,594,150776,4,8,380
51775,Salem city,26,11.59,3.96,37.84,0.0,0.0,,,,,,,15,3,803,726,67,33616,1560,78,107144,328,20,13903,563,78,33089,210,43,12464,513,77,23762,,,,608,34,17661,648,8,27593,5229,147,362740,219,12,2623,2135,100,33062,886,126,20635,,,
51041,Chesterfield County,339,-77.58,37.39,1131.71,2.19,1.1,22,8,1228,,,,572,19,55182,9928,967,554781,5420,362,428655,1933,121,111633,4759,493,367074,1704,374,81094,11490,906,587451,811,53,76389,6944,485,256355,1567,104,42284,13796,873,681360,3084,114,48019,14266,602,220880,4971,716,141898,14,17,267
51059,Fairfax County,1144,-77.28,38.82,1041.28,3.91,26.59,149,9,13505,101,6,10266,1333,16,182663,26617,2363,1891821,16388,835,2137741,39673,912,5449043,31304,1670,4081741,11013,1698,888488,210013,8808,22985433,20165,320,2472262,59673,1793,3258755,11945,689,611162,61333,3376,3447688,10318,411,310328,46816,2443,1041887,24379,2687,1142995,31,49,1189
51081,Greensville County,12,-77.58,36.64,768.54,8.15,0.05,,,,,,,,,,25,11,820,43,4,1825,,,,11,3,446,20,6,479,,,,,,,16,4,156,,,,,,,,,,159,12,2258,45,8,1666,,,
51093,Isle of Wight County,36,-76.72,36.9,835.68,0.0,0.0,32,5,2825,,,,43,3,3265,467,85,20796,449,25,59251,20,4,1063,208,32,11969,81,37,2723,279,54,13245,,,,491,46,15566,120,8,3356,627,56,19245,160,8,1893,1129,57,16449,488,115,10721,,,
51167,Russell County,27,-98.8,38.9,1234.02,0.0,0.0,7,4,101,137,6,7035,57,4,5900,692,45,35465,25,9,1123,253,9,11151,222,30,9266,45,10,978,784,38,38304,28,3,2285,41,12,916,13,3,144,1151,64,49754,,,,433,33,6149,177,52,3646,,,
51620,Franklin city,8,-75.38,38.01,21.67,0.0,0.0,,,,,,,,,,27,8,853,27,6,1487,31,7,851,175,24,9920,34,13,991,103,20,4871,,,,36,7,823,,,,1287,53,43069,60,3,526,485,26,6419,144,37,3625,,,
51173,Smyth County,31,-81.54,36.84,1172.49,0.0,0.0,,,,,,,11,3,319,387,29,15720,184,16,10456,103,15,3825,199,31,7888,34,10,752,156,32,6411,,,,302,10,6243,12,4,400,1868,60,70836,53,6,725,682,46,9531,289,64,7059,,,
51540,Charlottesville city,47,-78.48,38.03,26.5,3.06,47.83,,,,,,,101,3,9520,1747,130,95592,498,53,32536,1537,77,150223,885,121,114765,519,84,28309,2579,332,214902,159,8,12052,2233,82,92378,1231,47,66127,9671,153,960578,824,59,53998,5523,293,109762,2293,234,120650,,,
51678,Lexington city,7,-93.86,39.19,6.49,2.12,27.16,,,,,,,,,,68,9,2807,,,,31,4,831,108,22,6957,40,14,1613,123,28,5072,,,,7,4,180,1383,5,78335,559,34,22657,26,5,690,792,46,16181,275,36,10228,,,
51031,Campbell County,55,-84.37,38.93,1312.46,0.0,0.0,49,11,1559,,,,50,3,4797,2149,175,94070,657,42,35451,108,16,5838,375,63,16537,114,50,3510,756,99,55882,440,7,71223,1002,60,28340,129,8,2307,1157,85,27826,47,14,592,1365,79,20041,1024,160,22315,2,3,30
51095,James City County,74,-76.8,37.32,404.57,0.0,0.0,,,,,,,,,,1549,179,87107,365,53,22449,244,16,12272,584,121,56225,548,91,25718,1452,228,99258,650,8,49904,1728,128,89276,198,23,3938,3830,165,164691,4259,43,60165,3811,155,82451,1410,159,34444,4,6,157
51087,Henrico County,326,-77.35,37.51,634.16,2.45,6.65,,,,4,4,193,1578,17,185928,8326,676,516001,10032,463,697509,6628,208,530756,25687,811,2054933,3514,518,229698,15155,1216,1071032,5917,119,752513,13962,515,646641,2111,139,73669,26037,1157,1304411,3150,148,55812,17104,778,289203,8608,978,285418,8,12,445
51099,King George County,26,-77.18,38.28,482.38,0.0,0.0,32,4,1335,,,,,,,356,64,15385,241,10,4728,4,3,396,130,13,5899,50,18,1791,2065,115,189082,,,,172,27,7776,8,3,44,355,31,11435,147,9,1564,479,42,8055,213,62,5808,,,
51089,Henry County,52,-90.12,41.34,995.44,0.0,0.0,,,,,,,,,,398,81,14091,833,42,41759,44,9,613,425,48,20424,101,27,2716,299,26,9016,21,3,1506,561,56,13471,105,8,2719,835,43,26026,155,10,2066,880,57,11784,606,122,11607,,,
51101,King William County,16,-77.07,37.69,740.63,0.0,0.0,660,7,57592,,,,,,,440,63,22595,114,9,4301,12,7,824,85,13,4355,30,11,964,124,31,3968,,,,127,24,3624,,,,355,23,11945,53,7,619,297,25,3948,159,44,4322,,,
51103,Lancaster County,11,-76.24,40.08,371.11,0.0,0.0,25,7,1576,,,,,,,290,55,12102,80,16,3350,52,6,1470,285,25,23607,30,19,972,332,45,18163,,,,99,28,3221,33,4,985,1025,40,37141,100,11,1793,529,35,11167,270,65,7210,,,
51105,Lee County,24,-96.96,30.3,1132.55,0.0,0.0,28,7,879,30,4,1533,21,3,1793,230,15,7921,73,11,1586,24,6,769,168,17,6869,24,8,558,79,20,1865,,,,25,7,796,,,,526,27,17083,,,,236,17,2816,53,20,911,,,
51109,Louisa County,35,-91.27,41.21,1322.74,0.0,0.0,19,8,564,,,,899,5,105368,670,109,26207,176,12,12485,6,6,406,96,25,4259,122,22,5296,161,55,6381,,,,172,49,5955,4,5,105,308,28,13362,39,8,1151,595,40,9999,433,70,9703,,,
51115,Mathews County,9,-76.33,37.45,254.28,0.0,0.0,,,,,,,,,,92,27,3841,59,5,1779,4,3,192,16,7,663,14,8,868,40,19,1326,,,,55,18,1302,,,,199,20,5169,61,4,477,118,14,1593,117,27,2962,,,
51119,Middlesex County,11,-71.4,42.49,361.61,0.0,0.0,14,4,612,,,,,,,202,51,7028,121,13,4715,108,7,4512,48,16,1853,24,11,643,195,28,4629,,,,60,13,1469,,,,378,22,11632,90,15,2622,281,23,5959,154,37,3485,,,
