Fips,Name,Population,Longitude,Latitude,Km2,UrbanDensity,UrbanPercent,Emp-11,Est-11,Pay-11,Emp-21,Est-21,Pay-21,Emp-22,Est-22,Pay-22,Emp-23,Est-23,Pay-23,Emp-42,Est-42,Pay-42,Emp-51,Est-51,Pay-51,Emp-52,Est-52,Pay-52,Emp-53,Est-53,Pay-53,Emp-54,Est-54,Pay-54,Emp-55,Est-55,Pay-55,Emp-56,Est-56,Pay-56,Emp-61,Est-61,Pay-61,Emp-62,Est-62,Pay-62,Emp-71,Est-71,Pay-71,Emp-72,Est-72,Pay-72,Emp-81,Est-81,Pay-81,Emp-99,Est-99,Pay-99
17001,Adams County,66,-91.21,39.98,2256.82,0.03,0.08,9.0,4.0,325.0,60.0,5.0,3358.0,138.0,6.0,14032.0,1275.0,214.0,68834.0,2055.0,100.0,100351.0,495.0,28.0,20572.0,1440.0,141.0,78755.0,249.0,63.0,8592.0,759.0,112.0,32618.0,1030.0,18.0,92471.0,842.0,85.0,23858.0,458.0,15.0,11410.0,6599.0,147.0,380382.0,487.0,35.0,7148.0,2770.0,148.0,43495.0,1590.0,224.0,40627.0,,,
17003,Alexander County,6,-89.35,37.18,654.42,0.01,0.0,32.0,3.0,814.0,,,,,,,6.0,3.0,362.0,7.0,3.0,139.0,5.0,3.0,368.0,13.0,4.0,374.0,,,,9.0,4.0,643.0,,,,,,,,,,178.0,7.0,5233.0,4.0,3.0,28.0,78.0,9.0,645.0,35.0,13.0,1064.0,,,
17005,Bond County,17,-89.44,38.86,991.55,0.02,0.01,,,,,,,51.0,3.0,5247.0,149.0,27.0,8819.0,363.0,20.0,15694.0,40.0,7.0,795.0,117.0,18.0,5587.0,15.0,6.0,297.0,49.0,19.0,1852.0,,,,7.0,7.0,96.0,393.0,3.0,8575.0,476.0,33.0,17381.0,36.0,5.0,592.0,447.0,41.0,5788.0,199.0,46.0,4782.0,,,
17007,Boone County,53,-88.82,42.32,730.66,0.07,0.31,10.0,3.0,415.0,22.0,3.0,2242.0,,,,762.0,100.0,49078.0,276.0,34.0,15165.0,59.0,11.0,2803.0,190.0,47.0,8823.0,67.0,29.0,2405.0,529.0,50.0,27676.0,,,,368.0,62.0,11356.0,62.0,5.0,1893.0,944.0,65.0,30571.0,96.0,22.0,1790.0,1048.0,72.0,14507.0,639.0,87.0,15162.0,4.0,3.0,74.0
17009,Brown County,7,-98.99,31.75,796.13,0.01,0.02,,,,,,,,,,17.0,8.0,807.0,2249.0,9.0,106511.0,4.0,3.0,340.0,42.0,7.0,1784.0,,,,24.0,8.0,689.0,,,,24.0,5.0,945.0,,,,144.0,8.0,5969.0,39.0,3.0,354.0,55.0,8.0,904.0,65.0,17.0,1380.0,,,
17011,Bureau County,33,-89.53,41.4,2262.62,0.01,0.01,80.0,8.0,6617.0,,,,,,,314.0,68.0,28605.0,949.0,57.0,51311.0,29.0,9.0,1045.0,314.0,51.0,17222.0,26.0,14.0,909.0,156.0,36.0,6260.0,168.0,4.0,19727.0,220.0,32.0,6969.0,,,,2119.0,64.0,90974.0,27.0,15.0,779.0,774.0,71.0,8970.0,487.0,101.0,16369.0,,,
17013,Calhoun County,5,-96.67,28.5,734.39,0.01,0.0,,,,,,,,,,29.0,8.0,1708.0,,,,,,,52.0,6.0,1469.0,,,,9.0,3.0,288.0,,,,4.0,3.0,57.0,,,,88.0,3.0,2674.0,,,,92.0,17.0,705.0,37.0,6.0,732.0,,,
17015,Carroll County,14,-89.96,42.06,1209.45,0.01,0.0,3.0,3.0,235.0,,,,,,,120.0,41.0,7008.0,337.0,32.0,27758.0,32.0,8.0,1064.0,179.0,28.0,8636.0,16.0,8.0,170.0,50.0,18.0,2409.0,,,,132.0,10.0,3907.0,,,,453.0,24.0,10646.0,8.0,4.0,264.0,249.0,38.0,3715.0,227.0,44.0,5429.0,,,
17017,Cass County,12,-94.35,33.06,993.73,0.01,0.0,,,,,,,,,,81.0,24.0,3668.0,120.0,14.0,5932.0,102.0,5.0,5785.0,161.0,17.0,7806.0,20.0,5.0,1024.0,48.0,10.0,1855.0,,,,520.0,6.0,25982.0,,,,332.0,16.0,8724.0,,,,221.0,31.0,2920.0,180.0,40.0,4001.0,,,
17019,Champaign County,210,-88.2,40.13,2586.07,0.08,0.25,93.0,5.0,5548.0,,,,279.0,6.0,27563.0,3107.0,330.0,217438.0,2849.0,159.0,170877.0,2636.0,110.0,172793.0,3228.0,292.0,226936.0,2136.0,219.0,97050.0,2603.0,421.0,162571.0,521.0,24.0,48535.0,3304.0,219.0,103939.0,918.0,63.0,23067.0,14703.0,389.0,1015917.0,901.0,86.0,12581.0,10662.0,557.0,150095.0,3293.0,484.0,121606.0,6.0,4.0,28.0
17021,Christian County,33,-89.28,39.52,1854.02,0.02,0.09,,,,24.0,3.0,1534.0,122.0,3.0,12558.0,298.0,92.0,15257.0,625.0,44.0,38422.0,172.0,14.0,7948.0,333.0,65.0,15022.0,118.0,19.0,3364.0,141.0,32.0,5471.0,290.0,4.0,35422.0,141.0,29.0,6503.0,,,,1447.0,50.0,51611.0,41.0,10.0,598.0,817.0,73.0,10251.0,485.0,93.0,10284.0,,,
17023,Clark County,16,-87.78,39.33,1307.25,0.01,0.0,7.0,3.0,244.0,59.0,13.0,2955.0,,,,322.0,32.0,15547.0,252.0,26.0,11039.0,21.0,9.0,1017.0,156.0,32.0,6635.0,35.0,5.0,920.0,165.0,17.0,9617.0,,,,19.0,7.0,765.0,,,,242.0,27.0,7788.0,19.0,3.0,317.0,634.0,38.0,8301.0,140.0,46.0,2319.0,,,
17025,Clay County,13,-98.21,33.69,1216.06,0.01,0.19,,,,73.0,20.0,2415.0,,,,47.0,19.0,1542.0,225.0,23.0,9830.0,106.0,7.0,5520.0,114.0,26.0,5331.0,51.0,6.0,1101.0,105.0,14.0,2550.0,,,,83.0,8.0,1802.0,,,,681.0,45.0,28271.0,8.0,3.0,88.0,221.0,28.0,3412.0,164.0,52.0,3088.0,,,
17027,Clinton County,38,-89.42,38.59,1303.11,0.03,0.3,6.0,4.0,457.0,12.0,3.0,568.0,23.0,3.0,1988.0,917.0,138.0,54221.0,364.0,37.0,17820.0,146.0,12.0,5099.0,293.0,53.0,14764.0,220.0,19.0,7195.0,199.0,43.0,9931.0,,,,111.0,31.0,4235.0,142.0,7.0,3793.0,1859.0,89.0,58006.0,128.0,15.0,1733.0,1094.0,88.0,14306.0,455.0,106.0,9563.0,,,
17029,Coles County,51,-88.22,39.53,1320.97,0.04,0.1,,,,30.0,4.0,1932.0,156.0,4.0,15939.0,740.0,99.0,49227.0,515.0,46.0,31841.0,447.0,25.0,20479.0,754.0,92.0,48599.0,166.0,47.0,5067.0,464.0,61.0,17556.0,1491.0,7.0,55607.0,890.0,52.0,24105.0,81.0,9.0,1301.0,4831.0,151.0,233811.0,292.0,18.0,2988.0,2150.0,116.0,27895.0,674.0,135.0,17468.0,,,
17031,Cook County,5170,-87.76,41.82,2480.0,2.08,0.47,97.0,17.0,3723.0,302.0,11.0,36167.0,6604.0,114.0,870544.0,73941.0,10699.0,5965023.0,112788.0,6274.0,9561403.0,76933.0,2837.0,8631832.0,197167.0,8544.0,25880017.0,45798.0,6836.0,3320210.0,245217.0,19350.0,28522437.0,99644.0,1016.0,11778626.0,142667.0,6507.0,6872278.0,113604.0,2199.0,5685245.0,386104.0,15385.0,21410609.0,43664.0,2150.0,1588050.0,248905.0,12416.0,4601670.0,107369.0,12733.0,5031415.0,122.0,103.0,5431.0
17033,Crawford County,19,-80.14,41.7,1154.5,0.02,0.1,,,,122.0,27.0,4171.0,,,,455.0,33.0,19247.0,149.0,21.0,7502.0,49.0,8.0,1137.0,221.0,26.0,11699.0,91.0,12.0,2629.0,223.0,29.0,9925.0,95.0,4.0,8070.0,126.0,18.0,3462.0,90.0,4.0,1838.0,846.0,37.0,34248.0,16.0,4.0,683.0,529.0,39.0,5723.0,230.0,61.0,5747.0,,,
17035,Cumberland County,11,-77.28,40.15,898.62,0.01,0.1,,,,4.0,3.0,100.0,,,,58.0,19.0,2357.0,156.0,16.0,5227.0,3.0,3.0,44.0,88.0,15.0,4102.0,,,,18.0,6.0,627.0,,,,26.0,8.0,553.0,,,,334.0,19.0,11365.0,,,,98.0,14.0,1026.0,93.0,26.0,1698.0,,,
17037,DeKalb County,105,-88.77,41.89,1643.74,0.06,0.54,6.0,5.0,626.0,29.0,3.0,2034.0,93.0,5.0,13584.0,1775.0,223.0,154727.0,823.0,77.0,47888.0,799.0,32.0,27808.0,766.0,118.0,54367.0,373.0,72.0,14237.0,1079.0,135.0,56014.0,371.0,10.0,35591.0,774.0,124.0,39413.0,219.0,21.0,6348.0,5071.0,212.0,232645.0,548.0,36.0,5313.0,3306.0,228.0,44779.0,1172.0,225.0,26469.0,,,
17039,De Witt County,16,-93.22,39.38,1049.04,0.02,0.01,,,,,,,631.0,4.0,80003.0,308.0,46.0,17123.0,390.0,27.0,31314.0,17.0,7.0,777.0,101.0,23.0,5416.0,35.0,10.0,700.0,212.0,24.0,12461.0,,,,276.0,19.0,13001.0,,,,508.0,23.0,17470.0,66.0,6.0,1035.0,360.0,37.0,6543.0,120.0,38.0,2461.0,,,
17041,Douglas County,20,-88.22,39.76,1080.55,0.02,0.07,,,,,,,,,,396.0,69.0,26230.0,369.0,33.0,21650.0,35.0,8.0,1380.0,201.0,32.0,9861.0,53.0,11.0,1437.0,103.0,29.0,3022.0,21.0,3.0,1422.0,254.0,19.0,10745.0,,,,326.0,32.0,11846.0,25.0,5.0,505.0,775.0,52.0,10949.0,199.0,58.0,5478.0,,,
17043,DuPage County,926,-88.09,41.86,871.2,1.06,0.52,11.0,7.0,295.0,13.0,9.0,1532.0,4609.0,66.0,600962.0,30968.0,3073.0,2585521.0,58284.0,2630.0,4751822.0,14671.0,560.0,1550713.0,33148.0,2273.0,3706501.0,11179.0,1532.0,761654.0,51050.0,5010.0,4272470.0,26469.0,379.0,3244559.0,48370.0,1879.0,2153514.0,16235.0,524.0,656646.0,68925.0,3596.0,3900296.0,9514.0,469.0,179371.0,46276.0,2262.0,767145.0,24913.0,2598.0,995176.0,18.0,30.0,602.0
17045,Edgar County,17,-87.73,39.67,1615.97,0.01,0.04,,,,,,,,,,111.0,33.0,7889.0,555.0,11.0,23789.0,36.0,10.0,1745.0,194.0,25.0,12387.0,14.0,10.0,363.0,77.0,23.0,3115.0,,,,138.0,8.0,4588.0,16.0,4.0,231.0,1055.0,28.0,50248.0,35.0,4.0,342.0,378.0,34.0,5281.0,189.0,40.0,4475.0,,,
17047,Edwards County,6,-100.35,29.91,576.81,0.01,0.0,,,,,,,,,,49.0,15.0,2140.0,164.0,14.0,9444.0,,,,68.0,7.0,3347.0,12.0,3.0,235.0,28.0,8.0,851.0,,,,8.0,5.0,369.0,,,,79.0,9.0,2426.0,,,,47.0,6.0,396.0,87.0,33.0,1970.0,,,
17049,Effingham County,34,-88.6,39.05,1243.2,0.03,0.57,19.0,7.0,1778.0,,,,86.0,4.0,7312.0,1178.0,153.0,81361.0,1539.0,73.0,88403.0,205.0,31.0,8799.0,434.0,79.0,22307.0,134.0,38.0,7655.0,442.0,64.0,23058.0,9595.0,7.0,429937.0,628.0,52.0,19114.0,62.0,5.0,651.0,3022.0,142.0,132663.0,444.0,17.0,14081.0,2428.0,118.0,37900.0,1360.0,134.0,47645.0,,,
17051,Fayette County,21,-96.96,29.84,1878.58,0.01,0.01,67.0,3.0,1712.0,196.0,18.0,6909.0,27.0,4.0,1707.0,254.0,50.0,10905.0,390.0,26.0,19223.0,63.0,11.0,1875.0,239.0,35.0,9812.0,18.0,10.0,647.0,115.0,18.0,4503.0,,,,19.0,10.0,771.0,,,,827.0,53.0,27672.0,56.0,8.0,530.0,556.0,47.0,7115.0,254.0,65.0,5830.0,,,
17053,Ford County,13,-88.26,40.5,1259.37,0.01,0.0,,,,,,,89.0,4.0,8200.0,140.0,32.0,8386.0,331.0,30.0,17696.0,28.0,8.0,779.0,114.0,24.0,5352.0,8.0,6.0,268.0,100.0,16.0,4077.0,,,,167.0,8.0,3864.0,,,,1307.0,34.0,62881.0,18.0,4.0,63.0,331.0,31.0,4439.0,174.0,50.0,4131.0,,,
17055,Franklin County,39,-95.22,33.2,1117.55,0.03,0.19,,,,462.0,6.0,30897.0,,,,398.0,66.0,19477.0,265.0,29.0,13144.0,184.0,11.0,6330.0,224.0,53.0,10054.0,62.0,11.0,1764.0,153.0,45.0,6309.0,,,,457.0,28.0,18639.0,15.0,3.0,359.0,903.0,64.0,35081.0,53.0,11.0,600.0,885.0,78.0,12786.0,415.0,98.0,10602.0,,,
17057,Fulton County,35,-90.18,40.47,2285.97,0.02,0.0,27.0,5.0,1524.0,,,,108.0,4.0,11443.0,315.0,63.0,14429.0,238.0,21.0,11394.0,147.0,11.0,5846.0,342.0,45.0,15322.0,48.0,16.0,699.0,197.0,33.0,8357.0,,,,104.0,17.0,2992.0,11.0,3.0,129.0,1706.0,64.0,74180.0,149.0,11.0,1134.0,627.0,70.0,8125.0,326.0,89.0,6360.0,,,
17059,Gallatin County,5,-88.23,37.75,849.48,0.01,0.0,,,,,,,,,,7.0,4.0,61.0,59.0,5.0,2774.0,,,,20.0,4.0,922.0,,,,20.0,7.0,506.0,,,,,,,,,,94.0,6.0,2615.0,,,,37.0,4.0,485.0,38.0,16.0,833.0,,,
17061,Greene County,13,-90.39,39.36,1414.83,0.01,0.24,,,,,,,,,,55.0,16.0,2835.0,177.0,18.0,7660.0,2.0,3.0,114.0,124.0,15.0,9610.0,14.0,4.0,248.0,72.0,12.0,2197.0,,,,37.0,5.0,1730.0,,,,332.0,17.0,11220.0,5.0,3.0,69.0,204.0,21.0,1853.0,98.0,29.0,2060.0,,,
17063,Grundy County,51,-88.41,41.27,1115.04,0.05,0.19,,,,,,,796.0,6.0,112384.0,1074.0,136.0,93701.0,542.0,41.0,42057.0,123.0,20.0,6015.0,310.0,65.0,18164.0,81.0,32.0,2584.0,680.0,84.0,39896.0,41.0,4.0,1707.0,307.0,48.0,16004.0,90.0,12.0,1467.0,2558.0,145.0,125224.0,248.0,25.0,4458.0,2070.0,131.0,29567.0,746.0,142.0,23919.0,,,
17065,Hamilton County,8,-97.97,31.64,1128.96,0.01,0.15,,,,,,,,,,50.0,16.0,2380.0,110.0,8.0,5682.0,51.0,6.0,2187.0,42.0,14.0,1847.0,19.0,5.0,726.0,41.0,13.0,1165.0,,,,6.0,4.0,342.0,,,,440.0,20.0,12798.0,11.0,4.0,291.0,118.0,8.0,1322.0,118.0,37.0,2697.0,,,
17067,Hancock County,18,-91.15,40.39,2109.26,0.01,0.09,,,,29.0,3.0,1389.0,41.0,6.0,3247.0,143.0,30.0,6257.0,297.0,30.0,15179.0,31.0,9.0,1361.0,159.0,25.0,7146.0,20.0,8.0,351.0,202.0,23.0,12195.0,,,,20.0,11.0,528.0,,,,486.0,29.0,22963.0,5.0,3.0,176.0,217.0,34.0,2633.0,211.0,56.0,4322.0,,,
17069,Hardin County,4,-94.4,30.3,470.14,0.01,0.0,,,,77.0,4.0,3615.0,,,,,,,,,,,,,14.0,5.0,395.0,,,,22.0,3.0,175.0,,,,,,,,,,283.0,12.0,10229.0,,,,18.0,6.0,383.0,7.0,4.0,38.0,,,
17071,Henderson County,7,-95.79,32.18,1023.73,0.01,0.0,,,,,,,,,,38.0,14.0,2263.0,134.0,13.0,6929.0,,,,85.0,13.0,3409.0,,,,25.0,7.0,666.0,,,,,,,,,,128.0,6.0,4649.0,,,,76.0,11.0,536.0,22.0,14.0,744.0,,,
17073,Henry County,49,-90.12,41.34,2138.32,0.02,0.07,144.0,9.0,9440.0,,,,37.0,10.0,4261.0,985.0,111.0,61475.0,937.0,64.0,59574.0,156.0,20.0,6719.0,505.0,82.0,27666.0,49.0,22.0,1001.0,268.0,51.0,9150.0,17.0,3.0,788.0,145.0,38.0,4551.0,59.0,4.0,899.0,1578.0,87.0,66869.0,172.0,22.0,2558.0,991.0,94.0,12382.0,537.0,146.0,12218.0,6.0,3.0,138.0
17075,Iroquois County,27,-87.83,40.74,2897.78,0.01,0.09,14.0,3.0,340.0,,,,,,,377.0,83.0,26290.0,541.0,54.0,27365.0,97.0,14.0,2320.0,334.0,53.0,16779.0,44.0,15.0,1112.0,93.0,35.0,3434.0,,,,148.0,26.0,5950.0,9.0,3.0,115.0,1568.0,66.0,50895.0,34.0,8.0,1019.0,467.0,57.0,5876.0,235.0,77.0,5229.0,,,
17077,Jackson County,58,-96.56,28.92,1559.83,0.04,0.29,9.0,6.0,255.0,,,,45.0,3.0,4532.0,802.0,83.0,52590.0,291.0,28.0,14624.0,183.0,18.0,10258.0,575.0,82.0,27532.0,300.0,63.0,7659.0,604.0,89.0,33011.0,550.0,5.0,41733.0,628.0,55.0,24170.0,210.0,12.0,3866.0,3804.0,191.0,217743.0,152.0,19.0,1966.0,2173.0,134.0,27438.0,938.0,161.0,17992.0,,,
17079,Jasper County,10,-94.0,30.75,1290.5,0.01,0.0,,,,17.0,6.0,519.0,138.0,3.0,14503.0,87.0,25.0,5589.0,209.0,23.0,9034.0,13.0,3.0,285.0,112.0,12.0,5879.0,6.0,5.0,111.0,30.0,9.0,1079.0,,,,5.0,4.0,120.0,,,,147.0,18.0,3905.0,,,,220.0,18.0,2837.0,93.0,31.0,1906.0,,,
17081,Jefferson County,38,-94.17,29.83,1511.88,0.03,0.08,,,,62.0,10.0,2526.0,105.0,3.0,10624.0,337.0,61.0,17299.0,1063.0,62.0,52376.0,170.0,16.0,5096.0,405.0,68.0,29849.0,96.0,29.0,2942.0,386.0,61.0,24516.0,31.0,5.0,2468.0,401.0,24.0,9670.0,,,,3611.0,134.0,179011.0,83.0,12.0,1818.0,1603.0,83.0,23743.0,763.0,124.0,22368.0,,,
17083,Jersey County,22,-90.33,39.08,977.66,0.02,0.28,8.0,3.0,130.0,,,,37.0,3.0,3108.0,293.0,50.0,15895.0,155.0,16.0,6992.0,53.0,11.0,2170.0,205.0,29.0,9475.0,29.0,11.0,735.0,112.0,19.0,6441.0,,,,27.0,13.0,773.0,570.0,4.0,15849.0,935.0,37.0,32907.0,57.0,8.0,1441.0,732.0,52.0,9998.0,256.0,51.0,6376.0,,,
17085,Jo Daviess County,21,-90.17,42.35,1601.91,0.01,0.0,6.0,3.0,134.0,,,,,,,397.0,91.0,21801.0,177.0,24.0,9995.0,30.0,7.0,1033.0,183.0,37.0,8482.0,131.0,15.0,10863.0,145.0,46.0,8195.0,,,,284.0,34.0,12040.0,,,,737.0,42.0,23874.0,79.0,17.0,2192.0,1354.0,90.0,22187.0,286.0,66.0,8733.0,,,
17087,Johnson County,12,-97.36,32.38,902.97,0.01,0.08,,,,,,,,,,74.0,13.0,3116.0,32.0,6.0,1216.0,,,,61.0,15.0,3339.0,9.0,4.0,104.0,99.0,12.0,1358.0,,,,67.0,7.0,3474.0,,,,261.0,18.0,6665.0,,,,219.0,19.0,3176.0,99.0,21.0,1764.0,,,
17089,Kane County,532,-88.42,41.92,1357.64,0.39,0.66,84.0,13.0,3995.0,142.0,15.0,11672.0,422.0,13.0,57027.0,12177.0,1570.0,944559.0,13047.0,832.0,938230.0,2061.0,174.0,121163.0,7503.0,747.0,538975.0,2824.0,486.0,149675.0,9911.0,1479.0,722187.0,4737.0,68.0,359834.0,16570.0,902.0,597513.0,4259.0,161.0,129660.0,25162.0,1219.0,1304275.0,3262.0,193.0,78884.0,18508.0,996.0,293515.0,9318.0,1183.0,324630.0,4.0,6.0,170.0
17091,Kankakee County,110,-87.85,41.13,1764.54,0.06,0.34,8.0,5.0,702.0,30.0,4.0,2224.0,76.0,4.0,10695.0,1031.0,206.0,74750.0,2161.0,116.0,124618.0,354.0,35.0,17206.0,1024.0,134.0,49492.0,335.0,100.0,13080.0,685.0,121.0,31694.0,617.0,15.0,47404.0,1077.0,109.0,50402.0,1934.0,19.0,37155.0,8082.0,296.0,345085.0,438.0,31.0,6881.0,4392.0,258.0,59142.0,1398.0,251.0,38631.0,,,
17093,Kendall County,128,-98.73,29.94,834.55,0.15,0.52,10.0,4.0,328.0,46.0,4.0,4143.0,98.0,4.0,11162.0,1421.0,334.0,93151.0,1095.0,84.0,50920.0,340.0,31.0,25046.0,744.0,109.0,86380.0,181.0,85.0,7527.0,940.0,238.0,48203.0,4.0,3.0,260.0,902.0,149.0,38097.0,589.0,36.0,18097.0,1795.0,195.0,62776.0,570.0,38.0,7116.0,3853.0,210.0,56849.0,1116.0,226.0,32261.0,4.0,3.0,36.0
17095,Knox County,50,-99.71,33.59,1864.39,0.03,0.01,,,,,,,,,,332.0,68.0,19584.0,593.0,46.0,32533.0,163.0,11.0,5657.0,406.0,76.0,21040.0,119.0,36.0,3548.0,265.0,53.0,13214.0,,,,429.0,46.0,15381.0,1230.0,10.0,22243.0,3375.0,133.0,118505.0,240.0,22.0,3740.0,1671.0,124.0,21746.0,681.0,113.0,18803.0,,,
17097,Lake County,700,-122.78,39.05,1218.66,0.57,0.67,89.0,29.0,3681.0,102.0,4.0,12866.0,668.0,20.0,92338.0,11658.0,1970.0,918454.0,37181.0,1214.0,4643799.0,3832.0,274.0,323838.0,14897.0,1128.0,1688099.0,3981.0,859.0,278637.0,32000.0,2886.0,3230752.0,24999.0,156.0,3914128.0,18422.0,1421.0,906524.0,6992.0,333.0,229410.0,37516.0,2116.0,2020268.0,6403.0,396.0,382144.0,28003.0,1550.0,451391.0,10278.0,1693.0,335204.0,14.0,17.0,510.0
17099,LaSalle County,109,-88.9,41.35,2973.81,0.04,0.27,111.0,7.0,6310.0,600.0,12.0,51206.0,989.0,15.0,133980.0,1163.0,215.0,80647.0,1558.0,116.0,93917.0,462.0,44.0,24400.0,1239.0,169.0,71902.0,329.0,69.0,12979.0,1257.0,170.0,60547.0,189.0,8.0,20839.0,3008.0,103.0,69397.0,338.0,21.0,7941.0,4812.0,257.0,192727.0,483.0,54.0,6266.0,4026.0,313.0,52787.0,1496.0,310.0,41337.0,,,
17101,Lawrence County,16,-80.35,41.0,969.2,0.02,0.01,,,,207.0,12.0,12592.0,,,,85.0,18.0,5860.0,194.0,11.0,8201.0,16.0,5.0,477.0,336.0,28.0,16348.0,22.0,7.0,597.0,39.0,8.0,1398.0,,,,119.0,13.0,5637.0,,,,411.0,19.0,14179.0,67.0,3.0,769.0,263.0,22.0,3275.0,122.0,36.0,2479.0,,,
17103,Lee County,34,-96.96,30.3,1886.86,0.02,0.02,,,,,,,133.0,6.0,19988.0,251.0,78.0,13015.0,397.0,28.0,22073.0,97.0,11.0,4117.0,263.0,56.0,14562.0,89.0,23.0,3171.0,286.0,32.0,15536.0,,,,366.0,29.0,14285.0,,,,2050.0,87.0,94101.0,120.0,12.0,1224.0,987.0,79.0,13159.0,468.0,93.0,12538.0,,,
17105,Livingston County,36,-88.56,40.87,2709.0,0.01,0.3,20.0,7.0,1070.0,42.0,7.0,4639.0,94.0,6.0,9641.0,533.0,94.0,34663.0,1105.0,60.0,67661.0,83.0,17.0,2578.0,427.0,65.0,23359.0,68.0,17.0,2583.0,186.0,42.0,9438.0,,,,533.0,24.0,15499.0,,,,1448.0,67.0,55990.0,102.0,15.0,1692.0,833.0,71.0,9240.0,713.0,116.0,16908.0,,,
17107,Logan County,29,-89.38,40.11,1603.09,0.02,0.12,60.0,4.0,3052.0,,,,47.0,3.0,5330.0,190.0,48.0,7264.0,515.0,39.0,31826.0,62.0,13.0,1072.0,245.0,55.0,11475.0,54.0,22.0,1722.0,231.0,30.0,9402.0,,,,215.0,11.0,12631.0,517.0,6.0,11081.0,1412.0,61.0,58270.0,51.0,8.0,641.0,745.0,57.0,9674.0,383.0,73.0,7451.0,,,
17109,McDonough County,30,-90.68,40.44,1528.37,0.02,0.0,,,,,,,44.0,3.0,4002.0,250.0,40.0,19004.0,222.0,28.0,9503.0,88.0,10.0,4440.0,284.0,47.0,15131.0,88.0,26.0,1962.0,218.0,39.0,7201.0,66.0,4.0,3133.0,173.0,31.0,6213.0,176.0,4.0,4526.0,1891.0,67.0,78301.0,148.0,9.0,1507.0,1286.0,88.0,17308.0,301.0,89.0,6184.0,2.0,3.0,34.0
17111,McHenry County,307,-88.46,42.33,1583.22,0.19,0.48,50.0,19.0,1732.0,81.0,9.0,7206.0,226.0,7.0,28564.0,7760.0,1091.0,631560.0,4559.0,430.0,321623.0,884.0,94.0,42770.0,2024.0,413.0,148169.0,896.0,282.0,37262.0,3249.0,874.0,207715.0,1759.0,44.0,199987.0,5387.0,576.0,245645.0,725.0,85.0,14765.0,12235.0,803.0,676071.0,2279.0,146.0,34243.0,10179.0,634.0,157326.0,4530.0,795.0,141405.0,3.0,4.0,68.0
17113,McLean County,172,-88.82,40.46,3072.44,0.06,0.31,53.0,4.0,3157.0,,,,203.0,8.0,21540.0,2078.0,286.0,122053.0,3202.0,177.0,229496.0,728.0,61.0,44007.0,18750.0,246.0,1950447.0,710.0,137.0,27173.0,2530.0,318.0,174170.0,515.0,21.0,36492.0,4805.0,203.0,149090.0,2484.0,57.0,58335.0,8488.0,363.0,463629.0,1180.0,71.0,18430.0,8443.0,394.0,115251.0,3416.0,408.0,110630.0,3.0,4.0,30.0
17115,Macon County,105,-88.96,39.85,1517.07,0.07,0.17,4.0,3.0,73.0,,,,794.0,8.0,74118.0,3124.0,192.0,155487.0,1619.0,102.0,120060.0,410.0,39.0,16650.0,1547.0,148.0,101231.0,386.0,78.0,14232.0,1318.0,136.0,80617.0,2593.0,78.0,320042.0,1274.0,127.0,43395.0,1299.0,17.0,27192.0,8123.0,265.0,382055.0,625.0,49.0,8472.0,4355.0,242.0,59631.0,1950.0,292.0,57329.0,4.0,3.0,414.0
17117,Macoupin County,45,-89.93,39.24,2247.26,0.02,0.0,,,,,,,76.0,4.0,7688.0,364.0,112.0,16744.0,598.0,42.0,31700.0,323.0,17.0,21720.0,381.0,58.0,18444.0,45.0,14.0,1163.0,119.0,35.0,4584.0,,,,192.0,37.0,14180.0,612.0,6.0,6971.0,1436.0,76.0,51802.0,87.0,18.0,1017.0,967.0,89.0,11339.0,394.0,120.0,8095.0,,,
17119,Madison County,264,-95.95,30.96,1916.69,0.14,0.53,,,,72.0,8.0,5346.0,1046.0,22.0,93164.0,5891.0,523.0,443977.0,4292.0,212.0,243629.0,626.0,90.0,29231.0,2852.0,436.0,157937.0,1020.0,230.0,41752.0,3682.0,465.0,311011.0,760.0,19.0,57903.0,3577.0,261.0,142546.0,693.0,60.0,13556.0,14293.0,666.0,591379.0,2371.0,107.0,37867.0,11227.0,567.0,153288.0,4740.0,706.0,129567.0,2.0,4.0,45.0
17121,Marion County,38,-94.34,32.79,1492.12,0.03,0.01,,,,65.0,15.0,3737.0,35.0,5.0,3501.0,487.0,64.0,27191.0,313.0,30.0,16611.0,150.0,24.0,5555.0,355.0,65.0,17796.0,107.0,26.0,3244.0,203.0,48.0,8189.0,11.0,4.0,766.0,189.0,30.0,7421.0,47.0,3.0,454.0,2770.0,116.0,106353.0,109.0,16.0,1347.0,999.0,84.0,12255.0,524.0,123.0,11446.0,,,
17123,Marshall County,12,-89.3,41.03,1032.28,0.01,0.14,,,,,,,,,,145.0,30.0,8385.0,219.0,16.0,12353.0,22.0,3.0,817.0,86.0,18.0,3992.0,6.0,6.0,161.0,30.0,11.0,1672.0,,,,2.0,6.0,117.0,,,,451.0,17.0,10574.0,10.0,5.0,393.0,190.0,26.0,1832.0,100.0,34.0,1548.0,,,
17125,Mason County,13,-99.22,30.71,1459.61,0.01,0.0,,,,,,,,,,63.0,16.0,2913.0,282.0,27.0,16937.0,28.0,4.0,579.0,125.0,20.0,6887.0,49.0,6.0,1118.0,23.0,10.0,808.0,,,,11.0,6.0,362.0,,,,535.0,23.0,21353.0,4.0,4.0,162.0,203.0,30.0,2457.0,133.0,41.0,2643.0,,,
17127,Massac County,14,-88.72,37.22,627.44,0.02,0.0,,,,,,,,,,59.0,15.0,2743.0,93.0,8.0,6056.0,41.0,4.0,1002.0,107.0,19.0,5963.0,38.0,10.0,1102.0,109.0,9.0,5943.0,,,,14.0,6.0,1509.0,,,,762.0,24.0,25300.0,,,,718.0,26.0,22697.0,163.0,43.0,5702.0,,,
17129,Menard County,12,-99.83,30.86,817.02,0.01,0.11,,,,,,,,,,81.0,25.0,4358.0,93.0,12.0,5158.0,,,,91.0,15.0,5169.0,3.0,4.0,265.0,81.0,15.0,3148.0,,,,28.0,8.0,892.0,,,,81.0,10.0,2760.0,28.0,6.0,361.0,99.0,17.0,1540.0,93.0,29.0,2523.0,,,
17131,Mercer County,16,-80.3,41.33,1473.2,0.01,0.0,,,,,,,2.0,8.0,287.0,87.0,24.0,5898.0,152.0,15.0,7301.0,40.0,8.0,1615.0,126.0,24.0,5687.0,4.0,6.0,160.0,31.0,12.0,1072.0,,,,97.0,11.0,3044.0,,,,382.0,23.0,14027.0,90.0,7.0,1027.0,177.0,20.0,2017.0,106.0,36.0,1831.0,,,
17133,Monroe County,34,-90.18,38.27,1031.31,0.03,0.72,,,,,,,,,,447.0,101.0,26430.0,366.0,23.0,20497.0,146.0,9.0,9257.0,378.0,67.0,21454.0,161.0,29.0,6722.0,700.0,79.0,51112.0,162.0,4.0,13775.0,600.0,52.0,24702.0,95.0,9.0,1865.0,967.0,91.0,28507.0,309.0,23.0,3866.0,1402.0,84.0,19203.0,702.0,105.0,20093.0,,,
17135,Montgomery County,29,-95.51,30.3,1838.14,0.02,0.0,,,,115.0,3.0,4707.0,207.0,4.0,18207.0,303.0,72.0,17850.0,433.0,38.0,19372.0,131.0,11.0,3524.0,391.0,53.0,17925.0,65.0,19.0,1731.0,158.0,32.0,9071.0,14.0,6.0,661.0,146.0,20.0,4068.0,30.0,4.0,552.0,1437.0,64.0,54089.0,99.0,14.0,925.0,944.0,73.0,11971.0,345.0,80.0,7312.0,5.0,3.0,70.0
17137,Morgan County,34,-90.19,39.71,1482.66,0.02,0.03,,,,,,,,,,325.0,68.0,17562.0,519.0,42.0,26809.0,153.0,14.0,5236.0,1092.0,56.0,58242.0,86.0,25.0,2971.0,453.0,36.0,24248.0,80.0,4.0,6334.0,331.0,35.0,11993.0,999.0,8.0,19432.0,2295.0,95.0,98295.0,216.0,14.0,2268.0,1578.0,86.0,18519.0,397.0,90.0,8930.0,3.0,4.0,34.0
17139,Moultrie County,15,-88.61,39.64,892.23,0.02,0.22,,,,,,,,,,332.0,55.0,23037.0,87.0,13.0,5030.0,100.0,7.0,6370.0,133.0,17.0,6246.0,9.0,5.0,162.0,125.0,15.0,5224.0,,,,317.0,10.0,9104.0,,,,667.0,33.0,22268.0,45.0,5.0,514.0,214.0,27.0,3086.0,141.0,40.0,2994.0,,,
17141,Ogle County,51,-89.31,42.04,1977.3,0.03,0.18,27.0,5.0,1507.0,102.0,5.0,7778.0,752.0,4.0,108570.0,555.0,107.0,37865.0,603.0,44.0,35754.0,109.0,20.0,4801.0,459.0,69.0,25203.0,133.0,41.0,4280.0,291.0,69.0,15995.0,,,,497.0,44.0,26351.0,,,,1550.0,83.0,55891.0,60.0,15.0,1149.0,1206.0,114.0,15042.0,602.0,140.0,14377.0,,,
17143,Peoria County,181,-89.77,40.8,1633.14,0.11,0.42,8.0,4.0,825.0,,,,764.0,12.0,75570.0,2991.0,317.0,234401.0,3076.0,184.0,181402.0,1564.0,86.0,82474.0,3557.0,332.0,317953.0,947.0,186.0,40736.0,4703.0,406.0,317415.0,12473.0,30.0,1910632.0,6604.0,229.0,233458.0,3449.0,51.0,90866.0,24926.0,537.0,1500743.0,2148.0,76.0,26720.0,7929.0,471.0,111088.0,6588.0,448.0,284384.0,,,
17145,Perry County,21,-89.38,38.08,1157.81,0.02,0.11,,,,389.0,4.0,29721.0,,,,124.0,33.0,5792.0,196.0,15.0,8508.0,24.0,5.0,1196.0,153.0,31.0,6705.0,21.0,6.0,492.0,67.0,25.0,2603.0,,,,62.0,15.0,2011.0,,,,1186.0,49.0,38386.0,13.0,3.0,244.0,438.0,34.0,5356.0,316.0,83.0,5735.0,,,
17147,Piatt County,16,-88.61,39.97,1138.25,0.01,0.12,12.0,3.0,812.0,,,,,,,118.0,35.0,6922.0,214.0,26.0,13879.0,10.0,5.0,658.0,158.0,26.0,8599.0,23.0,6.0,744.0,108.0,26.0,5716.0,,,,19.0,14.0,733.0,32.0,3.0,461.0,461.0,24.0,18842.0,13.0,5.0,279.0,312.0,36.0,4244.0,145.0,42.0,2846.0,,,
17149,Pike County,16,-90.85,39.61,2198.43,0.01,0.0,,,,59.0,3.0,2724.0,,,,150.0,37.0,5299.0,289.0,29.0,14665.0,44.0,7.0,1388.0,199.0,33.0,11642.0,124.0,11.0,5089.0,70.0,16.0,3374.0,,,,37.0,9.0,2391.0,,,,687.0,27.0,27689.0,29.0,9.0,438.0,285.0,32.0,4017.0,117.0,45.0,2780.0,,,
17151,Pope County,4,-88.59,37.39,970.41,0.0,0.0,,,,,,,,,,4.0,4.0,103.0,,,,,,,,,,11.0,4.0,347.0,7.0,4.0,218.0,,,,,,,,,,93.0,7.0,1354.0,,,,21.0,6.0,437.0,25.0,11.0,467.0,,,
17153,Pulaski County,5,-89.12,37.23,525.95,0.01,0.0,,,,,,,,,,,,,73.0,6.0,4607.0,,,,37.0,4.0,1219.0,,,,,,,,,,8.0,4.0,201.0,,,,125.0,13.0,1841.0,,,,35.0,8.0,474.0,53.0,20.0,1214.0,,,
17155,Putnam County,6,-89.27,41.2,445.66,0.01,0.0,,,,,,,,,,184.0,30.0,14952.0,70.0,11.0,5196.0,5.0,3.0,295.0,35.0,6.0,2557.0,,,,21.0,3.0,973.0,,,,74.0,9.0,11964.0,,,,27.0,5.0,748.0,5.0,3.0,228.0,39.0,11.0,731.0,37.0,8.0,859.0,,,
17157,Randolph County,32,-89.81,38.05,1546.06,0.02,0.1,,,,201.0,3.0,12565.0,194.0,3.0,23773.0,399.0,65.0,24948.0,582.0,24.0,28398.0,76.0,13.0,3367.0,302.0,50.0,13128.0,28.0,7.0,848.0,327.0,27.0,15540.0,174.0,5.0,8273.0,299.0,21.0,5107.0,137.0,7.0,2417.0,2055.0,72.0,96435.0,32.0,8.0,387.0,835.0,71.0,10275.0,557.0,109.0,19889.0,,,
17159,Richland County,16,-88.09,38.71,937.22,0.02,0.0,,,,85.0,16.0,4596.0,,,,144.0,46.0,5854.0,319.0,24.0,19457.0,49.0,11.0,1775.0,174.0,31.0,9273.0,33.0,7.0,1543.0,153.0,27.0,11278.0,,,,213.0,9.0,5781.0,,,,1073.0,53.0,40223.0,11.0,3.0,140.0,565.0,36.0,7016.0,268.0,65.0,6832.0,,,
17161,Rock Island County,143,-90.58,41.44,1168.59,0.12,0.24,13.0,3.0,507.0,58.0,6.0,4320.0,1125.0,32.0,137229.0,2145.0,234.0,145263.0,2826.0,149.0,170614.0,902.0,47.0,49124.0,2544.0,199.0,182487.0,488.0,130.0,15387.0,3191.0,255.0,235504.0,5238.0,25.0,904757.0,2675.0,128.0,112888.0,2096.0,33.0,45745.0,9756.0,422.0,477332.0,848.0,48.0,9337.0,6011.0,356.0,81900.0,2436.0,366.0,68513.0,15.0,5.0,230.0
17163,St. Clair County,261,-93.79,38.06,1745.39,0.15,0.35,20.0,3.0,912.0,72.0,5.0,4803.0,622.0,21.0,62350.0,3627.0,431.0,231816.0,2602.0,178.0,139466.0,977.0,83.0,51296.0,2013.0,369.0,135399.0,886.0,215.0,33764.0,4426.0,449.0,327550.0,387.0,17.0,29851.0,3526.0,297.0,146422.0,1303.0,56.0,34005.0,13763.0,614.0,660985.0,1437.0,71.0,15224.0,10293.0,530.0,146662.0,4444.0,582.0,124017.0,4.0,6.0,94.0
17165,Saline County,24,-88.53,37.75,1002.12,0.02,0.0,3.0,3.0,51.0,171.0,6.0,11614.0,95.0,4.0,9427.0,295.0,44.0,21053.0,160.0,12.0,7645.0,125.0,8.0,7090.0,365.0,52.0,21024.0,81.0,15.0,3197.0,139.0,33.0,6049.0,,,,86.0,15.0,3580.0,18.0,3.0,253.0,2211.0,69.0,77245.0,30.0,5.0,232.0,685.0,43.0,9249.0,287.0,82.0,6005.0,,,
17167,Sangamon County,196,-89.65,39.76,2271.47,0.09,0.15,25.0,7.0,647.0,270.0,5.0,18639.0,296.0,19.0,29316.0,3114.0,431.0,221628.0,3191.0,201.0,187368.0,1735.0,105.0,130828.0,5347.0,351.0,395360.0,830.0,237.0,31417.0,4127.0,480.0,277336.0,2144.0,32.0,173523.0,3451.0,268.0,106805.0,1258.0,57.0,39963.0,22523.0,467.0,1183440.0,1607.0,108.0,35232.0,9795.0,531.0,132372.0,5558.0,634.0,213307.0,16.0,6.0,330.0
17169,Schuyler County,7,-90.57,40.14,1143.15,0.01,0.63,,,,,,,,,,72.0,21.0,6040.0,64.0,9.0,3707.0,18.0,4.0,561.0,56.0,9.0,2118.0,10.0,3.0,71.0,37.0,11.0,1256.0,,,,55.0,7.0,4585.0,22.0,3.0,297.0,346.0,13.0,12493.0,,,,100.0,12.0,1668.0,68.0,27.0,1356.0,,,
17171,Scott County,5,-90.48,39.63,654.37,0.01,0.22,,,,,,,51.0,3.0,5120.0,21.0,10.0,1941.0,94.0,5.0,4543.0,5.0,3.0,159.0,50.0,8.0,2285.0,,,,6.0,4.0,176.0,,,,,,,,,,13.0,7.0,354.0,,,,39.0,7.0,407.0,26.0,8.0,317.0,3.0,3.0,43.0
17173,Shelby County,22,-94.13,31.77,1989.05,0.01,0.0,,,,19.0,3.0,739.0,,,,148.0,41.0,6913.0,272.0,29.0,12730.0,58.0,7.0,1577.0,176.0,36.0,6843.0,28.0,11.0,766.0,280.0,22.0,16105.0,,,,87.0,17.0,2535.0,,,,615.0,35.0,18105.0,64.0,4.0,1438.0,433.0,41.0,5329.0,264.0,65.0,5820.0,,,
17175,Stark County,5,-89.81,41.07,746.82,0.01,0.0,,,,,,,,,,175.0,13.0,9354.0,79.0,13.0,4874.0,,,,75.0,12.0,2780.0,,,,29.0,7.0,1367.0,,,,,,,,,,97.0,6.0,3387.0,,,,18.0,5.0,247.0,28.0,15.0,320.0,,,
17177,Stephenson County,45,-89.67,42.35,1462.4,0.03,0.12,9.0,6.0,324.0,,,,48.0,3.0,6941.0,2211.0,106.0,199813.0,659.0,43.0,29789.0,131.0,17.0,4404.0,1049.0,80.0,67902.0,90.0,36.0,2796.0,414.0,67.0,22328.0,260.0,11.0,19812.0,642.0,48.0,16752.0,36.0,8.0,614.0,2554.0,100.0,109678.0,292.0,19.0,2998.0,1243.0,89.0,16977.0,783.0,131.0,17893.0,,,
17179,Tazewell County,133,-89.54,40.51,1704.07,0.08,0.5,101.0,4.0,4854.0,,,,81.0,5.0,8257.0,3027.0,296.0,184306.0,2315.0,131.0,130063.0,615.0,48.0,23240.0,1912.0,188.0,122546.0,365.0,101.0,14456.0,1502.0,198.0,80121.0,599.0,25.0,49807.0,1187.0,152.0,50200.0,229.0,23.0,4851.0,5120.0,270.0,165312.0,563.0,54.0,5833.0,6148.0,293.0,87024.0,2156.0,353.0,63495.0,,,
17181,Union County,17,-89.25,37.46,1093.23,0.02,0.22,21.0,4.0,708.0,,,,,,,90.0,31.0,3491.0,80.0,7.0,3209.0,55.0,11.0,1589.0,132.0,25.0,5068.0,25.0,5.0,801.0,108.0,23.0,4172.0,,,,47.0,14.0,880.0,8.0,3.0,94.0,1055.0,59.0,38709.0,17.0,3.0,292.0,362.0,39.0,4084.0,177.0,42.0,4515.0,,,
17183,Vermilion County,77,-87.73,40.17,2334.22,0.03,0.05,0.0,3.0,327.0,,,,130.0,7.0,8808.0,501.0,104.0,32168.0,2045.0,78.0,106923.0,154.0,24.0,4806.0,1127.0,99.0,57978.0,156.0,34.0,6390.0,367.0,68.0,16352.0,113.0,14.0,10618.0,1206.0,53.0,50693.0,142.0,12.0,3599.0,5046.0,144.0,287330.0,174.0,28.0,2524.0,2138.0,140.0,28292.0,882.0,177.0,21957.0,,,
17185,Wabash County,11,-87.85,38.46,589.26,0.02,0.01,,,,231.0,20.0,9800.0,41.0,3.0,3403.0,209.0,12.0,21915.0,185.0,11.0,12608.0,24.0,6.0,969.0,111.0,22.0,5387.0,41.0,11.0,1341.0,109.0,24.0,4983.0,,,,17.0,7.0,362.0,,,,906.0,21.0,34125.0,23.0,3.0,402.0,272.0,18.0,3506.0,188.0,38.0,2855.0,,,
17187,Warren County,17,-79.27,41.81,1406.27,0.01,0.0,3.0,3.0,22.0,,,,,,,79.0,31.0,3087.0,337.0,27.0,16024.0,36.0,9.0,1529.0,212.0,21.0,11725.0,20.0,10.0,218.0,101.0,18.0,3433.0,,,,169.0,12.0,3375.0,,,,611.0,39.0,21036.0,101.0,8.0,998.0,432.0,36.0,5696.0,180.0,55.0,3444.0,,,
17189,Washington County,14,-96.39,30.22,1460.52,0.01,0.0,,,,22.0,4.0,994.0,,,,234.0,37.0,13462.0,1013.0,32.0,45509.0,24.0,11.0,722.0,172.0,37.0,10960.0,10.0,8.0,168.0,102.0,22.0,5517.0,,,,413.0,16.0,10090.0,,,,335.0,24.0,11079.0,35.0,4.0,220.0,343.0,25.0,4765.0,196.0,55.0,3507.0,3.0,3.0,26.0
17191,Wayne County,16,-88.42,38.43,1853.26,0.01,0.0,9.0,3.0,255.0,89.0,24.0,3700.0,53.0,4.0,4758.0,72.0,19.0,2815.0,168.0,19.0,8046.0,23.0,5.0,804.0,146.0,23.0,6742.0,24.0,6.0,586.0,48.0,17.0,1815.0,,,,27.0,8.0,798.0,,,,1018.0,39.0,32337.0,8.0,4.0,39.0,339.0,27.0,4465.0,204.0,60.0,5424.0,1.0,3.0,41.0
17193,White County,14,-88.16,38.06,1299.88,0.01,0.0,,,,177.0,22.0,7714.0,,,,123.0,17.0,6331.0,164.0,21.0,8581.0,33.0,11.0,1071.0,141.0,24.0,7547.0,27.0,8.0,742.0,72.0,15.0,3144.0,161.0,3.0,11999.0,26.0,9.0,826.0,,,,698.0,35.0,20932.0,,,,303.0,26.0,4069.0,207.0,59.0,6221.0,,,
17195,Whiteside County,56,-89.92,41.76,1803.91,0.03,0.02,7.0,6.0,337.0,,,,12.0,3.0,952.0,521.0,105.0,33569.0,555.0,67.0,29617.0,97.0,19.0,3733.0,524.0,92.0,27733.0,95.0,32.0,3679.0,521.0,71.0,21131.0,650.0,5.0,43729.0,714.0,40.0,20051.0,174.0,8.0,3964.0,3409.0,102.0,123437.0,66.0,17.0,1622.0,1497.0,126.0,19315.0,770.0,151.0,17024.0,,,
17197,Will County,690,-88.0,41.42,2199.51,0.31,0.51,40.0,11.0,1125.0,226.0,13.0,19793.0,2141.0,29.0,281742.0,18981.0,1880.0,1353985.0,19221.0,851.0,1360507.0,4690.0,187.0,250268.0,4604.0,745.0,336972.0,2765.0,595.0,137733.0,8478.0,1694.0,528078.0,4653.0,61.0,419671.0,21864.0,1037.0,908270.0,5643.0,215.0,158385.0,28735.0,1745.0,1335830.0,3823.0,233.0,60463.0,25417.0,1250.0,416066.0,11251.0,1514.0,400801.0,12.0,13.0,615.0
17199,Williamson County,67,-97.6,30.66,1150.83,0.06,0.16,,,,,,,262.0,7.0,31498.0,790.0,144.0,42418.0,777.0,66.0,30630.0,260.0,27.0,11377.0,1377.0,123.0,63554.0,200.0,58.0,6442.0,593.0,126.0,26522.0,143.0,6.0,12990.0,707.0,61.0,16419.0,123.0,15.0,2111.0,6613.0,204.0,326284.0,275.0,37.0,5419.0,2722.0,151.0,38458.0,934.0,179.0,25408.0,7.0,4.0,100.0
17201,Winnebago County,284,-89.15,42.33,1344.6,0.21,0.46,46.0,7.0,2059.0,39.0,11.0,1675.0,395.0,10.0,57831.0,3573.0,510.0,268535.0,5230.0,316.0,313309.0,1542.0,85.0,85048.0,3326.0,387.0,228834.0,1117.0,246.0,51337.0,4248.0,527.0,251368.0,1110.0,29.0,79102.0,7425.0,313.0,273044.0,1791.0,68.0,43892.0,20411.0,643.0,1132032.0,2052.0,125.0,27341.0,11254.0,582.0,161553.0,7042.0,667.0,181170.0,6.0,5.0,124.0
17203,Woodford County,39,-89.21,40.81,1405.21,0.03,0.27,,,,,,,,,,724.0,120.0,43535.0,490.0,47.0,37967.0,109.0,19.0,6218.0,239.0,49.0,13497.0,47.0,15.0,1017.0,186.0,54.0,8079.0,,,,166.0,38.0,4959.0,278.0,9.0,7004.0,1405.0,43.0,43151.0,112.0,11.0,1538.0,972.0,56.0,11549.0,473.0,101.0,13212.0,,,
