Fips,Name,Population,Longitude,Latitude,Km2,UrbanDensity,PercentUrban,Emp-11,Est-11,Pay-11,Emp-21,Est-21,Pay-21,Emp-22,Est-22,Pay-22,Emp-23,Est-23,Pay-23,Emp-42,Est-42,Pay-42,Emp-51,Est-51,Pay-51,Emp-52,Est-52,Pay-52,Emp-53,Est-53,Pay-53,Emp-54,Est-54,Pay-54,Emp-55,Est-55,Pay-55,Emp-56,Est-56,Pay-56,Emp-61,Est-61,Pay-61,Emp-62,Est-62,Pay-62,Emp-71,Est-71,Pay-71,Emp-72,Est-72,Pay-72,Emp-81,Est-81,Pay-81,Emp-99,Est-99,Pay-99
45003,Aiken County,170,-81.62,33.57,2797.34,1.7,0.09,123,28,5463,91,4,6088,431,13,30491,2566,259,139485,891,73,41868,460,36,22971,1044,200,66891,426,121,17227,2545,243,197490,133,8,11057,9238,157,755719,497,27,13460,6678,346,262541,863,57,14701,5834,285,80132,2358,334,62361,37,5,384
45005,Allendale County,9,-81.34,32.96,1068.33,0.0,0.0,90,8,4303,,,,,,,37,5,1177,53,8,3022,11,5,407,35,7,1668,6,3,126,33,8,1962,,,,,,,,,,351,13,15277,,,,54,8,720,17,8,206,,,
45071,Newberry County,38,-81.58,34.33,1676.4,0.0,0.0,245,21,10964,,,,,,,791,90,35788,373,32,15962,29,10,1219,175,52,6627,67,24,2799,178,45,6672,33,3,3316,303,33,8731,480,8,11078,1448,69,55125,78,8,975,1155,63,13634,377,104,10330,,,
45037,Edgefield County,27,-81.98,33.76,1313.2,0.0,0.0,96,9,7082,,,,,,,241,44,9429,501,10,32018,9,4,419,43,14,1758,26,15,892,64,19,3126,,,,188,22,5524,66,3,1432,699,29,21968,29,3,475,211,22,2755,426,45,16624,,,
45083,Spartanburg County,314,-82.0,34.94,2123.03,1.79,0.11,58,12,2501,174,11,9176,229,11,21126,7478,602,431794,7669,421,480846,2058,74,111724,3139,512,198847,1244,276,47685,3765,516,222202,3351,78,362427,14592,368,557570,2919,49,88186,14860,612,749712,1014,81,13609,12216,606,178991,5396,764,152818,15,8,295
45023,Chester County,32,-75.77,39.98,1518.04,0.0,0.0,65,7,3285,,,,10,6,1310,369,45,19881,187,18,12880,221,10,11789,136,29,5727,29,15,1098,130,29,4998,,,,192,28,5171,37,3,586,615,45,21736,86,6,2223,669,48,10475,292,84,6913,,,
45027,Clarendon County,34,-80.23,33.67,1801.93,4.7,0.02,165,13,6686,,,,,,,101,33,3347,106,16,5905,,,,222,39,10071,29,16,624,88,27,3670,,,,59,19,1610,109,8,2519,1268,39,41962,67,7,1117,700,56,8814,315,64,6768,,,
45029,Colleton County,38,-80.68,32.86,2785.55,0.0,0.0,361,31,16175,16,3,1217,60,4,5657,503,71,23174,174,26,8654,118,10,5913,240,51,12445,114,42,4428,169,49,17904,,,,224,30,8624,87,3,2231,1268,75,55767,106,12,3826,1397,79,23398,235,64,4528,2,3,17
45067,Marion County,31,-94.34,32.79,1279.92,0.0,0.0,30,7,1999,13,3,527,23,3,2325,151,31,5295,311,22,14960,12,5,1174,294,39,15443,45,15,1313,71,24,2386,32,4,2779,56,18,2390,,,,1145,61,32532,,,,836,47,10253,293,62,5446,,,
45063,Lexington County,295,-81.28,33.9,1962.33,2.05,0.26,112,20,5829,110,8,7931,1527,48,142720,6493,748,334849,6879,340,407565,2987,94,154662,3240,495,225285,1292,325,55045,3531,644,218553,1931,47,146663,8848,404,280187,742,79,17654,16111,682,812545,1041,89,16207,12945,593,177754,6018,775,191364,18,12,517
45085,Sumter County,107,-82.08,28.67,1766.56,2.0,0.03,124,5,9274,,,,112,8,9691,4751,160,309517,534,58,29658,275,22,17185,775,112,43954,291,54,10956,874,129,52745,91,6,10755,1464,81,48287,659,33,19020,4902,199,197277,274,22,3094,4204,175,49588,1747,215,48640,6,4,117
45091,York County,274,-76.74,39.97,1802.69,2.37,0.54,43,12,1536,65,5,3708,1201,13,137340,4218,540,225803,4152,284,274336,1562,102,107483,6937,396,538300,1793,362,86698,8099,571,510289,3614,25,309091,3655,308,134208,985,80,23965,10768,571,467155,1766,91,25573,10753,498,157496,4551,602,130170,3,10,133
45073,Oconee County,78,-83.43,33.83,1744.58,0.0,0.0,74,16,2441,,,,1389,10,166496,1199,223,53040,360,45,14984,252,18,10022,459,101,31904,249,114,11604,503,119,21110,51,8,4905,1125,96,33362,209,10,6597,2315,137,92656,318,23,7016,1916,130,27760,1195,193,30872,0,4,41
45011,Barnwell County,21,-81.42,33.26,1443.56,0.0,0.0,16,4,837,,,,28,3,2120,155,16,5877,50,5,1670,30,8,1470,118,24,4120,15,5,514,110,25,4629,,,,186,22,14605,46,4,1030,422,21,14592,53,3,377,489,32,6558,316,55,6816,,,
45015,Berkeley County,222,-78.04,39.45,3195.65,2.27,0.74,37,8,1346,28,5,2379,347,8,27880,3666,465,197486,2702,161,185413,5068,55,516521,1410,225,95514,704,220,43787,5522,374,464077,245,13,19577,2650,213,111428,624,33,18426,4237,314,185983,821,45,18770,6281,297,99006,2178,342,62446,6,5,147
45019,Charleston County,408,-79.8,32.82,2651.35,2.7,1.88,39,18,2068,12,3,1737,540,26,45228,11268,1290,706565,6765,535,441055,5311,264,363102,7146,866,694580,4949,1151,271046,16926,2060,1393785,2761,65,261360,17623,835,566063,3959,185,136331,27882,1474,1609724,4473,289,90010,36779,1454,674003,10077,1268,334670,23,30,707
45031,Darlington County,67,-79.94,34.36,1466.5,0.0,0.0,68,7,3431,,,,814,8,99450,933,66,36117,657,60,47468,77,13,3656,346,72,16529,93,34,3185,256,65,12351,1487,11,268190,658,44,16198,428,9,13396,2629,112,104051,254,14,3679,1624,93,20132,768,144,17613,6,5,92
45069,Marlboro County,26,-79.67,34.58,1256.93,0.0,0.0,18,4,1726,,,,38,3,3572,280,12,10782,74,9,2866,34,5,1124,93,28,3832,36,11,2945,106,12,3493,,,,,,,48,3,1047,1186,42,35939,,,,354,27,5152,165,30,2751,,,
45043,Georgetown County,62,-79.33,33.44,2255.25,0.0,0.0,312,29,15313,,,,12,3,655,1103,165,53755,414,46,20584,90,17,4642,519,110,30680,600,115,24212,857,176,49592,,,,866,109,32409,139,16,3055,3789,271,212281,1231,52,24969,3031,160,58815,1135,198,27685,,,
45007,Anderson County,200,-95.63,31.78,1957.33,0.0,0.0,34,12,1010,,,,177,10,14006,2419,359,123791,3486,179,204528,446,48,20801,2117,267,386567,509,166,19239,3613,296,202744,383,16,84267,2380,194,86825,1462,29,36724,9744,392,470450,682,51,7409,7665,394,108640,2909,462,78719,4,7,164
45021,Cherokee County,57,-95.18,31.84,1028.98,0.0,0.0,8,4,245,33,3,1830,78,6,6836,781,84,42670,593,23,20214,147,12,2930,267,59,13427,70,29,2671,184,40,7091,146,5,9049,1141,21,25099,689,6,16292,1258,80,38665,185,17,3785,1766,83,24366,710,146,15206,,,
45025,Chesterfield County,46,-77.58,37.39,2087.15,0.0,0.0,155,8,4165,129,8,6543,150,6,11521,993,59,45803,529,25,22023,102,9,5485,230,50,9869,49,17,1799,89,25,2675,,,,147,19,4876,,,,1678,98,47119,46,9,686,956,67,12044,326,86,6740,3,7,168
45047,Greenwood County,71,-96.25,37.87,1201.27,1.96,0.28,48,8,2446,,,,37,3,3292,990,100,48566,792,60,36687,200,19,8079,504,87,29178,198,53,6557,632,96,32826,201,12,19213,890,57,34679,133,8,2394,4737,131,214511,180,17,2795,2954,133,39689,1034,160,19715,2,3,215
45053,Jasper County,30,-94.0,30.75,1737.7,0.0,0.0,31,6,1732,,,,156,4,17152,1221,145,65368,581,34,33214,279,6,19868,101,27,6844,93,27,3972,274,43,14658,,,,778,77,33751,198,7,7172,1025,49,40508,101,5,3365,898,72,14820,298,67,8992,,,
45051,Horry County,344,-78.96,33.92,2967.21,1.98,0.3,87,19,3812,65,4,2218,240,11,16565,7701,1010,346544,2950,280,133047,2003,124,106412,3021,488,219376,4845,824,161296,3835,809,206835,1032,32,56860,5511,580,152795,640,63,16702,14035,846,704201,5508,253,90986,31700,1327,571956,4376,752,116274,17,14,540
45055,Kershaw County,66,-80.57,34.33,1917.25,0.0,0.0,59,12,1916,39,3,3206,71,7,5162,914,154,41200,235,27,13597,1427,16,63301,385,81,18065,76,35,2279,376,71,16292,110,3,2640,676,64,14927,221,21,5958,1948,110,87014,230,27,6367,1498,102,20432,805,130,19859,3,3,39
45061,Lee County,17,-96.96,30.3,1065.12,0.0,0.0,16,3,639,,,,,,,62,10,3216,198,14,5703,,,,62,13,2247,,,,34,11,876,,,,116,11,5616,99,3,2682,281,14,7904,,,,262,17,3195,275,31,6391,,,
45075,Orangeburg County,87,-80.78,33.41,2921.37,2.62,0.04,127,18,5924,,,,188,8,10087,740,94,38854,992,62,51841,149,18,7177,556,98,30655,158,41,5432,408,79,19225,108,8,9709,459,48,12432,839,17,28498,3861,210,184085,340,19,5927,3576,188,45244,835,196,18290,,,
45009,Bamberg County,14,-81.02,33.21,1024.38,0.0,0.0,48,12,2602,,,,,,,20,7,673,63,11,2969,,,,78,15,3881,,,,58,16,2663,,,,62,4,1943,292,5,10619,401,39,12275,,,,209,24,2914,143,42,2142,,,
45001,Abbeville County,25,-82.44,34.23,1325.48,0.0,0.0,17,3,662,,,,,,,157,47,5713,74,6,5441,93,5,8028,79,20,3151,,,,29,14,1557,,,,118,16,3731,247,8,8319,448,26,19377,,,,385,29,5232,246,49,4849,,,
45013,Beaufort County,190,-76.89,35.47,1830.38,1.69,0.21,12,9,585,,,,110,6,7448,3202,697,171465,750,148,39052,517,67,26889,1825,287,159383,2200,556,109455,2786,672,204154,248,20,18914,4001,416,139329,988,67,34878,8501,510,394246,2708,124,65080,13890,588,290005,4046,459,132154,16,11,780
45017,Calhoun County,15,-96.67,28.5,1016.39,0.0,0.0,77,5,2963,,,,66,4,6013,475,37,22006,216,11,10672,,,,32,12,1626,15,5,1481,14,9,762,,,,215,12,10316,,,,353,21,8921,4,3,338,101,11,1857,110,37,2059,,,
45033,Dillon County,30,-79.39,34.4,1052.82,0.0,0.0,22,6,799,,,,,,,112,24,4162,237,13,12122,36,4,2018,152,43,6365,38,22,1339,129,23,3431,,,,31,10,692,,,,1146,48,50947,,,,855,55,10474,312,61,10323,8,3,155
45039,Fairfield County,22,-82.64,39.79,1838.75,0.0,0.0,15,3,501,,,,698,10,80859,138,29,6936,173,10,11158,30,5,1654,69,18,2287,21,11,793,1417,38,121848,,,,260,18,13397,75,5,2158,540,30,18281,,,,219,22,2937,165,45,2734,,,
45081,Saluda County,20,-81.74,34.01,1195.53,0.0,0.0,56,8,2223,,,,,,,245,36,10374,42,7,1404,,,,49,12,1911,19,5,708,81,13,1944,,,,20,6,818,35,3,669,404,21,13112,26,3,391,230,15,2611,114,31,2571,,,
45079,Richland County,415,-88.09,38.71,1999.38,2.26,1.6,136,14,6109,101,5,6881,375,31,36001,6044,552,341336,8830,396,540675,3003,188,195211,12634,745,1038513,2848,556,154211,10955,1217,809250,1976,78,132134,15673,574,443234,4123,137,117687,30217,1079,1649320,2254,113,35188,20960,876,283870,8659,990,258432,12,13,662
45049,Hampton County,19,-81.12,32.79,1456.94,0.0,0.0,133,15,8190,,,,24,4,1826,185,32,7607,275,6,16306,14,3,768,115,24,5315,15,6,953,89,15,19904,,,,32,11,1259,,,,623,26,20266,,,,296,32,3951,135,33,3613,3,3,35
45045,Greenville County,516,-82.34,34.86,2060.7,1.82,1.17,56,15,1931,72,3,4381,589,26,50405,10904,1288,666470,13097,786,903182,5989,236,379031,11152,1022,848137,3394,887,166534,20775,1836,1513907,10209,133,605704,23714,841,781409,6823,211,236977,34409,1384,1620054,4074,211,62683,25894,1310,402899,11340,1336,333597,38,29,1275
45057,Lancaster County,95,-76.24,40.08,1437.8,0.0,0.0,31,6,1379,535,3,42887,32,3,3233,937,121,47206,1654,68,98838,471,29,55446,1370,123,115943,145,75,7281,628,135,45211,2115,9,245645,944,71,30275,56,7,1067,3135,181,131164,171,21,2726,2685,136,38780,1301,219,79126,3,5,308
45035,Dorchester County,161,-76.1,38.39,1479.4,1.97,1.12,86,14,10014,26,3,1859,76,7,5830,1927,321,93863,1017,95,51621,306,34,14486,675,161,37760,462,172,21462,1209,224,67668,111,5,9927,2161,163,67671,438,31,10104,4376,264,175462,981,37,11101,4489,225,68731,1671,281,44867,2,6,139
45041,Florence County,138,-88.39,45.84,2082.97,1.73,0.2,147,20,7101,,,,168,12,14903,1567,196,76350,2842,161,145474,480,44,19303,2470,240,140833,489,111,22229,2098,200,121204,68,13,4323,3010,152,101881,388,34,9160,24047,409,1257134,465,32,6603,7111,314,102719,2538,342,74088,12,9,167
45065,McCormick County,9,-82.28,33.88,1019.52,0.0,0.0,,,,,,,,,,52,7,2045,,,,,,,10,5,361,10,4,511,10,3,58,,,,57,8,1713,,,,171,6,5112,,,,76,13,938,173,16,3654,,,
45077,Pickens County,125,-84.47,34.46,1327.89,3.36,0.11,14,7,497,,,,144,3,13609,1210,257,57001,560,62,23334,160,32,9200,572,138,31992,247,95,7868,821,154,44786,116,6,12479,722,98,19610,654,24,12373,2964,187,114546,802,37,15160,4978,254,69425,1717,261,38900,5,5,54
45087,Union County,27,-89.25,37.46,1335.09,0.0,0.0,67,8,3695,,,,66,6,4690,85,21,3498,147,12,6457,25,5,966,150,28,5715,28,12,577,46,14,1105,,,,130,11,3197,18,3,260,338,24,9555,7,3,54,607,32,7632,329,75,5494,,,
45089,Williamsburg County,31,-79.74,33.64,2426.95,5.21,0.01,68,15,3249,,,,,,,259,36,14888,237,21,8284,234,4,18913,129,33,5668,25,14,559,96,22,4175,,,,739,23,11341,,,,969,49,29877,8,4,137,289,27,3934,171,62,5801,4,3,136
45059,Laurens County,67,-82.94,32.42,1872.36,0.0,0.0,56,11,2673,31,4,1509,116,4,9410,509,76,23526,204,33,12890,100,13,4326,272,60,11892,52,26,1777,440,59,17950,83,4,4698,597,40,15244,759,8,22181,1779,73,67464,131,13,1822,1424,85,19614,563,134,13570,6,3,64
