Fips,Name,Population,Longitude,Latitude,Km2,UrbanDensity,UrbanPercent,Emp-11,Est-11,Pay-11,Emp-21,Est-21,Pay-21,Emp-22,Est-22,Pay-22,Emp-23,Est-23,Pay-23,Emp-42,Est-42,Pay-42,Emp-51,Est-51,Pay-51,Emp-52,Est-52,Pay-52,Emp-53,Est-53,Pay-53,Emp-54,Est-54,Pay-54,Emp-55,Est-55,Pay-55,Emp-56,Est-56,Pay-56,Emp-61,Est-61,Pay-61,Emp-62,Est-62,Pay-62,Emp-71,Est-71,Pay-71,Emp-72,Est-72,Pay-72,Emp-81,Est-81,Pay-81,Emp-99,Est-99,Pay-99
48001,Anderson County,58,-95.63,31.78,2792.04,0.02,0.5,,,,512.0,29.0,31901.0,87.0,18.0,7127.0,516.0,70.0,23778.0,327.0,24.0,20187.0,93.0,12.0,3088.0,279.0,64.0,14438.0,125.0,38.0,4673.0,170.0,67.0,7994.0,118.0,3.0,5388.0,202.0,27.0,9836.0,26.0,5.0,917.0,2002.0,109.0,82274.0,182.0,12.0,2238.0,1349.0,87.0,20268.0,581.0,103.0,14494.0,,,
48003,Andrews County,18,-102.6,32.27,3887.07,0.0,0.68,,,,1472.0,89.0,102073.0,7.0,4.0,640.0,874.0,36.0,62964.0,167.0,19.0,9451.0,149.0,9.0,5618.0,114.0,20.0,7973.0,194.0,22.0,12734.0,138.0,26.0,7101.0,,,,264.0,14.0,20097.0,,,,517.0,19.0,29327.0,,,,407.0,36.0,7025.0,251.0,41.0,10063.0,,,
48005,Angelina County,87,-94.62,31.25,2239.79,0.04,0.25,126.0,30.0,6683.0,366.0,13.0,18992.0,96.0,10.0,7756.0,1453.0,148.0,72134.0,1032.0,73.0,55081.0,327.0,24.0,15631.0,724.0,124.0,43709.0,342.0,86.0,12687.0,1198.0,137.0,68999.0,561.0,17.0,44728.0,1705.0,75.0,50619.0,266.0,13.0,8296.0,7358.0,284.0,261232.0,201.0,15.0,2848.0,3351.0,160.0,52771.0,1365.0,199.0,33305.0,,,
48007,Aransas County,24,-96.95,28.2,750.94,0.03,0.02,,,,35.0,7.0,1690.0,,,,450.0,63.0,19977.0,73.0,8.0,1490.0,25.0,9.0,1345.0,177.0,32.0,13169.0,113.0,34.0,3514.0,146.0,41.0,5770.0,,,,96.0,15.0,2779.0,,,,335.0,39.0,11670.0,82.0,11.0,2280.0,1125.0,93.0,20801.0,297.0,60.0,7092.0,,,
48009,Archer County,9,-98.7,33.58,2397.24,0.0,0.06,,,,170.0,24.0,6757.0,17.0,4.0,751.0,133.0,33.0,5048.0,64.0,16.0,2999.0,,,,23.0,9.0,916.0,5.0,3.0,245.0,25.0,13.0,1423.0,,,,153.0,20.0,4354.0,,,,93.0,15.0,1818.0,,,,31.0,6.0,553.0,69.0,20.0,2117.0,,,
48011,Armstrong County,2,-101.34,34.93,2367.08,0.0,0.0,,,,,,,,,,95.0,9.0,5071.0,14.0,4.0,389.0,,,,10.0,3.0,590.0,,,,,,,,,,,,,,,,,,,,,,29.0,5.0,252.0,39.0,10.0,831.0,,,
48013,Atascosa County,50,-98.53,28.86,3163.61,0.02,0.31,78.0,4.0,4556.0,2677.0,52.0,152635.0,242.0,7.0,19274.0,812.0,78.0,49093.0,699.0,57.0,37316.0,48.0,10.0,2081.0,266.0,52.0,11866.0,223.0,38.0,9028.0,277.0,48.0,12196.0,,,,107.0,14.0,6464.0,14.0,4.0,173.0,1105.0,82.0,47330.0,63.0,6.0,1023.0,1395.0,82.0,22006.0,459.0,84.0,12657.0,,,
48015,Austin County,30,-96.24,29.89,1700.04,0.02,0.35,,,,63.0,9.0,5851.0,95.0,4.0,6613.0,722.0,96.0,39702.0,446.0,31.0,25645.0,83.0,14.0,4574.0,297.0,39.0,21336.0,62.0,22.0,1778.0,241.0,56.0,12436.0,315.0,5.0,26479.0,339.0,31.0,12413.0,146.0,10.0,2629.0,535.0,48.0,18488.0,48.0,10.0,759.0,584.0,51.0,9596.0,296.0,67.0,8718.0,,,
48017,Bailey County,7,-102.81,34.03,2142.89,0.0,0.02,,,,,,,45.0,4.0,3767.0,51.0,8.0,1653.0,222.0,19.0,11609.0,37.0,3.0,2091.0,51.0,13.0,2970.0,,,,23.0,5.0,1712.0,,,,3.0,3.0,75.0,,,,149.0,12.0,5085.0,,,,297.0,14.0,4609.0,62.0,16.0,1399.0,,,
48019,Bandera County,23,-99.23,29.76,2065.73,0.01,0.17,6.0,5.0,180.0,,,,99.0,3.0,7645.0,810.0,63.0,31012.0,63.0,9.0,2283.0,35.0,9.0,2266.0,97.0,16.0,4781.0,51.0,20.0,2445.0,119.0,35.0,2335.0,,,,448.0,22.0,10238.0,19.0,3.0,298.0,309.0,23.0,10392.0,14.0,7.0,490.0,585.0,50.0,9252.0,219.0,53.0,5313.0,,,
48021,Bastrop County,87,-97.39,30.05,2319.57,0.04,0.28,27.0,4.0,1197.0,173.0,6.0,14061.0,264.0,9.0,21893.0,1293.0,256.0,66627.0,220.0,34.0,11606.0,60.0,13.0,3463.0,421.0,83.0,23829.0,128.0,59.0,4905.0,541.0,123.0,23919.0,188.0,6.0,3494.0,584.0,85.0,18091.0,89.0,17.0,2215.0,2005.0,151.0,80263.0,321.0,29.0,3215.0,3195.0,151.0,51263.0,803.0,148.0,22014.0,4.0,3.0,44.0
48023,Baylor County,4,-99.2,33.57,2333.99,0.0,0.0,,,,,,,,,,14.0,7.0,513.0,29.0,5.0,1332.0,8.0,3.0,193.0,39.0,9.0,1747.0,,,,14.0,8.0,578.0,,,,14.0,3.0,577.0,,,,314.0,11.0,7864.0,,,,63.0,13.0,927.0,36.0,18.0,1131.0,,,
48025,Bee County,33,-97.72,28.39,2280.18,0.01,0.12,,,,365.0,21.0,19918.0,22.0,4.0,1534.0,376.0,32.0,14832.0,150.0,13.0,7473.0,100.0,7.0,2831.0,159.0,38.0,6396.0,115.0,25.0,5096.0,133.0,36.0,6058.0,,,,58.0,12.0,1976.0,37.0,4.0,504.0,1542.0,65.0,41754.0,32.0,4.0,589.0,775.0,55.0,11114.0,244.0,47.0,5717.0,,,
48027,Bell County,356,-97.43,31.01,2823.89,0.13,0.44,,,,125.0,9.0,7943.0,315.0,22.0,27550.0,4611.0,483.0,297345.0,2944.0,134.0,166601.0,1894.0,85.0,127421.0,3693.0,344.0,242132.0,1621.0,324.0,74363.0,3761.0,372.0,210642.0,2724.0,30.0,252232.0,5140.0,290.0,142294.0,2416.0,77.0,64783.0,23772.0,616.0,1360278.0,1273.0,87.0,16794.0,13890.0,675.0,204139.0,4602.0,678.0,131178.0,11.0,14.0,499.0
48029,Bexar County,1979,-98.51,29.43,3253.27,0.61,0.59,37.0,14.0,1075.0,3173.0,173.0,247562.0,110.0,18.0,7233.0,50421.0,2688.0,2905298.0,28976.0,1619.0,1818359.0,17991.0,652.0,1280163.0,68954.0,2598.0,5740627.0,12923.0,2247.0,735678.0,48683.0,4399.0,3809726.0,18764.0,300.0,1948557.0,68171.0,1960.0,2482727.0,21559.0,525.0,823251.0,128386.0,5135.0,6031775.0,15547.0,504.0,434426.0,104566.0,4167.0,1691867.0,30416.0,3359.0,862965.0,79.0,61.0,2642.0
48031,Blanco County,12,-98.4,30.24,1847.65,0.01,0.14,,,,,,,333.0,3.0,39475.0,527.0,58.0,34390.0,36.0,10.0,1921.0,35.0,8.0,1231.0,82.0,12.0,3527.0,47.0,22.0,2316.0,122.0,33.0,6326.0,,,,57.0,13.0,2770.0,14.0,5.0,265.0,203.0,22.0,5353.0,41.0,5.0,1219.0,395.0,42.0,7299.0,105.0,34.0,2839.0,,,
48035,Bosque County,18,-97.66,31.88,2596.56,0.01,0.06,,,,58.0,6.0,4000.0,88.0,6.0,8880.0,126.0,26.0,5430.0,28.0,11.0,639.0,35.0,8.0,706.0,63.0,19.0,3203.0,27.0,9.0,493.0,67.0,21.0,2385.0,,,,81.0,10.0,2321.0,,,,715.0,23.0,30798.0,18.0,5.0,927.0,280.0,32.0,4561.0,156.0,45.0,3622.0,,,
48037,Bowie County,94,-94.45,33.42,2390.59,0.04,0.13,27.0,7.0,1158.0,18.0,4.0,998.0,119.0,5.0,11092.0,1624.0,159.0,77269.0,941.0,90.0,51139.0,311.0,39.0,13701.0,1249.0,191.0,68901.0,595.0,124.0,22181.0,2414.0,151.0,90974.0,458.0,15.0,31810.0,1482.0,108.0,52575.0,136.0,16.0,2800.0,7399.0,290.0,348301.0,214.0,24.0,2088.0,5473.0,202.0,76899.0,1611.0,244.0,44209.0,3.0,4.0,67.0
48039,Brazoria County,368,-95.5,29.18,3774.89,0.1,0.4,38.0,6.0,1515.0,761.0,35.0,74230.0,240.0,8.0,23697.0,13158.0,462.0,763475.0,2694.0,255.0,180492.0,689.0,81.0,28093.0,2006.0,366.0,125374.0,1739.0,313.0,98442.0,3449.0,550.0,225467.0,367.0,16.0,39076.0,4673.0,265.0,245499.0,1040.0,101.0,22067.0,11335.0,833.0,450549.0,1112.0,99.0,12678.0,14115.0,661.0,215508.0,5428.0,616.0,184515.0,6.0,4.0,379.0
48041,Brazos County,226,-96.35,30.7,1531.19,0.15,0.65,603.0,10.0,41929.0,655.0,46.0,26995.0,65.0,4.0,5380.0,4541.0,464.0,240626.0,2428.0,162.0,132376.0,1455.0,73.0,81429.0,1909.0,261.0,133221.0,1552.0,323.0,67516.0,3465.0,446.0,230413.0,727.0,35.0,71438.0,4458.0,265.0,148525.0,928.0,64.0,19689.0,9956.0,475.0,583836.0,1430.0,78.0,24526.0,13388.0,566.0,187546.0,3733.0,429.0,112903.0,12.0,7.0,115.0
48043,Brewster County,9,-103.24,29.85,16038.72,0.0,0.0,,,,,,,26.0,4.0,1387.0,164.0,29.0,8669.0,61.0,7.0,3060.0,108.0,13.0,6553.0,64.0,12.0,2779.0,46.0,16.0,976.0,47.0,17.0,2310.0,,,,76.0,11.0,2258.0,,,,383.0,20.0,13723.0,27.0,5.0,393.0,876.0,50.0,13487.0,73.0,26.0,2281.0,,,
48045,Briscoe County,1,-101.19,34.48,2335.18,0.0,0.0,,,,,,,,,,7.0,3.0,156.0,15.0,3.0,697.0,,,,26.0,4.0,2249.0,,,,,,,,,,,,,,,,,,,,,,,,,13.0,4.0,332.0,,,
48047,Brooks County,7,-98.21,26.99,2444.04,0.0,0.2,,,,23.0,4.0,1224.0,,,,344.0,4.0,9565.0,10.0,4.0,236.0,13.0,4.0,585.0,62.0,9.0,2752.0,20.0,5.0,476.0,13.0,4.0,352.0,,,,,,,,,,395.0,20.0,7306.0,,,,264.0,15.0,4189.0,37.0,9.0,835.0,,,
48049,Brown County,38,-98.99,31.75,2478.52,0.02,0.39,,,,75.0,5.0,4998.0,58.0,5.0,4362.0,488.0,85.0,23303.0,551.0,29.0,26665.0,114.0,12.0,4343.0,456.0,58.0,23124.0,109.0,34.0,4804.0,159.0,48.0,5853.0,44.0,4.0,4824.0,461.0,30.0,16924.0,519.0,7.0,10186.0,2232.0,124.0,84578.0,135.0,12.0,3805.0,1347.0,85.0,20827.0,604.0,115.0,12885.0,,,
48051,Burleson County,18,-96.64,30.48,1753.19,0.01,0.07,26.0,5.0,1575.0,387.0,22.0,27309.0,12.0,5.0,545.0,179.0,37.0,8028.0,181.0,22.0,8481.0,8.0,3.0,300.0,112.0,13.0,7731.0,32.0,12.0,852.0,156.0,25.0,10447.0,,,,46.0,10.0,2287.0,,,,278.0,18.0,14778.0,10.0,6.0,353.0,472.0,37.0,7801.0,174.0,38.0,4332.0,,,
48053,Burnet County,48,-98.17,30.78,2646.54,0.02,0.45,5.0,3.0,193.0,334.0,10.0,20176.0,147.0,6.0,12689.0,1465.0,212.0,78707.0,264.0,41.0,16642.0,167.0,21.0,7831.0,376.0,72.0,26907.0,207.0,69.0,8560.0,599.0,104.0,27170.0,,,,428.0,76.0,15625.0,164.0,12.0,3891.0,2263.0,132.0,123544.0,523.0,22.0,10139.0,2137.0,128.0,42403.0,662.0,136.0,18571.0,3.0,3.0,172.0
48055,Caldwell County,43,-97.6,29.83,1415.32,0.03,0.53,,,,116.0,19.0,4158.0,29.0,5.0,1481.0,776.0,96.0,39962.0,126.0,21.0,5511.0,55.0,9.0,1315.0,188.0,33.0,9190.0,62.0,28.0,1802.0,126.0,36.0,5317.0,10.0,3.0,345.0,312.0,33.0,7974.0,72.0,11.0,2577.0,1464.0,80.0,66160.0,7.0,7.0,392.0,912.0,71.0,16681.0,275.0,66.0,7103.0,18.0,4.0,592.0
48057,Calhoun County,21,-96.67,28.5,1929.02,0.01,0.13,10.0,20.0,915.0,,,,10.0,3.0,430.0,1474.0,37.0,86194.0,153.0,17.0,4633.0,36.0,7.0,1066.0,169.0,28.0,7048.0,181.0,18.0,11589.0,655.0,40.0,43159.0,,,,575.0,16.0,25194.0,7.0,3.0,243.0,759.0,31.0,26178.0,113.0,6.0,1150.0,735.0,60.0,12527.0,260.0,47.0,7823.0,,,
48059,Callahan County,14,-99.36,32.28,2334.28,0.01,0.36,,,,115.0,15.0,8377.0,8.0,3.0,240.0,129.0,35.0,6332.0,52.0,8.0,2094.0,9.0,5.0,491.0,67.0,10.0,3174.0,26.0,8.0,1661.0,42.0,12.0,1497.0,,,,28.0,8.0,748.0,,,,135.0,8.0,4584.0,23.0,3.0,395.0,253.0,18.0,3439.0,90.0,24.0,1594.0,,,
48061,Cameron County,422,-97.41,26.13,2606.53,0.16,0.28,191.0,46.0,5269.0,41.0,8.0,1371.0,290.0,13.0,22976.0,2335.0,341.0,95867.0,2388.0,316.0,95176.0,2082.0,89.0,89871.0,4090.0,504.0,165611.0,1557.0,317.0,42037.0,3123.0,512.0,125140.0,276.0,25.0,18789.0,8739.0,210.0,223025.0,2112.0,69.0,84213.0,39443.0,1052.0,1110792.0,1185.0,58.0,14890.0,15325.0,768.0,214224.0,3198.0,550.0,74956.0,7.0,12.0,255.0
48063,Camp County,13,-94.99,32.97,526.29,0.02,0.63,,,,,,,152.0,3.0,16645.0,223.0,33.0,13935.0,136.0,7.0,5283.0,22.0,4.0,781.0,109.0,17.0,4261.0,9.0,8.0,151.0,50.0,12.0,3443.0,,,,90.0,10.0,3129.0,,,,381.0,12.0,13714.0,21.0,4.0,450.0,254.0,15.0,3261.0,115.0,24.0,2106.0,,,
48065,Carson County,6,-101.34,35.36,2393.48,0.0,0.0,13.0,3.0,392.0,4.0,3.0,34.0,,,,158.0,11.0,13871.0,57.0,8.0,2159.0,,,,44.0,9.0,1790.0,,,,32.0,10.0,1318.0,,,,50.0,5.0,3591.0,,,,38.0,6.0,1050.0,21.0,4.0,338.0,73.0,12.0,1056.0,59.0,18.0,2138.0,,,
48067,Cass County,30,-94.35,33.06,2487.36,0.01,0.07,110.0,20.0,5502.0,51.0,6.0,3303.0,144.0,10.0,10277.0,285.0,35.0,12192.0,208.0,12.0,9218.0,33.0,10.0,963.0,183.0,35.0,8884.0,34.0,23.0,1122.0,134.0,32.0,4398.0,16.0,5.0,906.0,80.0,14.0,2036.0,8.0,3.0,42.0,1206.0,43.0,33180.0,,,,688.0,68.0,8267.0,394.0,85.0,9337.0,2.0,3.0,126.0
48069,Castro County,8,-102.26,34.5,2329.31,0.0,0.01,12.0,5.0,578.0,,,,,,,26.0,8.0,971.0,130.0,12.0,7051.0,6.0,3.0,224.0,43.0,12.0,2095.0,8.0,3.0,308.0,55.0,10.0,2378.0,,,,,,,,,,260.0,6.0,9097.0,,,,169.0,14.0,2038.0,84.0,23.0,2495.0,,,
48071,Chambers County,43,-94.54,29.72,1637.52,0.03,0.21,44.0,9.0,1678.0,647.0,22.0,63298.0,59.0,6.0,8421.0,1861.0,64.0,124597.0,710.0,43.0,55756.0,201.0,6.0,1702.0,142.0,33.0,8168.0,159.0,26.0,10502.0,455.0,49.0,29582.0,,,,1169.0,33.0,135416.0,78.0,6.0,746.0,638.0,46.0,25461.0,86.0,8.0,1337.0,1546.0,78.0,23934.0,846.0,55.0,53646.0,,,
48073,Cherokee County,52,-95.18,31.84,2750.97,0.02,0.4,154.0,5.0,5773.0,33.0,5.0,1747.0,120.0,13.0,8860.0,603.0,66.0,29305.0,302.0,23.0,11400.0,103.0,17.0,4496.0,300.0,56.0,20923.0,60.0,32.0,2507.0,251.0,70.0,11509.0,,,,342.0,25.0,9779.0,137.0,9.0,2793.0,2346.0,69.0,100526.0,21.0,3.0,272.0,898.0,66.0,12763.0,435.0,82.0,9294.0,,,
48075,Childress County,7,-100.21,34.52,1848.17,0.0,0.0,20.0,3.0,1306.0,,,,41.0,3.0,2954.0,38.0,8.0,2052.0,,,,15.0,6.0,583.0,101.0,19.0,4064.0,19.0,6.0,541.0,43.0,13.0,2281.0,,,,,,,,,,364.0,19.0,18515.0,,,,597.0,28.0,8037.0,46.0,16.0,949.0,,,
48077,Clay County,10,-98.21,33.69,2891.79,0.0,0.05,,,,12.0,5.0,403.0,29.0,3.0,2221.0,38.0,18.0,1306.0,13.0,4.0,299.0,,,,42.0,15.0,2642.0,11.0,3.0,468.0,10.0,10.0,358.0,,,,6.0,3.0,105.0,12.0,3.0,114.0,97.0,8.0,3941.0,,,,95.0,8.0,1278.0,96.0,24.0,1560.0,,,
48079,Cochran County,3,-102.81,33.59,2007.89,0.0,0.0,,,,,,,,,,,,,,,,,,,13.0,5.0,948.0,,,,,,,,,,,,,,,,71.0,6.0,2982.0,,,,8.0,3.0,96.0,14.0,6.0,208.0,,,
48081,Coke County,3,-100.55,31.87,2404.02,0.0,0.0,,,,47.0,5.0,1686.0,7.0,3.0,394.0,9.0,6.0,509.0,,,,,,,22.0,4.0,783.0,,,,,,,,,,1.0,3.0,87.0,,,,,,,,,,17.0,5.0,195.0,27.0,11.0,478.0,,,
48083,Coleman County,8,-99.45,31.78,3318.74,0.0,0.0,6.0,3.0,72.0,31.0,7.0,1508.0,32.0,3.0,1813.0,83.0,17.0,2842.0,50.0,6.0,2581.0,,,,63.0,11.0,3598.0,11.0,4.0,818.0,30.0,15.0,1197.0,,,,,,,,,,532.0,14.0,18169.0,7.0,5.0,304.0,173.0,21.0,2463.0,96.0,30.0,1707.0,,,
48085,Collin County,1006,-96.61,33.16,2294.4,0.44,0.61,20.0,9.0,649.0,620.0,63.0,56734.0,713.0,32.0,65801.0,20399.0,1654.0,1381990.0,20252.0,1079.0,2338054.0,19860.0,544.0,2589748.0,64935.0,1956.0,6545507.0,8725.0,1612.0,539818.0,51770.0,4605.0,5044181.0,22789.0,385.0,2725600.0,26106.0,1434.0,1334982.0,5630.0,509.0,149543.0,61111.0,3958.0,3032816.0,8668.0,422.0,513134.0,50125.0,2433.0,877485.0,20619.0,1945.0,731356.0,33.0,44.0,812.0
48087,Collingsworth County,3,-100.27,34.95,2381.48,0.0,0.0,,,,,,,,,,26.0,3.0,752.0,39.0,4.0,1978.0,5.0,4.0,239.0,28.0,3.0,2334.0,,,,13.0,6.0,751.0,,,,,,,,,,133.0,7.0,4610.0,11.0,3.0,190.0,45.0,8.0,446.0,25.0,10.0,407.0,,,
48089,Colorado County,21,-96.55,29.61,2522.01,0.01,0.5,75.0,9.0,3853.0,406.0,20.0,24703.0,,,,480.0,51.0,31030.0,177.0,30.0,6812.0,38.0,9.0,933.0,164.0,30.0,9507.0,20.0,14.0,1644.0,201.0,32.0,11349.0,,,,125.0,19.0,3821.0,35.0,3.0,789.0,798.0,48.0,33163.0,195.0,14.0,7198.0,537.0,48.0,8744.0,244.0,56.0,6081.0,,,
48091,Comal County,149,-98.27,29.8,1489.19,0.1,0.58,6.0,4.0,198.0,832.0,25.0,55452.0,188.0,6.0,15453.0,6467.0,569.0,354685.0,2910.0,195.0,202654.0,745.0,42.0,35290.0,1220.0,240.0,87501.0,1183.0,275.0,56026.0,2137.0,453.0,133965.0,941.0,26.0,84721.0,3434.0,241.0,140278.0,654.0,55.0,15690.0,8006.0,429.0,322266.0,1407.0,96.0,30429.0,8651.0,408.0,150728.0,3311.0,390.0,89736.0,5.0,5.0,123.0
48093,Comanche County,14,-98.53,31.91,2454.48,0.01,0.18,82.0,4.0,2373.0,26.0,3.0,1848.0,61.0,4.0,4510.0,78.0,31.0,3197.0,219.0,23.0,8762.0,55.0,4.0,3002.0,111.0,13.0,5923.0,22.0,8.0,319.0,81.0,21.0,2860.0,,,,,,,,,,483.0,18.0,19559.0,,,,167.0,22.0,2525.0,111.0,32.0,2092.0,,,
48095,Concho County,3,-99.85,31.31,2573.62,0.0,0.64,,,,,,,17.0,4.0,891.0,14.0,3.0,400.0,,,,,,,,,,,,,,,,,,,,,,,,,136.0,4.0,5570.0,,,,62.0,7.0,927.0,13.0,3.0,272.0,,,
48097,Cooke County,40,-97.21,33.58,2327.74,0.02,0.49,67.0,7.0,2165.0,892.0,41.0,46916.0,104.0,8.0,7877.0,501.0,97.0,23485.0,614.0,50.0,31094.0,135.0,13.0,6176.0,485.0,48.0,33122.0,103.0,29.0,4826.0,296.0,60.0,16910.0,145.0,4.0,4935.0,268.0,38.0,9771.0,6.0,4.0,156.0,1197.0,87.0,46808.0,29.0,9.0,1961.0,1864.0,95.0,32343.0,554.0,93.0,16579.0,,,
48099,Coryell County,76,-97.82,31.37,2737.18,0.03,0.38,,,,20.0,5.0,1888.0,14.0,5.0,607.0,802.0,84.0,34196.0,133.0,13.0,4838.0,268.0,16.0,4956.0,370.0,57.0,17199.0,144.0,37.0,6006.0,514.0,57.0,24823.0,,,,1638.0,25.0,33710.0,40.0,5.0,950.0,1146.0,59.0,46230.0,28.0,5.0,568.0,1517.0,89.0,20837.0,738.0,130.0,18773.0,2.0,3.0,49.0
48101,Cottle County,2,-100.28,34.06,2334.86,0.0,0.0,,,,,,,,,,,,,,,,,,,4.0,3.0,213.0,,,,,,,,,,,,,,,,,,,,,,,,,13.0,5.0,167.0,,,
48103,Crane County,5,-102.52,31.45,2035.46,0.0,0.0,,,,290.0,11.0,41219.0,,,,19.0,6.0,692.0,19.0,3.0,1486.0,,,,30.0,6.0,1834.0,79.0,4.0,5268.0,16.0,7.0,918.0,,,,,,,,,,250.0,9.0,9790.0,,,,70.0,6.0,863.0,20.0,7.0,564.0,,,
48105,Crockett County,3,-101.38,30.65,7272.19,0.0,0.0,,,,138.0,15.0,8614.0,21.0,4.0,755.0,78.0,10.0,3237.0,,,,,,,37.0,4.0,1359.0,6.0,5.0,111.0,10.0,6.0,409.0,,,,,,,,,,21.0,5.0,1557.0,5.0,3.0,164.0,229.0,20.0,2717.0,28.0,9.0,621.0,,,
48107,Crosby County,6,-101.29,33.58,2334.88,0.0,0.22,,,,,,,,,,11.0,6.0,558.0,81.0,9.0,7357.0,,,,19.0,5.0,812.0,,,,16.0,7.0,314.0,,,,11.0,3.0,233.0,,,,144.0,10.0,4558.0,,,,36.0,4.0,452.0,27.0,11.0,536.0,,,
48109,Culberson County,2,-104.48,31.46,9876.8,0.0,0.0,,,,,,,,,,,,,,,,5.0,3.0,477.0,,,,,,,,,,,,,,,,,,,83.0,4.0,4062.0,,,,186.0,14.0,3237.0,10.0,4.0,511.0,,,
48111,Dallam County,7,-102.62,36.31,3898.74,0.0,0.0,28.0,4.0,1401.0,,,,62.0,4.0,4969.0,301.0,26.0,13254.0,220.0,20.0,24644.0,43.0,5.0,2820.0,80.0,16.0,4980.0,8.0,3.0,270.0,69.0,10.0,2794.0,,,,23.0,4.0,1638.0,,,,44.0,8.0,1160.0,41.0,3.0,830.0,331.0,24.0,5307.0,108.0,30.0,2644.0,,,
48113,Dallas County,2623,-96.78,32.76,2353.1,1.11,0.64,59.0,19.0,2538.0,3880.0,322.0,551258.0,5085.0,88.0,753684.0,89581.0,4449.0,5967128.0,87919.0,4315.0,6335522.0,63955.0,1604.0,7040173.0,105568.0,5159.0,11760789.0,43368.0,4236.0,3086286.0,144365.0,10093.0,15411211.0,71792.0,835.0,8203732.0,146525.0,3837.0,5598199.0,33367.0,844.0,1523264.0,184652.0,7861.0,10404454.0,18950.0,837.0,576589.0,140141.0,6263.0,2530631.0,54541.0,5281.0,2347450.0,155.0,94.0,4929.0
48115,Dawson County,13,-101.96,32.74,2336.31,0.01,0.03,,,,289.0,18.0,13641.0,36.0,5.0,2090.0,117.0,20.0,6359.0,111.0,18.0,5527.0,42.0,12.0,1742.0,115.0,24.0,6637.0,15.0,7.0,414.0,61.0,11.0,3299.0,,,,8.0,3.0,258.0,67.0,4.0,1831.0,378.0,13.0,14511.0,,,,393.0,28.0,6707.0,143.0,42.0,2995.0,,,
48117,Deaf Smith County,19,-102.6,34.93,3880.81,0.0,0.24,54.0,8.0,5864.0,,,,91.0,4.0,8179.0,268.0,31.0,11968.0,438.0,31.0,24501.0,124.0,11.0,5625.0,176.0,30.0,9544.0,50.0,12.0,1221.0,177.0,22.0,8562.0,,,,65.0,8.0,2545.0,,,,473.0,21.0,17219.0,,,,439.0,35.0,6206.0,284.0,43.0,10265.0,,,
48119,Delta County,5,-95.67,33.39,719.9,0.01,0.95,,,,,,,,,,21.0,8.0,542.0,7.0,3.0,448.0,,,,10.0,3.0,433.0,,,,7.0,3.0,245.0,,,,,,,,,,76.0,5.0,2212.0,,,,20.0,3.0,380.0,31.0,10.0,528.0,,,
48121,Denton County,862,-97.14,33.18,2464.74,0.35,0.62,74.0,31.0,2402.0,1137.0,33.0,51999.0,758.0,29.0,64965.0,15782.0,1326.0,1046496.0,14141.0,838.0,1013492.0,2989.0,281.0,166067.0,13081.0,944.0,1251165.0,5407.0,956.0,322590.0,12269.0,2440.0,790112.0,5691.0,165.0,593203.0,14411.0,1000.0,599700.0,4352.0,322.0,133570.0,30079.0,2110.0,1755326.0,4379.0,288.0,90535.0,33951.0,1754.0,560579.0,10866.0,1428.0,319919.0,41.0,32.0,2155.0
48123,DeWitt County,20,-97.32,29.09,2358.11,0.01,0.39,,,,500.0,23.0,38270.0,,,,329.0,38.0,17954.0,217.0,19.0,10417.0,33.0,5.0,962.0,260.0,38.0,14052.0,72.0,15.0,8138.0,123.0,45.0,5382.0,,,,268.0,17.0,12855.0,,,,1049.0,36.0,37170.0,15.0,4.0,194.0,536.0,49.0,7789.0,393.0,60.0,10405.0,,,
48125,Dickens County,2,-100.76,33.62,2344.97,0.0,0.0,,,,,,,36.0,3.0,2792.0,10.0,3.0,165.0,,,,,,,,,,,,,8.0,5.0,164.0,,,,,,,,,,19.0,4.0,191.0,,,,17.0,3.0,226.0,24.0,8.0,673.0,,,
48127,Dimmit County,10,-99.72,28.38,3456.29,0.0,0.05,,,,1649.0,31.0,90948.0,51.0,4.0,2088.0,301.0,7.0,15632.0,70.0,9.0,2704.0,5.0,3.0,200.0,27.0,9.0,773.0,151.0,12.0,6645.0,104.0,8.0,6997.0,,,,160.0,7.0,7975.0,,,,615.0,29.0,23883.0,,,,401.0,28.0,5057.0,58.0,17.0,1408.0,,,
48129,Donley County,3,-100.81,34.93,2416.66,0.0,0.0,,,,,,,4.0,3.0,105.0,13.0,4.0,577.0,24.0,3.0,727.0,4.0,3.0,165.0,42.0,7.0,1675.0,,,,20.0,8.0,800.0,,,,,,,,,,33.0,7.0,1189.0,,,,99.0,9.0,1360.0,26.0,10.0,357.0,,,
48131,Duval County,11,-98.51,27.67,4650.93,0.0,0.01,,,,276.0,19.0,13255.0,,,,209.0,8.0,10625.0,63.0,9.0,3578.0,,,,48.0,8.0,2039.0,12.0,4.0,233.0,29.0,12.0,1293.0,,,,45.0,3.0,1075.0,,,,484.0,13.0,9530.0,,,,137.0,22.0,2191.0,66.0,12.0,2239.0,,,
48133,Eastland County,18,-98.86,32.3,2413.86,0.01,0.0,,,,1323.0,32.0,89468.0,46.0,8.0,3949.0,477.0,35.0,30101.0,73.0,14.0,5736.0,41.0,14.0,1416.0,171.0,32.0,10915.0,53.0,17.0,2688.0,123.0,29.0,5688.0,,,,88.0,9.0,4586.0,,,,777.0,44.0,22586.0,3.0,3.0,66.0,566.0,51.0,7880.0,273.0,57.0,7461.0,,,
48135,Ector County,162,-102.58,31.89,2335.79,0.07,0.22,,,,7872.0,254.0,471179.0,204.0,7.0,26238.0,6866.0,290.0,428257.0,5843.0,341.0,401121.0,591.0,37.0,24804.0,1428.0,208.0,79708.0,2146.0,198.0,120033.0,1621.0,258.0,93208.0,460.0,21.0,31091.0,1596.0,135.0,70662.0,506.0,21.0,19166.0,7536.0,295.0,392496.0,580.0,42.0,8280.0,7894.0,343.0,144427.0,2929.0,371.0,107715.0,24.0,6.0,931.0
48137,Edwards County,2,-100.35,29.91,5491.44,0.0,0.0,,,,,,,,,,24.0,5.0,966.0,,,,,,,,,,,,,,,,,,,,,,,,,21.0,4.0,480.0,23.0,4.0,752.0,11.0,3.0,113.0,96.0,8.0,1460.0,,,
48139,Ellis County,179,-96.79,32.33,2465.53,0.07,0.72,5.0,4.0,147.0,71.0,10.0,5309.0,148.0,17.0,14010.0,4017.0,449.0,247749.0,1533.0,143.0,79104.0,869.0,51.0,44198.0,988.0,197.0,70672.0,458.0,161.0,19057.0,1112.0,260.0,61383.0,356.0,15.0,31408.0,1910.0,165.0,69336.0,786.0,31.0,14740.0,5053.0,318.0,224501.0,274.0,51.0,5140.0,6047.0,297.0,95742.0,2573.0,372.0,68682.0,1.0,4.0,76.0
48141,El Paso County,837,-106.22,31.81,2629.08,0.32,0.28,62.0,9.0,3983.0,89.0,14.0,4295.0,1509.0,19.0,126817.0,12443.0,1046.0,585150.0,10226.0,1004.0,484252.0,8323.0,252.0,313610.0,8004.0,992.0,409770.0,4146.0,887.0,162014.0,8885.0,1341.0,456425.0,2577.0,59.0,173490.0,25079.0,653.0,629247.0,2472.0,155.0,72737.0,49478.0,1825.0,1957452.0,3462.0,178.0,52646.0,36700.0,1683.0,481622.0,7799.0,1244.0,182343.0,21.0,26.0,633.0
48143,Erath County,42,-98.22,32.2,2822.53,0.01,0.5,35.0,6.0,2379.0,241.0,13.0,15055.0,87.0,7.0,7728.0,1191.0,131.0,58086.0,385.0,53.0,19734.0,84.0,9.0,3602.0,311.0,61.0,17699.0,137.0,55.0,5582.0,460.0,79.0,24072.0,,,,656.0,61.0,19360.0,50.0,4.0,1152.0,1415.0,88.0,58788.0,47.0,15.0,1026.0,1777.0,100.0,25323.0,764.0,109.0,20228.0,,,
48145,Falls County,17,-96.93,31.23,2004.18,0.01,0.48,,,,,,,21.0,3.0,1226.0,76.0,15.0,3204.0,86.0,10.0,5273.0,93.0,8.0,2429.0,54.0,18.0,2640.0,12.0,4.0,542.0,94.0,13.0,3231.0,,,,24.0,3.0,753.0,,,,262.0,26.0,10562.0,,,,221.0,16.0,3501.0,101.0,32.0,1655.0,,,
48147,Fannin County,35,-96.09,33.54,2328.26,0.02,0.28,,,,101.0,5.0,5092.0,64.0,9.0,4534.0,540.0,59.0,28740.0,106.0,15.0,6050.0,90.0,10.0,3999.0,219.0,39.0,10269.0,56.0,21.0,1677.0,148.0,36.0,5327.0,,,,352.0,22.0,17190.0,,,,1443.0,45.0,66003.0,15.0,4.0,323.0,486.0,38.0,6975.0,261.0,69.0,5988.0,,,
48149,Fayette County,25,-96.96,29.84,2485.53,0.01,0.12,,,,279.0,31.0,12879.0,44.0,3.0,3067.0,414.0,78.0,22515.0,523.0,30.0,36393.0,103.0,11.0,5366.0,290.0,49.0,16580.0,101.0,34.0,3401.0,233.0,64.0,11271.0,,,,86.0,18.0,3524.0,98.0,4.0,1918.0,1016.0,71.0,41645.0,78.0,16.0,1492.0,936.0,88.0,15138.0,439.0,88.0,10221.0,,,
48151,Fisher County,4,-100.38,32.71,2335.55,0.0,0.0,17.0,3.0,865.0,,,,,,,5.0,3.0,157.0,,,,,,,44.0,4.0,2750.0,,,,17.0,5.0,994.0,,,,,,,,,,100.0,3.0,5144.0,,,,22.0,3.0,263.0,33.0,11.0,612.0,,,
48153,Floyd County,6,-101.28,34.03,2570.85,0.0,0.0,36.0,13.0,3126.0,,,,64.0,3.0,5109.0,17.0,9.0,623.0,100.0,14.0,5321.0,,,,55.0,10.0,2397.0,,,,9.0,4.0,193.0,,,,,,,,,,216.0,11.0,6638.0,,,,58.0,10.0,738.0,95.0,22.0,2487.0,,,
48155,Foard County,1,-99.73,33.95,1832.92,0.0,0.0,,,,,,,,,,8.0,3.0,180.0,,,,,,,,,,,,,,,,,,,,,,,,,51.0,5.0,2688.0,,,,,,,13.0,5.0,437.0,,,
48157,Fort Bend County,791,-95.78,29.51,2292.67,0.35,0.82,18.0,9.0,710.0,2898.0,93.0,220379.0,1036.0,37.0,102672.0,11981.0,1024.0,702397.0,8898.0,898.0,659009.0,2786.0,222.0,159496.0,6635.0,940.0,489866.0,2589.0,778.0,111936.0,13186.0,2394.0,932971.0,5471.0,70.0,624990.0,9945.0,719.0,397496.0,3106.0,326.0,76567.0,30593.0,2310.0,1198737.0,4176.0,222.0,63043.0,25493.0,1349.0,407797.0,8649.0,1187.0,238898.0,24.0,29.0,640.0
48159,Franklin County,11,-95.22,33.2,763.46,0.01,0.54,,,,,,,,,,107.0,19.0,4462.0,14.0,5.0,643.0,,,,73.0,11.0,3773.0,11.0,7.0,269.0,37.0,14.0,1648.0,,,,32.0,5.0,1462.0,,,,4373.0,22.0,42705.0,,,,206.0,18.0,3481.0,142.0,31.0,2814.0,,,
48161,Freestone County,20,-96.16,31.69,2310.11,0.01,0.37,,,,320.0,19.0,16894.0,52.0,9.0,5875.0,121.0,23.0,5575.0,67.0,12.0,6317.0,30.0,6.0,2232.0,115.0,22.0,5422.0,40.0,11.0,1530.0,60.0,22.0,2532.0,,,,92.0,18.0,1409.0,,,,358.0,22.0,11824.0,26.0,3.0,325.0,470.0,33.0,6818.0,230.0,58.0,6501.0,,,
48163,Frio County,20,-99.12,28.84,2937.52,0.01,0.18,24.0,3.0,1090.0,780.0,29.0,33701.0,33.0,3.0,2446.0,82.0,16.0,3522.0,286.0,21.0,13856.0,34.0,7.0,2047.0,166.0,17.0,9115.0,60.0,9.0,4675.0,101.0,12.0,2810.0,,,,1095.0,6.0,57774.0,,,,825.0,29.0,26225.0,,,,656.0,44.0,11821.0,139.0,28.0,3278.0,,,
48165,Gaines County,21,-102.62,32.7,3892.26,0.01,0.5,21.0,6.0,929.0,519.0,33.0,38467.0,48.0,5.0,3449.0,833.0,87.0,46718.0,485.0,42.0,31654.0,35.0,8.0,1669.0,115.0,20.0,6602.0,312.0,14.0,11405.0,104.0,26.0,5557.0,,,,50.0,9.0,1763.0,54.0,5.0,789.0,322.0,16.0,14726.0,,,,575.0,41.0,9513.0,372.0,67.0,11247.0,,,
48167,Galveston County,338,-94.99,29.39,1065.4,0.32,0.28,73.0,11.0,818.0,616.0,22.0,32576.0,252.0,10.0,24864.0,5313.0,498.0,304375.0,1918.0,242.0,121036.0,664.0,78.0,34597.0,4277.0,386.0,288430.0,2632.0,359.0,116327.0,4582.0,611.0,249384.0,895.0,23.0,77699.0,4203.0,277.0,146905.0,931.0,86.0,26203.0,15573.0,656.0,664502.0,2006.0,101.0,29403.0,17876.0,778.0,298868.0,5348.0,655.0,184759.0,25.0,10.0,1598.0
48169,Garza County,6,-101.29,33.14,2321.02,0.0,0.0,,,,305.0,22.0,14493.0,,,,147.0,12.0,5127.0,21.0,4.0,1200.0,,,,23.0,7.0,713.0,6.0,5.0,218.0,10.0,6.0,429.0,,,,233.0,3.0,11819.0,,,,178.0,12.0,5916.0,6.0,4.0,135.0,155.0,13.0,1902.0,33.0,12.0,799.0,,,
48171,Gillespie County,27,-98.91,30.3,2750.04,0.01,0.44,,,,34.0,9.0,2179.0,105.0,3.0,6153.0,1188.0,161.0,59638.0,334.0,38.0,16441.0,205.0,15.0,9565.0,329.0,49.0,21623.0,136.0,42.0,6118.0,291.0,79.0,14400.0,,,,247.0,51.0,11516.0,128.0,9.0,4121.0,1706.0,106.0,81352.0,265.0,21.0,9000.0,2046.0,142.0,42949.0,512.0,90.0,12674.0,,,
48173,Glasscock County,1,-101.48,31.86,2333.91,0.0,0.0,,,,173.0,11.0,19921.0,,,,17.0,6.0,618.0,84.0,6.0,8951.0,,,,,,,,,,,,,,,,,,,,,,,,,,,,,,,,,,,,
48175,Goliad County,8,-97.44,28.65,2225.33,0.0,0.0,,,,123.0,16.0,5221.0,74.0,4.0,7926.0,45.0,16.0,2570.0,,,,9.0,3.0,405.0,31.0,6.0,1331.0,13.0,4.0,99.0,27.0,13.0,742.0,,,,,,,,,,109.0,10.0,2881.0,,,,140.0,17.0,2148.0,34.0,12.0,396.0,,,
48177,Gonzales County,21,-97.51,29.44,2770.95,0.01,0.42,5.0,3.0,153.0,278.0,11.0,14474.0,181.0,3.0,15157.0,166.0,34.0,8290.0,259.0,22.0,11292.0,37.0,7.0,1130.0,193.0,29.0,10567.0,47.0,13.0,1930.0,112.0,41.0,5032.0,,,,119.0,8.0,3677.0,,,,711.0,31.0,26830.0,11.0,3.0,118.0,429.0,47.0,6810.0,198.0,46.0,7291.0,,,
48179,Gray County,22,-100.44,37.72,2406.97,0.01,0.0,,,,441.0,38.0,22566.0,,,,321.0,35.0,16891.0,177.0,32.0,9534.0,104.0,10.0,4832.0,165.0,37.0,9025.0,55.0,17.0,3240.0,208.0,35.0,11013.0,,,,103.0,19.0,3296.0,,,,814.0,54.0,35173.0,53.0,8.0,562.0,606.0,45.0,10028.0,297.0,63.0,8496.0,,,
48181,Grayson County,134,-96.67,33.56,2535.81,0.05,0.55,25.0,5.0,622.0,157.0,17.0,6752.0,240.0,10.0,22018.0,1922.0,267.0,104813.0,1288.0,119.0,69521.0,740.0,36.0,29462.0,1719.0,180.0,98991.0,406.0,126.0,32482.0,1046.0,238.0,49046.0,24.0,4.0,1801.0,2022.0,110.0,60880.0,1025.0,18.0,23992.0,8422.0,366.0,426745.0,450.0,36.0,10146.0,4909.0,238.0,80583.0,1543.0,251.0,39249.0,10.0,5.0,100.0
48183,Gregg County,124,-94.85,32.45,714.25,0.17,0.36,17.0,4.0,496.0,3221.0,141.0,194565.0,233.0,14.0,24855.0,4054.0,259.0,196818.0,3656.0,263.0,216450.0,724.0,53.0,37873.0,2129.0,283.0,130811.0,1121.0,201.0,61939.0,3103.0,393.0,164920.0,457.0,24.0,34693.0,4325.0,210.0,142833.0,1268.0,35.0,36067.0,10731.0,437.0,498335.0,494.0,49.0,8582.0,7012.0,366.0,109577.0,3266.0,376.0,105006.0,13.0,7.0,209.0
48185,Grimes County,28,-95.99,30.52,2076.21,0.01,0.27,7.0,3.0,328.0,196.0,4.0,8047.0,174.0,5.0,16226.0,543.0,65.0,32733.0,779.0,19.0,44872.0,12.0,3.0,581.0,143.0,20.0,7481.0,100.0,20.0,3313.0,303.0,29.0,21877.0,,,,270.0,36.0,8260.0,4.0,3.0,188.0,282.0,16.0,13031.0,59.0,9.0,3368.0,312.0,40.0,4607.0,280.0,43.0,6429.0,2.0,3.0,17.0
48187,Guadalupe County,163,-97.83,29.65,1851.08,0.09,0.37,4.0,5.0,244.0,353.0,20.0,25014.0,218.0,7.0,18246.0,3731.0,308.0,210313.0,1644.0,110.0,110426.0,355.0,32.0,16815.0,690.0,140.0,46374.0,499.0,121.0,25192.0,952.0,183.0,52631.0,451.0,23.0,52858.0,868.0,121.0,41268.0,824.0,34.0,17899.0,3776.0,224.0,158053.0,549.0,38.0,7450.0,3982.0,210.0,67276.0,1612.0,244.0,44577.0,25.0,8.0,166.0
48189,Hale County,33,-101.81,34.03,2602.22,0.01,0.28,95.0,7.0,5414.0,37.0,3.0,4584.0,78.0,5.0,5831.0,760.0,50.0,45758.0,481.0,48.0,25878.0,93.0,18.0,2778.0,272.0,60.0,13570.0,56.0,26.0,1591.0,174.0,43.0,8764.0,,,,117.0,17.0,2264.0,826.0,3.0,17302.0,978.0,75.0,42382.0,17.0,7.0,239.0,1250.0,59.0,17283.0,561.0,86.0,13384.0,,,
48191,Hall County,3,-100.65,34.5,2341.35,0.0,0.0,,,,,,,18.0,3.0,900.0,9.0,4.0,250.0,13.0,3.0,567.0,,,,55.0,8.0,2333.0,,,,,,,,,,,,,,,,57.0,4.0,1683.0,,,,49.0,9.0,731.0,30.0,9.0,510.0,,,
48193,Hamilton County,8,-97.97,31.64,2166.2,0.0,0.01,,,,,,,,,,138.0,20.0,7994.0,72.0,8.0,3624.0,6.0,3.0,247.0,46.0,9.0,2667.0,,,,58.0,17.0,2607.0,,,,56.0,6.0,2931.0,,,,536.0,24.0,22501.0,,,,298.0,28.0,4318.0,119.0,30.0,3471.0,,,
48195,Hansford County,5,-101.36,36.26,2383.23,0.0,0.0,8.0,4.0,575.0,54.0,10.0,4267.0,,,,93.0,16.0,4442.0,146.0,22.0,8633.0,8.0,3.0,300.0,76.0,9.0,4175.0,8.0,5.0,85.0,37.0,8.0,2047.0,,,,1.0,4.0,25.0,,,,282.0,3.0,9523.0,,,,63.0,9.0,537.0,78.0,17.0,2096.0,,,
48197,Hardeman County,4,-99.73,34.25,1804.77,0.0,0.0,,,,,,,,,,3.0,3.0,224.0,30.0,4.0,1188.0,9.0,3.0,68.0,38.0,5.0,1589.0,,,,,,,,,,35.0,4.0,1294.0,,,,125.0,9.0,5665.0,11.0,3.0,96.0,75.0,7.0,1063.0,46.0,15.0,971.0,,,
48199,Hardin County,57,-94.4,30.3,2324.43,0.02,0.4,37.0,5.0,2468.0,186.0,20.0,8747.0,36.0,4.0,3323.0,1443.0,102.0,97938.0,149.0,21.0,11865.0,80.0,12.0,6506.0,225.0,63.0,9935.0,50.0,25.0,1760.0,310.0,54.0,18570.0,,,,185.0,30.0,5769.0,126.0,9.0,1613.0,827.0,68.0,28048.0,46.0,13.0,1061.0,1436.0,83.0,20314.0,657.0,120.0,15833.0,,,
48201,Harris County,4681,-95.37,29.81,4587.27,1.02,0.61,136.0,45.0,5956.0,40298.0,886.0,6018128.0,15649.0,337.0,1950695.0,161958.0,7178.0,11110975.0,126492.0,7132.0,9893110.0,38281.0,1652.0,3675459.0,80344.0,6717.0,9604308.0,46326.0,6031.0,3012149.0,186533.0,14706.0,18259471.0,119021.0,1022.0,17031550.0,143026.0,5536.0,6103068.0,51485.0,1371.0,2913467.0,276607.0,12337.0,15755259.0,31412.0,1218.0,1236061.0,224511.0,10194.0,3824848.0,92196.0,8295.0,3511529.0,336.0,212.0,10414.0
48203,Harrison County,67,-94.4,32.52,2371.89,0.03,0.42,59.0,3.0,2376.0,1147.0,55.0,116334.0,262.0,17.0,25678.0,1067.0,120.0,59932.0,925.0,66.0,55113.0,142.0,23.0,6023.0,825.0,86.0,40860.0,352.0,61.0,21610.0,807.0,126.0,47510.0,16.0,3.0,1956.0,297.0,58.0,8977.0,1034.0,7.0,21021.0,1594.0,110.0,81011.0,115.0,14.0,1954.0,2187.0,104.0,29206.0,1111.0,148.0,36251.0,,,
48205,Hartley County,6,-102.61,35.84,3789.73,0.0,0.63,30.0,7.0,4550.0,,,,,,,234.0,19.0,12075.0,99.0,9.0,6125.0,,,,37.0,5.0,2702.0,25.0,5.0,768.0,36.0,6.0,1478.0,,,,9.0,3.0,141.0,,,,329.0,10.0,14169.0,,,,62.0,5.0,712.0,121.0,17.0,4551.0,,,
48207,Haskell County,6,-99.72,33.15,2357.65,0.0,0.0,15.0,6.0,777.0,28.0,4.0,960.0,,,,42.0,8.0,1543.0,,,,,,,43.0,9.0,2068.0,,,,30.0,7.0,1048.0,,,,,,,,,,140.0,6.0,5896.0,10.0,3.0,121.0,84.0,13.0,1020.0,66.0,27.0,1174.0,,,
48209,Hays County,223,-98.04,30.04,1758.12,0.13,0.57,26.0,9.0,650.0,108.0,10.0,5012.0,160.0,11.0,14482.0,6365.0,638.0,361002.0,1731.0,191.0,133833.0,1095.0,75.0,37062.0,1092.0,267.0,57959.0,1377.0,297.0,57805.0,3672.0,556.0,155833.0,370.0,16.0,31721.0,3073.0,240.0,94765.0,762.0,78.0,19452.0,8245.0,449.0,376185.0,660.0,84.0,12308.0,11860.0,519.0,176123.0,2826.0,396.0,80993.0,15.0,15.0,286.0
48211,Hemphill County,4,-100.26,35.83,2362.49,0.0,0.0,,,,297.0,16.0,24556.0,,,,56.0,10.0,2280.0,289.0,14.0,22387.0,,,,,,,21.0,8.0,734.0,51.0,10.0,2640.0,,,,20.0,4.0,813.0,,,,226.0,8.0,8682.0,20.0,4.0,423.0,83.0,8.0,915.0,46.0,15.0,1336.0,,,
48213,Henderson County,82,-95.79,32.18,2456.63,0.03,0.28,,,,65.0,10.0,4183.0,161.0,17.0,13560.0,1024.0,152.0,52231.0,351.0,38.0,14037.0,158.0,25.0,7972.0,387.0,80.0,21387.0,201.0,59.0,6940.0,556.0,107.0,21213.0,,,,349.0,52.0,12378.0,80.0,7.0,2071.0,2180.0,119.0,146971.0,210.0,26.0,4847.0,2338.0,154.0,33122.0,954.0,145.0,21815.0,,,
48215,Hidalgo County,861,-98.22,26.35,4099.7,0.21,0.41,904.0,24.0,30600.0,727.0,61.0,39488.0,674.0,25.0,50610.0,5504.0,656.0,240829.0,9232.0,918.0,400394.0,4104.0,165.0,174857.0,7354.0,1001.0,349057.0,2360.0,573.0,76086.0,6165.0,1039.0,234888.0,593.0,45.0,30108.0,10617.0,397.0,225327.0,6107.0,118.0,283331.0,72655.0,2256.0,2064309.0,2683.0,119.0,33785.0,25748.0,1175.0,345203.0,5138.0,815.0,121184.0,9.0,17.0,813.0
48217,Hill County,36,-97.09,31.96,2552.93,0.01,0.71,7.0,3.0,423.0,27.0,4.0,1599.0,144.0,13.0,9366.0,959.0,67.0,59988.0,184.0,31.0,9006.0,41.0,9.0,2205.0,179.0,39.0,9521.0,63.0,26.0,2131.0,135.0,34.0,8545.0,,,,368.0,20.0,13367.0,,,,915.0,50.0,36028.0,81.0,10.0,1695.0,1189.0,68.0,16683.0,328.0,67.0,7270.0,,,
48219,Hockley County,23,-102.31,33.57,2353.18,0.01,0.43,16.0,3.0,1065.0,2064.0,56.0,144180.0,46.0,4.0,4146.0,376.0,41.0,14919.0,243.0,32.0,16676.0,39.0,9.0,1706.0,192.0,45.0,11479.0,79.0,14.0,3357.0,108.0,24.0,3896.0,,,,177.0,13.0,4172.0,,,,825.0,41.0,27794.0,21.0,5.0,473.0,719.0,39.0,9759.0,277.0,49.0,6580.0,,,
48221,Hood County,60,-97.83,32.41,1131.44,0.05,0.61,10.0,7.0,296.0,727.0,35.0,36497.0,159.0,11.0,17883.0,1230.0,175.0,67290.0,315.0,52.0,14923.0,191.0,22.0,7665.0,466.0,95.0,29186.0,254.0,69.0,10366.0,477.0,133.0,24129.0,3.0,3.0,157.0,752.0,89.0,22328.0,97.0,16.0,2636.0,2595.0,148.0,105465.0,238.0,30.0,6057.0,2146.0,123.0,33647.0,1113.0,142.0,25903.0,,,
48223,Hopkins County,37,-95.57,33.14,2053.15,0.02,0.24,,,,,,,76.0,14.0,5657.0,756.0,71.0,30349.0,1091.0,35.0,67868.0,128.0,13.0,4105.0,549.0,60.0,31374.0,110.0,31.0,3341.0,176.0,53.0,7415.0,23.0,4.0,3555.0,465.0,28.0,12598.0,30.0,4.0,371.0,1070.0,61.0,41723.0,85.0,7.0,4113.0,1123.0,62.0,18075.0,491.0,87.0,11569.0,,,
48225,Houston County,23,-95.39,31.34,3202.69,0.01,0.35,17.0,5.0,1276.0,151.0,6.0,7855.0,104.0,3.0,5987.0,203.0,25.0,10318.0,124.0,7.0,4912.0,54.0,10.0,2548.0,129.0,30.0,6369.0,28.0,8.0,1089.0,98.0,26.0,4300.0,,,,153.0,9.0,2744.0,,,,595.0,35.0,20602.0,22.0,4.0,440.0,389.0,34.0,5225.0,211.0,47.0,5898.0,,,
48227,Howard County,36,-101.43,32.3,2341.87,0.02,0.37,,,,888.0,61.0,52149.0,126.0,10.0,12496.0,689.0,49.0,41379.0,449.0,42.0,25986.0,167.0,14.0,2733.0,274.0,47.0,14448.0,141.0,43.0,6883.0,166.0,50.0,7933.0,6.0,4.0,274.0,235.0,22.0,9897.0,,,,2327.0,65.0,140502.0,36.0,5.0,401.0,1364.0,85.0,22351.0,529.0,73.0,12735.0,,,
48229,Hudspeth County,5,-105.48,31.54,11841.28,0.0,0.5,,,,,,,12.0,3.0,692.0,,,,,,,,,,,,,,,,,,,,,,,,,,,,,,,,,,38.0,6.0,591.0,,,,,,
48231,Hunt County,96,-96.08,33.12,2284.33,0.04,0.69,12.0,3.0,298.0,,,,192.0,8.0,15962.0,1030.0,195.0,56088.0,1093.0,66.0,59102.0,559.0,27.0,21079.0,319.0,88.0,18490.0,239.0,76.0,9343.0,609.0,94.0,30105.0,169.0,6.0,18795.0,717.0,89.0,25632.0,89.0,11.0,1986.0,3624.0,179.0,161389.0,227.0,27.0,3730.0,2825.0,143.0,43985.0,860.0,190.0,21054.0,1.0,4.0,58.0
48233,Hutchinson County,21,-101.35,35.81,2318.32,0.01,0.01,,,,306.0,35.0,17281.0,42.0,4.0,3235.0,534.0,30.0,34052.0,164.0,19.0,8824.0,55.0,7.0,1791.0,155.0,26.0,7836.0,48.0,10.0,2053.0,140.0,20.0,21477.0,,,,62.0,12.0,5420.0,,,,545.0,40.0,20893.0,40.0,4.0,807.0,653.0,39.0,9405.0,375.0,60.0,10283.0,,,
48235,Irion County,2,-100.98,31.29,2722.36,0.0,0.0,,,,145.0,10.0,11739.0,,,,60.0,9.0,3152.0,26.0,4.0,1414.0,,,,,,,,,,4.0,3.0,129.0,,,,,,,,,,,,,,,,13.0,4.0,216.0,28.0,7.0,841.0,,,
48237,Jack County,9,-98.16,33.21,2383.35,0.0,0.39,19.0,4.0,1802.0,269.0,32.0,12421.0,89.0,5.0,9566.0,174.0,23.0,10677.0,27.0,8.0,1813.0,5.0,3.0,282.0,29.0,7.0,1438.0,16.0,9.0,517.0,49.0,10.0,2595.0,,,,321.0,9.0,10557.0,,,,331.0,8.0,11750.0,,,,160.0,16.0,1723.0,59.0,24.0,1593.0,,,
48239,Jackson County,15,-96.56,28.92,2219.23,0.01,0.17,8.0,3.0,274.0,278.0,27.0,13287.0,57.0,3.0,4859.0,910.0,39.0,42290.0,142.0,15.0,5514.0,55.0,6.0,2917.0,153.0,22.0,7258.0,27.0,14.0,453.0,155.0,22.0,4341.0,,,,118.0,12.0,5027.0,,,,321.0,21.0,12579.0,,,,355.0,25.0,5120.0,258.0,40.0,7395.0,,,
48241,Jasper County,36,-94.0,30.75,2511.35,0.01,0.45,35.0,10.0,1705.0,119.0,5.0,5397.0,118.0,6.0,8662.0,473.0,48.0,32007.0,256.0,29.0,12878.0,38.0,11.0,1596.0,275.0,47.0,10986.0,51.0,18.0,2439.0,151.0,36.0,5565.0,,,,143.0,12.0,11391.0,24.0,3.0,582.0,2290.0,77.0,46569.0,20.0,6.0,569.0,854.0,51.0,12318.0,393.0,75.0,8491.0,,,
48243,Jeff Davis County,2,-104.15,30.7,5863.43,0.0,0.0,,,,,,,,,,24.0,5.0,1199.0,,,,,,,29.0,3.0,1131.0,,,,17.0,5.0,654.0,,,,,,,,,,35.0,3.0,910.0,,,,107.0,12.0,1571.0,42.0,11.0,890.0,,,
48245,Jefferson County,253,-94.17,29.83,2552.89,0.1,0.31,41.0,13.0,1721.0,199.0,22.0,14809.0,366.0,17.0,42071.0,10817.0,391.0,657606.0,4308.0,319.0,287135.0,1041.0,68.0,48388.0,2689.0,359.0,176635.0,2286.0,271.0,113116.0,5644.0,465.0,417566.0,2485.0,29.0,124670.0,5023.0,252.0,182899.0,797.0,52.0,23945.0,17323.0,840.0,705742.0,944.0,55.0,12179.0,10586.0,524.0,159659.0,4752.0,589.0,148348.0,13.0,6.0,182.0
48247,Jim Hogg County,5,-98.7,27.01,2942.76,0.0,0.17,,,,20.0,5.0,1822.0,,,,12.0,3.0,521.0,4.0,3.0,83.0,,,,39.0,7.0,1137.0,,,,,,,,,,,,,,,,671.0,7.0,9875.0,,,,76.0,13.0,1063.0,9.0,4.0,167.0,,,
48249,Jim Wells County,41,-98.11,27.81,2249.61,0.02,0.22,,,,1646.0,67.0,83523.0,87.0,4.0,3785.0,479.0,52.0,22105.0,461.0,44.0,27784.0,95.0,10.0,2821.0,295.0,66.0,15177.0,298.0,30.0,16994.0,152.0,49.0,4839.0,93.0,3.0,7360.0,197.0,25.0,9975.0,66.0,4.0,1199.0,5618.0,103.0,113358.0,26.0,6.0,455.0,1122.0,78.0,16447.0,442.0,72.0,13794.0,,,
48251,Johnson County,171,-97.36,32.38,1901.53,0.09,0.63,7.0,5.0,295.0,1731.0,41.0,95938.0,141.0,8.0,13285.0,3266.0,424.0,170139.0,1436.0,133.0,81521.0,299.0,34.0,15708.0,926.0,190.0,56781.0,651.0,149.0,30083.0,1296.0,219.0,126457.0,292.0,9.0,11211.0,2407.0,146.0,79363.0,337.0,26.0,11300.0,3472.0,271.0,154083.0,200.0,43.0,3193.0,5149.0,286.0,78011.0,3029.0,321.0,88149.0,2.0,4.0,83.0
48253,Jones County,20,-99.86,32.71,2427.48,0.01,0.24,32.0,5.0,817.0,74.0,10.0,4014.0,47.0,8.0,3578.0,646.0,31.0,35768.0,124.0,14.0,7118.0,17.0,7.0,503.0,74.0,17.0,6053.0,32.0,10.0,887.0,51.0,11.0,2005.0,,,,176.0,6.0,8752.0,,,,401.0,20.0,12343.0,14.0,4.0,157.0,131.0,21.0,1836.0,129.0,35.0,2284.0,,,
48255,Karnes County,16,-97.91,28.88,1951.91,0.01,0.6,12.0,3.0,537.0,2031.0,33.0,154345.0,95.0,3.0,7668.0,97.0,24.0,3909.0,224.0,28.0,12130.0,,,,100.0,16.0,6829.0,184.0,16.0,10943.0,115.0,16.0,2361.0,,,,578.0,15.0,34777.0,,,,440.0,17.0,17474.0,,,,569.0,46.0,7405.0,94.0,29.0,2025.0,,,
48257,Kaufman County,130,-96.34,32.6,2091.63,0.06,0.74,,,,95.0,17.0,7004.0,331.0,19.0,30541.0,3491.0,346.0,197238.0,859.0,88.0,48246.0,430.0,33.0,7936.0,720.0,118.0,43099.0,249.0,79.0,7884.0,686.0,152.0,34195.0,23.0,3.0,4044.0,1090.0,107.0,31256.0,269.0,24.0,4398.0,3570.0,189.0,122542.0,260.0,30.0,2787.0,3770.0,209.0,61388.0,1727.0,240.0,62914.0,9.0,6.0,648.0
48259,Kendall County,45,-98.73,29.94,1716.95,0.03,0.46,29.0,6.0,1049.0,142.0,12.0,7369.0,32.0,5.0,2385.0,1992.0,187.0,114965.0,502.0,71.0,33201.0,195.0,23.0,12096.0,727.0,81.0,56283.0,267.0,94.0,12754.0,944.0,193.0,57215.0,54.0,6.0,7500.0,743.0,85.0,29291.0,315.0,30.0,8781.0,2185.0,178.0,89845.0,427.0,28.0,11032.0,1935.0,120.0,37695.0,1035.0,127.0,30140.0,7.0,6.0,313.0
48261,Kenedy County,0,-97.75,26.92,3997.82,0.0,0.0,,,,,,,36.0,5.0,3766.0,,,,,,,,,,,,,,,,,,,,,,,,,,,,,,,,,,,,,81.0,5.0,6755.0,,,
48265,Kerr County,52,-99.39,30.05,2867.58,0.02,0.45,20.0,6.0,458.0,24.0,14.0,1507.0,,,,1590.0,183.0,81783.0,170.0,41.0,9430.0,224.0,18.0,14186.0,349.0,75.0,22491.0,379.0,96.0,15754.0,741.0,146.0,29262.0,582.0,5.0,16318.0,432.0,73.0,14517.0,667.0,15.0,12826.0,4148.0,179.0,242083.0,159.0,26.0,4710.0,2596.0,154.0,48360.0,1302.0,171.0,41245.0,1.0,4.0,52.0
48267,Kimble County,4,-99.82,30.47,3240.71,0.0,0.0,,,,,,,,,,63.0,16.0,2758.0,,,,,,,41.0,7.0,1660.0,19.0,7.0,681.0,10.0,6.0,315.0,,,,11.0,3.0,564.0,,,,130.0,7.0,5213.0,,,,233.0,25.0,3765.0,59.0,16.0,1131.0,,,
48271,Kinney County,4,-100.42,29.33,3535.85,0.0,0.0,,,,,,,,,,2.0,3.0,65.0,,,,,,,,,,,,,,,,,,,,,,,,,11.0,3.0,512.0,,,,22.0,5.0,280.0,63.0,7.0,1445.0,,,
48273,Kleberg County,31,-97.75,27.4,2351.77,0.01,0.02,29.0,3.0,2047.0,95.0,13.0,6747.0,32.0,4.0,2061.0,342.0,29.0,12904.0,118.0,5.0,7378.0,117.0,12.0,4855.0,274.0,58.0,12777.0,101.0,25.0,3840.0,158.0,26.0,4843.0,,,,251.0,18.0,5688.0,63.0,10.0,2334.0,1579.0,73.0,47371.0,38.0,8.0,1222.0,1462.0,77.0,21415.0,239.0,53.0,4783.0,,,
48275,Knox County,4,-99.71,33.59,2215.43,0.0,0.0,,,,21.0,5.0,511.0,,,,37.0,6.0,1528.0,88.0,10.0,7035.0,,,,51.0,8.0,2017.0,,,,,,,,,,,,,,,,174.0,4.0,6273.0,,,,38.0,7.0,512.0,30.0,13.0,804.0,,,
48277,Lamar County,50,-95.58,33.64,2416.66,0.02,0.28,10.0,3.0,528.0,,,,149.0,7.0,16772.0,1021.0,130.0,55405.0,420.0,54.0,18149.0,136.0,22.0,6818.0,491.0,78.0,26125.0,150.0,45.0,4567.0,372.0,54.0,17373.0,12.0,4.0,1003.0,776.0,53.0,27819.0,72.0,4.0,1223.0,3552.0,188.0,142718.0,82.0,11.0,1232.0,1604.0,106.0,25381.0,756.0,138.0,17386.0,,,
48279,Lamb County,13,-102.34,34.03,2635.64,0.0,0.0,12.0,4.0,645.0,,,,181.0,7.0,16740.0,69.0,15.0,2531.0,115.0,18.0,7718.0,7.0,4.0,544.0,120.0,27.0,5705.0,6.0,4.0,268.0,35.0,11.0,1145.0,,,,133.0,3.0,5726.0,,,,478.0,29.0,18873.0,,,,255.0,15.0,2732.0,116.0,39.0,2217.0,,,
48281,Lampasas County,21,-98.24,31.18,1848.04,0.01,0.23,,,,,,,,,,860.0,97.0,35060.0,74.0,13.0,3361.0,38.0,8.0,957.0,96.0,20.0,6213.0,197.0,21.0,5215.0,137.0,37.0,6354.0,,,,57.0,18.0,1787.0,,,,362.0,21.0,14210.0,29.0,3.0,136.0,458.0,37.0,6686.0,258.0,48.0,5528.0,,,
48283,La Salle County,8,-99.1,28.34,3870.04,0.0,0.24,8.0,3.0,272.0,384.0,20.0,22981.0,,,,30.0,5.0,304.0,64.0,8.0,3739.0,,,,,,,4.0,4.0,110.0,7.0,5.0,195.0,,,,33.0,3.0,1697.0,,,,144.0,11.0,5069.0,13.0,4.0,619.0,469.0,33.0,6594.0,34.0,9.0,749.0,,,
48285,Lavaca County,20,-96.93,29.37,2513.62,0.01,0.55,,,,163.0,16.0,13646.0,,,,309.0,45.0,20197.0,273.0,21.0,16330.0,31.0,6.0,723.0,253.0,27.0,17700.0,50.0,12.0,2202.0,162.0,38.0,11565.0,,,,12.0,8.0,482.0,47.0,3.0,691.0,1190.0,38.0,37120.0,22.0,6.0,85.0,390.0,32.0,6101.0,308.0,61.0,7927.0,3.0,3.0,25.0
48287,Lee County,17,-96.96,30.3,1642.45,0.01,0.19,,,,569.0,29.0,34601.0,136.0,5.0,10692.0,2120.0,55.0,140684.0,156.0,22.0,6017.0,46.0,7.0,2614.0,219.0,20.0,13463.0,108.0,14.0,4697.0,93.0,25.0,4128.0,,,,68.0,11.0,2538.0,27.0,3.0,630.0,323.0,31.0,11213.0,5.0,3.0,141.0,322.0,37.0,5283.0,336.0,49.0,6910.0,,,
48289,Leon County,17,-96.0,31.27,2798.89,0.01,0.23,37.0,4.0,1900.0,249.0,11.0,13215.0,222.0,8.0,24442.0,737.0,46.0,41989.0,275.0,20.0,13769.0,16.0,5.0,1132.0,119.0,21.0,7742.0,110.0,16.0,5021.0,62.0,17.0,2579.0,,,,80.0,7.0,3504.0,,,,114.0,12.0,3498.0,,,,372.0,46.0,5643.0,171.0,49.0,4083.0,,,
48291,Liberty County,86,-94.79,30.09,3046.84,0.03,0.37,51.0,12.0,2411.0,529.0,31.0,29793.0,47.0,6.0,4526.0,1929.0,127.0,112402.0,419.0,42.0,34238.0,69.0,15.0,5005.0,354.0,67.0,18625.0,161.0,44.0,7007.0,339.0,90.0,14674.0,,,,1622.0,32.0,52901.0,196.0,7.0,3705.0,1714.0,107.0,82785.0,5.0,6.0,157.0,1765.0,102.0,26430.0,709.0,132.0,20098.0,13.0,5.0,216.0
48293,Limestone County,23,-96.58,31.53,2416.63,0.01,0.4,,,,517.0,15.0,47557.0,174.0,6.0,19745.0,149.0,28.0,7726.0,149.0,9.0,4901.0,68.0,9.0,3106.0,207.0,29.0,8835.0,75.0,12.0,1373.0,430.0,25.0,19073.0,53.0,3.0,2950.0,223.0,10.0,10316.0,,,,1162.0,54.0,42716.0,,,,532.0,40.0,6663.0,171.0,46.0,3982.0,,,
48295,Lipscomb County,3,-100.27,36.27,2414.4,0.0,0.29,,,,86.0,9.0,4470.0,,,,23.0,9.0,1104.0,,,,,,,61.0,10.0,3031.0,,,,21.0,6.0,1058.0,,,,,,,,,,,,,,,,,,,30.0,14.0,368.0,,,
48297,Live Oak County,12,-98.1,28.27,2794.18,0.0,0.0,,,,261.0,20.0,21750.0,54.0,5.0,1701.0,316.0,21.0,11865.0,270.0,16.0,11245.0,10.0,3.0,512.0,88.0,13.0,5692.0,126.0,11.0,3690.0,101.0,27.0,3587.0,,,,172.0,10.0,11072.0,,,,115.0,9.0,2545.0,16.0,4.0,496.0,353.0,37.0,5306.0,89.0,24.0,2833.0,,,
48299,Llano County,21,-98.7,30.67,2501.71,0.01,0.01,,,,20.0,5.0,729.0,52.0,4.0,2898.0,346.0,78.0,17172.0,183.0,8.0,10262.0,13.0,6.0,340.0,184.0,31.0,10526.0,85.0,30.0,3003.0,164.0,42.0,9114.0,,,,109.0,23.0,3719.0,19.0,3.0,469.0,554.0,59.0,18334.0,37.0,9.0,1026.0,1193.0,50.0,28267.0,158.0,48.0,4283.0,,,
48301,Loving County,0,-103.57,31.84,1752.33,0.0,0.0,,,,189.0,3.0,5615.0,,,,,,,,,,,,,,,,,,,,,,,,,,,,,,,,,,,,,,,,,,,,,
48303,Lubbock County,308,-101.82,33.58,2333.07,0.13,0.69,68.0,11.0,3053.0,531.0,44.0,25057.0,447.0,10.0,38962.0,7309.0,746.0,388617.0,6462.0,417.0,365548.0,2765.0,130.0,144024.0,5664.0,564.0,380886.0,2129.0,473.0,89217.0,4935.0,698.0,273402.0,1079.0,38.0,85218.0,4987.0,360.0,168015.0,1852.0,85.0,40303.0,25488.0,905.0,1232459.0,1658.0,101.0,29292.0,17504.0,706.0,278778.0,6867.0,701.0,187053.0,14.0,11.0,460.0
48305,Lynn County,6,-101.81,33.15,2314.13,0.0,0.52,,,,,,,,,,36.0,10.0,1925.0,12.0,6.0,872.0,39.0,6.0,2176.0,52.0,9.0,2212.0,,,,10.0,3.0,403.0,,,,,,,,,,184.0,5.0,8486.0,,,,5.0,3.0,26.0,64.0,12.0,2536.0,,,
48307,McCulloch County,8,-99.39,31.17,2780.2,0.0,0.0,,,,,,,,,,60.0,20.0,2280.0,143.0,6.0,5960.0,25.0,7.0,974.0,97.0,12.0,4243.0,20.0,9.0,486.0,48.0,19.0,1684.0,,,,,,,,,,188.0,17.0,7706.0,14.0,3.0,504.0,221.0,22.0,3434.0,98.0,30.0,2096.0,,,
48309,McLennan County,254,-97.22,31.55,2746.12,0.09,0.52,5.0,3.0,218.0,125.0,13.0,7246.0,765.0,24.0,60043.0,6423.0,495.0,324515.0,3667.0,270.0,188162.0,923.0,71.0,42489.0,5112.0,364.0,363452.0,1753.0,273.0,93638.0,4400.0,416.0,222702.0,1011.0,27.0,52422.0,7271.0,274.0,205972.0,9858.0,69.0,384180.0,16728.0,605.0,794913.0,1654.0,88.0,20882.0,11744.0,561.0,176800.0,4518.0,607.0,127080.0,26.0,9.0,1185.0
48311,McMullen County,1,-98.55,28.31,2995.58,0.0,0.0,,,,20.0,4.0,1175.0,,,,,,,35.0,3.0,1791.0,,,,,,,,,,,,,,,,,,,,,,12.0,4.0,515.0,,,,22.0,4.0,462.0,,,,,,
48313,Madison County,14,-95.95,30.96,1223.49,0.01,0.35,77.0,5.0,2872.0,151.0,11.0,7711.0,,,,171.0,23.0,7196.0,15.0,5.0,801.0,15.0,5.0,610.0,72.0,18.0,3613.0,37.0,16.0,1925.0,63.0,19.0,2332.0,,,,29.0,9.0,976.0,,,,292.0,20.0,13532.0,7.0,3.0,206.0,668.0,41.0,7805.0,132.0,27.0,3985.0,,,
48315,Marion County,10,-94.34,32.79,1088.88,0.01,0.02,,,,,,,11.0,4.0,476.0,18.0,4.0,825.0,6.0,3.0,635.0,,,,41.0,10.0,2160.0,6.0,4.0,398.0,13.0,11.0,691.0,,,,20.0,5.0,1601.0,,,,405.0,14.0,11953.0,,,,304.0,22.0,4522.0,58.0,18.0,878.0,,,
48317,Martin County,6,-101.92,32.27,2371.84,0.0,0.84,,,,175.0,15.0,15614.0,46.0,4.0,5302.0,279.0,19.0,13257.0,53.0,9.0,3792.0,,,,35.0,5.0,1843.0,,,,22.0,3.0,1362.0,,,,16.0,6.0,655.0,,,,222.0,6.0,12568.0,,,,126.0,8.0,1515.0,45.0,15.0,1276.0,,,
48319,Mason County,4,-99.22,30.71,2413.97,0.0,0.0,,,,18.0,3.0,1000.0,,,,67.0,13.0,2532.0,63.0,9.0,2752.0,7.0,3.0,220.0,40.0,7.0,2535.0,14.0,6.0,900.0,60.0,16.0,2363.0,,,,4.0,3.0,214.0,,,,116.0,12.0,2818.0,5.0,4.0,59.0,117.0,13.0,1813.0,69.0,16.0,1510.0,,,
48321,Matagorda County,37,-96.0,28.89,3580.82,0.01,0.12,104.0,17.0,3092.0,61.0,11.0,4270.0,1295.0,9.0,172378.0,192.0,31.0,9471.0,117.0,26.0,6743.0,129.0,13.0,2784.0,194.0,42.0,8579.0,148.0,27.0,7229.0,222.0,37.0,8513.0,40.0,4.0,3651.0,375.0,33.0,19633.0,,,,1229.0,81.0,53999.0,64.0,15.0,1138.0,947.0,94.0,14612.0,408.0,95.0,12484.0,,,
48323,Maverick County,58,-100.31,28.79,3345.86,0.02,0.85,,,,204.0,6.0,10380.0,,,,184.0,40.0,6211.0,233.0,43.0,9901.0,158.0,17.0,5160.0,406.0,62.0,13122.0,91.0,34.0,2958.0,259.0,52.0,12500.0,,,,229.0,19.0,6103.0,44.0,6.0,734.0,4311.0,111.0,115218.0,1032.0,5.0,27887.0,1559.0,72.0,21117.0,207.0,56.0,5080.0,,,
48325,Medina County,51,-99.11,29.28,3456.09,0.01,0.28,12.0,4.0,540.0,234.0,15.0,10124.0,83.0,6.0,6070.0,961.0,105.0,43484.0,356.0,33.0,19020.0,59.0,14.0,2853.0,273.0,47.0,15163.0,56.0,31.0,1882.0,483.0,69.0,19356.0,9.0,4.0,996.0,159.0,27.0,5024.0,,,,982.0,71.0,37919.0,52.0,12.0,1097.0,1314.0,81.0,17764.0,460.0,80.0,10764.0,,,
48327,Menard County,2,-99.83,30.86,2336.45,0.0,0.0,,,,,,,,,,41.0,9.0,1530.0,,,,,,,24.0,3.0,810.0,,,,10.0,6.0,268.0,,,,,,,,,,,,,,,,20.0,3.0,230.0,14.0,7.0,153.0,,,
48329,Midland County,171,-102.01,31.84,2336.08,0.07,0.59,39.0,12.0,1799.0,30594.0,835.0,2722395.0,1035.0,18.0,89119.0,6893.0,471.0,388213.0,6855.0,343.0,517668.0,1016.0,65.0,43564.0,2347.0,338.0,205051.0,3435.0,392.0,203236.0,4178.0,538.0,295989.0,998.0,49.0,155765.0,3411.0,254.0,153135.0,974.0,42.0,32374.0,7530.0,445.0,392679.0,1347.0,61.0,34867.0,9611.0,433.0,185052.0,3956.0,439.0,156153.0,13.0,10.0,1631.0
48331,Milam County,25,-97.0,30.76,2644.03,0.01,0.31,,,,101.0,10.0,4366.0,31.0,4.0,1819.0,734.0,43.0,40967.0,216.0,11.0,10159.0,152.0,8.0,4381.0,197.0,29.0,8646.0,54.0,17.0,1907.0,99.0,33.0,3666.0,,,,127.0,12.0,6895.0,,,,514.0,33.0,18849.0,18.0,6.0,301.0,441.0,45.0,6698.0,223.0,53.0,6021.0,,,
48333,Mills County,5,-98.55,31.49,1941.83,0.0,0.0,,,,,,,,,,49.0,14.0,1559.0,60.0,6.0,2114.0,79.0,4.0,3681.0,56.0,5.0,2234.0,15.0,4.0,427.0,21.0,5.0,765.0,,,,141.0,5.0,9761.0,,,,98.0,11.0,2738.0,9.0,3.0,177.0,74.0,7.0,1292.0,66.0,13.0,1636.0,,,
48335,Mitchell County,8,-100.92,32.29,2371.98,0.0,0.0,2.0,3.0,48.0,116.0,9.0,4580.0,29.0,5.0,5516.0,119.0,10.0,5705.0,12.0,3.0,363.0,8.0,7.0,491.0,55.0,6.0,2951.0,14.0,3.0,705.0,18.0,8.0,801.0,,,,,,,,,,242.0,7.0,13796.0,,,,212.0,20.0,2601.0,72.0,18.0,1310.0,,,
48337,Montague County,20,-97.72,33.62,2430.56,0.01,0.26,,,,485.0,29.0,26926.0,18.0,4.0,1285.0,183.0,43.0,9315.0,56.0,21.0,2077.0,42.0,8.0,1281.0,189.0,20.0,12616.0,26.0,10.0,1199.0,149.0,50.0,6246.0,,,,42.0,6.0,2182.0,52.0,3.0,1604.0,382.0,32.0,11390.0,7.0,3.0,184.0,401.0,33.0,6029.0,207.0,55.0,4719.0,,,
48339,Montgomery County,590,-95.51,30.3,2789.29,0.21,0.54,19.0,12.0,775.0,4994.0,167.0,724344.0,1286.0,52.0,186177.0,13417.0,1237.0,947233.0,8223.0,649.0,563824.0,2335.0,173.0,169726.0,6537.0,942.0,621405.0,3440.0,697.0,171722.0,11242.0,1696.0,960050.0,10106.0,107.0,2185965.0,11143.0,732.0,467454.0,2532.0,189.0,71449.0,25673.0,1472.0,1374898.0,3662.0,189.0,62724.0,24559.0,1085.0,426308.0,9697.0,1040.0,268788.0,29.0,30.0,3804.0
48341,Moore County,21,-101.91,35.82,2355.83,0.01,0.0,28.0,6.0,1859.0,48.0,6.0,1960.0,,,,558.0,44.0,24020.0,445.0,28.0,25361.0,32.0,8.0,1622.0,135.0,35.0,6387.0,54.0,18.0,1688.0,76.0,16.0,2982.0,,,,248.0,11.0,7352.0,5.0,3.0,176.0,647.0,42.0,29523.0,12.0,5.0,220.0,689.0,50.0,10323.0,254.0,59.0,6382.0,,,
48343,Morris County,12,-94.74,33.07,669.97,0.02,0.0,,,,7.0,3.0,522.0,,,,79.0,13.0,4288.0,89.0,8.0,4981.0,22.0,10.0,925.0,129.0,24.0,6298.0,12.0,4.0,192.0,59.0,12.0,4276.0,,,,16.0,5.0,530.0,,,,148.0,16.0,4592.0,,,,199.0,18.0,2630.0,150.0,34.0,3965.0,,,
48345,Motley County,1,-100.77,34.04,2563.58,0.0,0.0,,,,,,,,,,,,,33.0,3.0,1324.0,,,,,,,,,,,,,,,,,,,,,,,,,,,,,,,10.0,3.0,58.0,,,
48347,Nacogdoches County,65,-94.59,31.6,2540.76,0.03,0.57,102.0,14.0,2705.0,298.0,14.0,30846.0,96.0,11.0,9964.0,764.0,86.0,36314.0,638.0,50.0,32628.0,118.0,17.0,5157.0,551.0,93.0,37055.0,188.0,56.0,5942.0,466.0,97.0,22779.0,171.0,10.0,9474.0,1706.0,57.0,42401.0,96.0,9.0,1535.0,2726.0,187.0,116270.0,68.0,14.0,926.0,2674.0,124.0,38937.0,794.0,125.0,16336.0,3.0,4.0,43.0
48349,Navarro County,49,-96.5,32.03,2812.79,0.02,0.7,90.0,5.0,3394.0,88.0,10.0,4687.0,133.0,13.0,9888.0,553.0,84.0,24081.0,498.0,37.0,25696.0,122.0,15.0,4562.0,361.0,72.0,19244.0,145.0,47.0,4329.0,291.0,61.0,11473.0,272.0,9.0,20048.0,749.0,38.0,23517.0,,,,2374.0,124.0,73859.0,209.0,16.0,3153.0,1266.0,77.0,18834.0,396.0,95.0,9777.0,8.0,3.0,131.0
48351,Newton County,14,-93.74,30.81,2433.55,0.01,0.15,84.0,11.0,3905.0,,,,70.0,4.0,5257.0,22.0,9.0,1222.0,68.0,6.0,1848.0,,,,17.0,5.0,779.0,,,,16.0,12.0,728.0,,,,45.0,8.0,1274.0,,,,159.0,8.0,4236.0,,,,7.0,3.0,122.0,50.0,16.0,971.0,,,
48353,Nolan County,15,-100.4,32.27,2366.75,0.01,0.0,,,,222.0,9.0,10332.0,69.0,9.0,6019.0,241.0,19.0,16183.0,131.0,17.0,7817.0,45.0,8.0,1473.0,119.0,27.0,6190.0,43.0,12.0,732.0,87.0,24.0,3758.0,,,,72.0,9.0,3704.0,,,,564.0,28.0,24942.0,38.0,7.0,1036.0,612.0,38.0,9251.0,203.0,40.0,6684.0,,,
48355,Nueces County,362,-97.62,27.72,2255.89,0.16,0.14,45.0,11.0,1988.0,2481.0,136.0,182616.0,708.0,32.0,72994.0,15210.0,599.0,865302.0,6801.0,433.0,395095.0,1830.0,112.0,88818.0,4495.0,586.0,260040.0,3321.0,447.0,160788.0,6686.0,816.0,407746.0,1179.0,34.0,60311.0,10468.0,375.0,345389.0,1298.0,82.0,49103.0,29414.0,1085.0,1226680.0,2375.0,96.0,34438.0,20352.0,947.0,313241.0,5514.0,697.0,172799.0,17.0,12.0,231.0
48357,Ochiltree County,10,-100.81,36.26,2377.59,0.0,0.0,,,,999.0,62.0,61378.0,72.0,3.0,5391.0,317.0,30.0,17128.0,282.0,29.0,13506.0,38.0,9.0,1910.0,148.0,23.0,8447.0,51.0,9.0,2695.0,90.0,20.0,4160.0,,,,65.0,10.0,2224.0,,,,275.0,16.0,12275.0,27.0,3.0,398.0,280.0,20.0,4634.0,172.0,41.0,4529.0,,,
48359,Oldham County,2,-102.62,35.39,3888.54,0.0,0.0,,,,46.0,3.0,2902.0,38.0,4.0,2686.0,,,,,,,,,,,,,,,,,,,,,,,,,,,,319.0,3.0,12003.0,,,,33.0,7.0,408.0,11.0,5.0,377.0,,,
48361,Orange County,84,-117.87,33.75,983.09,0.09,0.38,,,,106.0,7.0,4672.0,142.0,10.0,16056.0,2186.0,122.0,110618.0,338.0,34.0,16587.0,79.0,15.0,4207.0,502.0,96.0,28849.0,159.0,54.0,6907.0,622.0,86.0,46946.0,,,,604.0,45.0,27980.0,166.0,21.0,2063.0,1716.0,129.0,54166.0,106.0,16.0,1949.0,2237.0,142.0,34381.0,1042.0,153.0,29523.0,,,
48363,Palo Pinto County,29,-98.28,32.72,2552.37,0.01,0.1,,,,211.0,16.0,10631.0,102.0,12.0,9125.0,368.0,57.0,16580.0,220.0,27.0,16727.0,68.0,9.0,3202.0,163.0,36.0,8394.0,203.0,33.0,11502.0,176.0,47.0,6575.0,,,,144.0,15.0,4016.0,,,,908.0,49.0,40784.0,102.0,12.0,3481.0,918.0,73.0,15007.0,314.0,66.0,8100.0,,,
48365,Panola County,23,-94.31,32.14,2127.61,0.01,0.47,,,,755.0,48.0,56865.0,52.0,11.0,4846.0,1350.0,42.0,43664.0,216.0,23.0,12371.0,36.0,8.0,1165.0,218.0,25.0,14013.0,178.0,25.0,4908.0,329.0,42.0,16106.0,,,,296.0,15.0,10972.0,28.0,4.0,861.0,579.0,33.0,20019.0,30.0,5.0,339.0,490.0,31.0,6993.0,256.0,48.0,7317.0,,,
48367,Parker County,138,-97.8,32.78,2357.0,0.06,0.68,71.0,22.0,2465.0,439.0,53.0,28695.0,131.0,6.0,11673.0,3360.0,463.0,197063.0,1326.0,147.0,68320.0,433.0,35.0,15170.0,742.0,156.0,53187.0,493.0,168.0,22988.0,1296.0,317.0,69225.0,259.0,14.0,28208.0,1792.0,165.0,61508.0,332.0,25.0,8049.0,3760.0,284.0,172504.0,435.0,52.0,6229.0,4509.0,225.0,70901.0,1749.0,294.0,49415.0,13.0,12.0,578.0
48369,Parmer County,10,-102.77,34.49,2292.4,0.0,0.0,50.0,7.0,2695.0,,,,,,,82.0,23.0,3692.0,159.0,18.0,12702.0,6.0,4.0,194.0,78.0,17.0,4444.0,57.0,6.0,4405.0,229.0,12.0,19093.0,,,,235.0,5.0,5172.0,,,,173.0,7.0,7054.0,,,,104.0,12.0,1388.0,139.0,31.0,3998.0,,,
48371,Pecos County,16,-102.81,30.79,12340.25,0.0,0.0,,,,539.0,33.0,38358.0,40.0,8.0,3577.0,203.0,19.0,8950.0,158.0,17.0,8601.0,47.0,8.0,1512.0,125.0,16.0,6252.0,60.0,13.0,1809.0,66.0,15.0,2079.0,,,,190.0,11.0,7203.0,,,,413.0,22.0,19702.0,,,,630.0,47.0,11399.0,135.0,32.0,3841.0,,,
48373,Polk County,50,-94.82,30.76,2873.8,0.02,0.24,184.0,27.0,10643.0,32.0,6.0,1306.0,198.0,14.0,16180.0,492.0,72.0,22779.0,150.0,20.0,8008.0,131.0,16.0,7650.0,367.0,44.0,16471.0,151.0,34.0,8968.0,193.0,77.0,8607.0,39.0,5.0,1498.0,472.0,46.0,16848.0,23.0,5.0,477.0,1420.0,82.0,54415.0,35.0,6.0,527.0,1170.0,69.0,18692.0,533.0,84.0,11925.0,2.0,3.0,39.0
48375,Potter County,118,-101.88,35.37,2387.47,0.05,0.5,9.0,4.0,651.0,214.0,32.0,15685.0,1341.0,16.0,112469.0,3625.0,295.0,205892.0,3339.0,174.0,210462.0,767.0,54.0,39341.0,3735.0,248.0,266502.0,809.0,159.0,35661.0,1867.0,308.0,115631.0,607.0,18.0,66357.0,1844.0,144.0,64400.0,347.0,22.0,7978.0,14128.0,490.0,746265.0,721.0,46.0,13694.0,8352.0,373.0,135777.0,2809.0,329.0,90691.0,8.0,7.0,58.0
48377,Presidio County,7,-104.23,29.99,9987.17,0.0,0.0,,,,,,,15.0,3.0,1170.0,47.0,12.0,1660.0,,,,,,,63.0,9.0,2648.0,,,,6.0,3.0,51.0,,,,49.0,6.0,1252.0,,,,64.0,7.0,2449.0,71.0,4.0,2350.0,275.0,27.0,4301.0,15.0,6.0,241.0,,,
48379,Rains County,12,-95.8,32.87,670.43,0.02,0.58,,,,,,,,,,245.0,35.0,12297.0,66.0,7.0,2325.0,,,,50.0,9.0,2320.0,27.0,7.0,594.0,223.0,20.0,5591.0,,,,51.0,6.0,1379.0,,,,103.0,13.0,2943.0,,,,182.0,19.0,2987.0,81.0,27.0,2252.0,,,
48381,Randall County,136,-101.89,34.94,2388.98,0.06,0.57,50.0,14.0,1896.0,61.0,22.0,4237.0,488.0,6.0,28152.0,3121.0,363.0,181866.0,1765.0,110.0,94142.0,663.0,33.0,30934.0,1244.0,206.0,71806.0,558.0,149.0,23827.0,1093.0,238.0,59105.0,101.0,11.0,5311.0,1600.0,146.0,42065.0,332.0,34.0,9112.0,3656.0,279.0,142684.0,316.0,44.0,5322.0,4303.0,223.0,74456.0,2439.0,293.0,61781.0,,,
48383,Reagan County,4,-101.53,31.35,3045.77,0.0,0.0,,,,627.0,35.0,30782.0,29.0,4.0,1120.0,55.0,9.0,3558.0,140.0,10.0,10925.0,,,,18.0,4.0,1184.0,49.0,3.0,2743.0,19.0,5.0,349.0,,,,62.0,4.0,2512.0,,,,149.0,4.0,7536.0,,,,149.0,12.0,2164.0,39.0,15.0,1218.0,,,
48385,Real County,3,-99.83,29.79,1813.23,0.0,0.0,,,,,,,,,,28.0,8.0,802.0,6.0,4.0,230.0,,,,,,,17.0,7.0,563.0,47.0,4.0,982.0,,,,15.0,5.0,528.0,,,,79.0,10.0,2919.0,,,,222.0,16.0,1778.0,80.0,7.0,3419.0,,,
48387,Red River County,12,-95.04,33.57,2738.21,0.0,0.19,14.0,4.0,614.0,59.0,5.0,3027.0,16.0,3.0,958.0,199.0,15.0,13936.0,17.0,7.0,588.0,14.0,5.0,739.0,75.0,14.0,3021.0,24.0,5.0,140.0,25.0,7.0,1136.0,,,,3.0,3.0,249.0,,,,219.0,14.0,8436.0,6.0,3.0,59.0,93.0,12.0,880.0,40.0,20.0,609.0,,,
48389,Reeves County,16,-103.66,31.23,6841.81,0.0,0.7,,,,1313.0,51.0,110702.0,34.0,4.0,3273.0,373.0,21.0,17773.0,340.0,26.0,20160.0,36.0,7.0,1717.0,57.0,10.0,2541.0,135.0,10.0,5677.0,69.0,19.0,4210.0,,,,276.0,18.0,17023.0,,,,345.0,19.0,12888.0,16.0,3.0,249.0,953.0,63.0,21210.0,134.0,25.0,8436.0,,,
48391,Refugio County,7,-97.24,28.32,2034.24,0.0,0.0,,,,398.0,21.0,22881.0,,,,246.0,13.0,9407.0,54.0,7.0,2487.0,,,,22.0,6.0,851.0,75.0,8.0,4456.0,24.0,6.0,1217.0,,,,,,,,,,207.0,10.0,8167.0,,,,204.0,17.0,2924.0,47.0,14.0,901.0,,,
48393,Roberts County,1,-100.81,35.83,2393.38,0.0,0.0,,,,27.0,3.0,2456.0,,,,,,,,,,,,,,,,,,,10.0,3.0,169.0,,,,14.0,3.0,410.0,,,,,,,,,,,,,,,,,,
48395,Robertson County,17,-96.51,31.03,2242.44,0.01,0.06,16.0,4.0,615.0,191.0,8.0,18792.0,204.0,6.0,23885.0,319.0,22.0,16506.0,44.0,3.0,1713.0,15.0,7.0,656.0,80.0,15.0,5725.0,42.0,10.0,2189.0,339.0,22.0,9704.0,,,,7.0,6.0,340.0,,,,303.0,15.0,10419.0,11.0,4.0,173.0,442.0,27.0,7549.0,144.0,40.0,2727.0,,,
48397,Rockwall County,101,-96.41,32.89,385.75,0.26,0.63,,,,75.0,14.0,5433.0,47.0,4.0,5961.0,2294.0,307.0,131354.0,558.0,93.0,39629.0,232.0,30.0,12202.0,741.0,157.0,54458.0,321.0,134.0,17854.0,1811.0,376.0,133884.0,102.0,8.0,7797.0,1571.0,174.0,58006.0,338.0,26.0,6360.0,5343.0,339.0,259618.0,737.0,44.0,11590.0,5179.0,235.0,86277.0,2057.0,231.0,55898.0,3.0,4.0,96.0
48399,Runnels County,10,-99.98,31.83,2738.19,0.0,0.23,,,,35.0,8.0,1428.0,11.0,3.0,708.0,182.0,20.0,5826.0,48.0,7.0,1902.0,5.0,3.0,47.0,95.0,16.0,5516.0,,,,30.0,15.0,1135.0,,,,132.0,4.0,2505.0,,,,299.0,17.0,12486.0,10.0,3.0,80.0,176.0,19.0,2222.0,180.0,30.0,3283.0,,,
48401,Rusk County,54,-94.79,32.05,2430.94,0.02,0.23,41.0,8.0,1990.0,785.0,38.0,37104.0,444.0,17.0,46750.0,729.0,65.0,36326.0,343.0,36.0,18654.0,111.0,13.0,8758.0,423.0,52.0,26049.0,91.0,23.0,3214.0,298.0,65.0,17307.0,106.0,3.0,9687.0,611.0,34.0,20925.0,39.0,3.0,619.0,1565.0,84.0,56993.0,18.0,7.0,423.0,918.0,68.0,14470.0,452.0,95.0,11041.0,,,
48403,Sabine County,10,-93.87,31.33,1493.77,0.01,0.1,21.0,3.0,1007.0,17.0,5.0,1089.0,23.0,3.0,924.0,116.0,20.0,6242.0,,,,17.0,6.0,1225.0,46.0,10.0,2019.0,8.0,6.0,149.0,27.0,14.0,1148.0,,,,11.0,3.0,372.0,,,,433.0,22.0,13093.0,5.0,4.0,71.0,73.0,8.0,1119.0,73.0,26.0,1283.0,,,
48405,San Augustine County,8,-94.18,31.4,1534.09,0.01,0.17,30.0,4.0,1314.0,,,,111.0,3.0,8145.0,148.0,15.0,8361.0,24.0,4.0,685.0,5.0,3.0,219.0,38.0,8.0,1500.0,,,,10.0,8.0,672.0,,,,18.0,4.0,644.0,,,,441.0,20.0,11550.0,,,,76.0,9.0,727.0,25.0,10.0,501.0,,,
48407,San Jacinto County,29,-95.19,30.51,1626.22,0.02,0.53,,,,,,,37.0,6.0,3345.0,114.0,30.0,5318.0,66.0,14.0,3815.0,11.0,6.0,210.0,38.0,5.0,1694.0,13.0,11.0,803.0,65.0,26.0,2287.0,,,,17.0,8.0,562.0,,,,131.0,11.0,3754.0,,,,176.0,19.0,2851.0,66.0,17.0,1311.0,,,
48409,San Patricio County,67,-97.5,28.0,1827.89,0.04,0.41,7.0,3.0,337.0,158.0,21.0,11677.0,97.0,7.0,7450.0,1930.0,98.0,91884.0,267.0,42.0,16347.0,120.0,12.0,6830.0,363.0,83.0,14522.0,196.0,58.0,5972.0,952.0,90.0,87248.0,,,,215.0,31.0,9802.0,71.0,8.0,4804.0,1169.0,103.0,39083.0,132.0,17.0,1155.0,2156.0,152.0,35504.0,472.0,119.0,14656.0,,,
48411,San Saba County,6,-98.84,31.12,2948.67,0.0,0.5,,,,43.0,6.0,2373.0,,,,35.0,17.0,1235.0,102.0,9.0,4085.0,,,,23.0,5.0,1191.0,,,,29.0,14.0,1081.0,,,,13.0,3.0,381.0,,,,111.0,10.0,3590.0,,,,125.0,19.0,1764.0,46.0,15.0,1140.0,,,
48413,Schleicher County,3,-100.54,30.88,3394.69,0.0,0.0,,,,109.0,7.0,3530.0,,,,91.0,5.0,4388.0,,,,,,,22.0,4.0,968.0,,,,8.0,4.0,316.0,,,,,,,,,,61.0,4.0,2841.0,,,,,,,20.0,6.0,370.0,,,
48415,Scurry County,17,-100.91,32.72,2350.8,0.01,0.37,,,,831.0,45.0,42937.0,56.0,7.0,4741.0,389.0,33.0,21342.0,331.0,22.0,21643.0,43.0,7.0,1527.0,102.0,23.0,8244.0,46.0,20.0,1750.0,162.0,21.0,8222.0,139.0,3.0,9683.0,63.0,12.0,1486.0,,,,492.0,16.0,24478.0,31.0,6.0,335.0,633.0,42.0,9009.0,228.0,47.0,11812.0,,,
48417,Shackelford County,3,-99.33,32.71,2371.25,0.0,0.98,,,,468.0,27.0,34464.0,15.0,3.0,963.0,66.0,7.0,4220.0,14.0,4.0,1446.0,,,,57.0,10.0,3191.0,22.0,3.0,1161.0,6.0,3.0,203.0,,,,,,,,,,43.0,3.0,2288.0,,,,52.0,7.0,662.0,57.0,14.0,1130.0,,,
48419,Shelby County,25,-94.13,31.77,2161.81,0.01,0.33,297.0,30.0,10788.0,138.0,11.0,9737.0,12.0,7.0,323.0,239.0,36.0,14123.0,122.0,17.0,5839.0,40.0,12.0,1998.0,366.0,48.0,15793.0,47.0,20.0,936.0,472.0,30.0,27789.0,,,,178.0,17.0,5355.0,,,,506.0,43.0,18168.0,23.0,5.0,414.0,578.0,41.0,9893.0,192.0,60.0,5643.0,,,
48421,Sherman County,3,-101.89,36.25,2391.01,0.0,0.0,,,,,,,,,,8.0,5.0,394.0,75.0,10.0,3731.0,,,,24.0,6.0,1551.0,,,,,,,,,,,,,,,,,,,,,,,,,20.0,9.0,472.0,,,
48423,Smith County,230,-95.26,32.34,2459.66,0.09,0.53,116.0,15.0,5634.0,1457.0,103.0,107031.0,293.0,16.0,22402.0,4483.0,535.0,228529.0,3661.0,275.0,227013.0,1966.0,88.0,90531.0,3317.0,460.0,213399.0,1222.0,338.0,53032.0,4618.0,657.0,318905.0,4833.0,36.0,181209.0,3709.0,311.0,113148.0,1302.0,59.0,40783.0,22649.0,689.0,1278703.0,901.0,62.0,21240.0,11357.0,477.0,184878.0,5278.0,610.0,146937.0,13.0,6.0,399.0
48425,Somervell County,9,-97.77,32.23,496.96,0.02,0.33,,,,107.0,7.0,9713.0,654.0,4.0,110442.0,181.0,20.0,10169.0,16.0,5.0,652.0,10.0,5.0,650.0,53.0,10.0,2754.0,34.0,13.0,678.0,79.0,18.0,4700.0,,,,241.0,10.0,9591.0,,,,484.0,17.0,17313.0,166.0,6.0,4217.0,459.0,37.0,9627.0,170.0,28.0,6309.0,,,
48427,Starr County,64,-98.75,26.56,3183.69,0.02,0.23,,,,59.0,10.0,3072.0,73.0,8.0,3842.0,82.0,20.0,2549.0,102.0,18.0,4196.0,85.0,10.0,2622.0,295.0,61.0,8718.0,21.0,8.0,450.0,142.0,41.0,3645.0,,,,93.0,12.0,3250.0,22.0,4.0,810.0,5013.0,129.0,92488.0,15.0,3.0,174.0,879.0,60.0,11014.0,146.0,31.0,2445.0,,,
48429,Stephens County,9,-98.82,32.69,2386.42,0.0,0.11,,,,374.0,40.0,22125.0,,,,153.0,21.0,7300.0,47.0,5.0,2883.0,21.0,5.0,697.0,106.0,14.0,4597.0,10.0,7.0,278.0,67.0,17.0,3294.0,,,,36.0,6.0,919.0,,,,296.0,15.0,11429.0,,,,199.0,18.0,2870.0,94.0,24.0,2582.0,,,
48431,Sterling County,1,-101.05,31.82,2391.78,0.0,0.0,,,,35.0,5.0,3566.0,52.0,4.0,4149.0,24.0,5.0,1123.0,10.0,3.0,211.0,,,,16.0,5.0,1022.0,,,,7.0,5.0,139.0,,,,,,,,,,34.0,3.0,1361.0,,,,28.0,4.0,315.0,14.0,6.0,412.0,,,
48433,Stonewall County,1,-100.25,33.16,2383.74,0.0,0.0,,,,69.0,5.0,2658.0,,,,37.0,6.0,2092.0,13.0,3.0,1149.0,,,,,,,5.0,3.0,251.0,,,,,,,,,,,,,148.0,5.0,5685.0,,,,30.0,4.0,318.0,10.0,6.0,125.0,,,
48435,Sutton County,4,-100.54,30.51,3765.82,0.0,0.0,,,,210.0,8.0,16041.0,,,,76.0,10.0,4178.0,27.0,5.0,2074.0,,,,12.0,4.0,264.0,21.0,3.0,647.0,13.0,8.0,458.0,,,,,,,,,,89.0,5.0,2057.0,26.0,6.0,614.0,185.0,12.0,5168.0,36.0,12.0,657.0,,,
48437,Swisher County,7,-101.71,34.47,2332.83,0.0,0.0,,,,,,,45.0,3.0,2879.0,35.0,9.0,1214.0,59.0,11.0,2275.0,,,,36.0,10.0,2953.0,5.0,3.0,147.0,34.0,6.0,1416.0,,,,4.0,3.0,101.0,,,,190.0,11.0,6970.0,,,,87.0,8.0,1207.0,82.0,19.0,1530.0,,,
48439,Tarrant County,2077,-97.34,32.75,2340.76,0.89,0.63,96.0,10.0,2545.0,3685.0,237.0,359336.0,1586.0,37.0,191237.0,53601.0,3471.0,3431122.0,47666.0,2280.0,3448567.0,13789.0,716.0,970411.0,49857.0,3026.0,4300561.0,13506.0,2358.0,737755.0,41858.0,4990.0,3314722.0,21724.0,302.0,2033149.0,55219.0,2264.0,2364037.0,15114.0,597.0,643875.0,116878.0,5561.0,5926859.0,16073.0,622.0,412108.0,99852.0,4396.0,1651739.0,38538.0,4037.0,1165737.0,97.0,65.0,2231.0
48441,Taylor County,138,-99.88,32.28,2380.8,0.06,0.22,,,,900.0,72.0,41394.0,737.0,36.0,52974.0,3723.0,306.0,180856.0,2529.0,163.0,135104.0,878.0,77.0,46071.0,2770.0,265.0,155777.0,882.0,180.0,40903.0,1898.0,288.0,114493.0,325.0,17.0,24656.0,2144.0,164.0,79355.0,3454.0,46.0,97212.0,12946.0,420.0,591510.0,708.0,63.0,12364.0,7437.0,355.0,117349.0,3024.0,377.0,76360.0,2.0,3.0,109.0
48445,Terry County,12,-102.33,33.15,2307.58,0.01,0.0,68.0,5.0,3728.0,27.0,6.0,2673.0,,,,46.0,12.0,1947.0,249.0,19.0,13077.0,35.0,8.0,1481.0,96.0,22.0,5184.0,8.0,5.0,144.0,50.0,12.0,1609.0,,,,210.0,5.0,11378.0,,,,356.0,19.0,14539.0,10.0,3.0,89.0,280.0,27.0,4689.0,115.0,25.0,3072.0,,,
48447,Throckmorton County,2,-99.2,33.16,2371.15,0.0,0.0,,,,18.0,5.0,607.0,,,,9.0,3.0,359.0,15.0,5.0,524.0,,,,13.0,3.0,506.0,,,,6.0,3.0,184.0,,,,,,,,,,,,,,,,,,,14.0,7.0,237.0,,,
48449,Titus County,33,-94.97,33.2,1102.46,0.03,0.41,,,,,,,15.0,4.0,1780.0,265.0,45.0,16502.0,316.0,34.0,13453.0,69.0,13.0,3450.0,409.0,48.0,21011.0,71.0,23.0,2874.0,98.0,20.0,6767.0,91.0,4.0,30952.0,640.0,38.0,16840.0,35.0,8.0,1956.0,2108.0,91.0,80753.0,43.0,4.0,817.0,1317.0,71.0,20146.0,384.0,75.0,8873.0,,,
48451,Tom Green County,119,-100.41,31.38,3990.08,0.03,0.68,37.0,3.0,1567.0,1216.0,62.0,88676.0,215.0,7.0,16760.0,2586.0,297.0,127630.0,1602.0,123.0,94314.0,825.0,58.0,39613.0,1817.0,195.0,93534.0,827.0,166.0,33968.0,1716.0,229.0,83913.0,167.0,10.0,11024.0,2568.0,131.0,94366.0,678.0,26.0,20402.0,7228.0,267.0,390832.0,678.0,45.0,10527.0,5397.0,277.0,87763.0,2174.0,309.0,68385.0,1.0,4.0,56.0
48453,Travis County,1251,-97.76,30.29,2654.75,0.47,0.59,33.0,14.0,1297.0,1210.0,89.0,190436.0,948.0,79.0,100992.0,39341.0,2747.0,2617488.0,33010.0,1463.0,3217658.0,40685.0,1276.0,4961222.0,30486.0,2503.0,3888676.0,19496.0,2763.0,1336404.0,90197.0,7733.0,10538150.0,17854.0,326.0,1954303.0,45513.0,2020.0,2080944.0,16619.0,774.0,622590.0,76209.0,4036.0,4218638.0,10902.0,781.0,276711.0,85887.0,3399.0,1609893.0,28866.0,3200.0,1153417.0,74.0,75.0,4491.0
48455,Trinity County,15,-95.12,31.08,1849.44,0.01,0.01,42.0,8.0,2668.0,,,,16.0,7.0,802.0,54.0,12.0,2658.0,99.0,7.0,6310.0,13.0,3.0,607.0,67.0,15.0,3121.0,,,,34.0,9.0,1091.0,,,,,,,,,,322.0,16.0,10270.0,,,,247.0,17.0,3268.0,188.0,35.0,2803.0,,,
48457,Tyler County,22,-94.4,30.76,2423.48,0.01,0.32,142.0,15.0,7074.0,,,,42.0,8.0,3667.0,60.0,14.0,3830.0,69.0,7.0,3782.0,13.0,3.0,400.0,78.0,17.0,2705.0,43.0,7.0,417.0,65.0,25.0,2808.0,,,,,,,,,,511.0,33.0,17655.0,,,,262.0,19.0,3949.0,160.0,41.0,3328.0,,,
48459,Upshur County,41,-94.93,32.73,1534.87,0.03,0.41,6.0,3.0,111.0,37.0,5.0,1283.0,154.0,7.0,11142.0,749.0,72.0,42195.0,85.0,14.0,4429.0,180.0,11.0,9329.0,261.0,44.0,13599.0,20.0,11.0,557.0,404.0,55.0,16499.0,,,,114.0,26.0,3811.0,14.0,3.0,340.0,556.0,39.0,16968.0,14.0,5.0,367.0,669.0,34.0,10584.0,224.0,54.0,4456.0,,,
48461,Upton County,4,-102.04,31.37,3215.15,0.0,0.0,,,,493.0,18.0,38775.0,54.0,6.0,4910.0,55.0,6.0,2497.0,128.0,7.0,6269.0,,,,23.0,4.0,897.0,,,,,,,,,,,,,,,,188.0,5.0,12627.0,,,,40.0,6.0,318.0,7.0,3.0,122.0,,,
48463,Uvalde County,27,-99.77,29.3,4037.53,0.01,0.02,27.0,6.0,968.0,161.0,11.0,8724.0,62.0,8.0,4639.0,305.0,54.0,11551.0,428.0,32.0,24694.0,77.0,8.0,3867.0,236.0,35.0,10589.0,142.0,35.0,4917.0,286.0,29.0,11852.0,107.0,4.0,4711.0,78.0,16.0,3003.0,43.0,3.0,398.0,1842.0,67.0,81847.0,49.0,8.0,669.0,1140.0,75.0,17365.0,347.0,65.0,8340.0,,,
48465,Val Verde County,49,-101.13,29.92,8373.77,0.01,0.01,,,,,,,13.0,3.0,791.0,240.0,54.0,9754.0,294.0,29.0,12992.0,144.0,18.0,4990.0,525.0,71.0,23102.0,120.0,35.0,3726.0,218.0,39.0,7082.0,26.0,3.0,1300.0,931.0,24.0,33430.0,83.0,9.0,2697.0,3488.0,82.0,85962.0,28.0,8.0,277.0,1892.0,91.0,26559.0,353.0,73.0,6763.0,,,
48467,Van Zandt County,56,-95.83,32.54,2226.39,0.03,0.54,7.0,4.0,432.0,74.0,9.0,6032.0,32.0,12.0,1517.0,1285.0,148.0,62726.0,426.0,33.0,25161.0,160.0,16.0,4949.0,249.0,49.0,12032.0,47.0,28.0,1469.0,290.0,77.0,13491.0,,,,287.0,45.0,9612.0,82.0,6.0,1529.0,1087.0,69.0,34122.0,92.0,11.0,3473.0,1425.0,85.0,22963.0,643.0,117.0,15957.0,8.0,4.0,282.0
48469,Victoria County,92,-96.98,28.8,2302.19,0.04,0.48,,,,1339.0,80.0,82426.0,459.0,5.0,41231.0,1749.0,195.0,86643.0,1926.0,128.0,98972.0,336.0,32.0,14486.0,756.0,149.0,43989.0,831.0,109.0,36451.0,1123.0,167.0,55389.0,410.0,13.0,37958.0,1538.0,121.0,58018.0,380.0,24.0,7985.0,6874.0,300.0,325881.0,400.0,37.0,6954.0,3939.0,205.0,64926.0,1815.0,205.0,58940.0,,,
48471,Walker County,72,-95.55,30.68,2075.9,0.03,0.67,17.0,10.0,680.0,15.0,8.0,541.0,43.0,6.0,3943.0,726.0,102.0,30272.0,263.0,29.0,12599.0,161.0,19.0,4495.0,419.0,67.0,19452.0,230.0,55.0,9546.0,505.0,79.0,13916.0,,,,821.0,48.0,18815.0,69.0,7.0,2516.0,2431.0,107.0,84921.0,173.0,16.0,2859.0,2575.0,121.0,35638.0,803.0,102.0,18964.0,,,
48473,Waller County,54,-96.0,29.94,1341.33,0.04,0.68,14.0,5.0,669.0,182.0,11.0,9744.0,45.0,6.0,3403.0,1034.0,128.0,66740.0,1453.0,72.0,102088.0,45.0,12.0,3085.0,115.0,25.0,6117.0,213.0,36.0,9907.0,419.0,76.0,21455.0,27.0,3.0,3002.0,795.0,52.0,32904.0,533.0,12.0,20263.0,1214.0,48.0,26665.0,62.0,11.0,1456.0,1059.0,67.0,19410.0,535.0,73.0,24312.0,,,
48475,Ward County,12,-103.08,31.5,2165.58,0.01,0.15,,,,1397.0,74.0,79157.0,73.0,7.0,7803.0,346.0,24.0,21167.0,81.0,13.0,4954.0,27.0,5.0,1928.0,93.0,16.0,5653.0,228.0,17.0,13002.0,89.0,13.0,4434.0,,,,109.0,9.0,5313.0,,,,180.0,10.0,4954.0,,,,461.0,38.0,9503.0,167.0,23.0,6946.0,,,
48477,Washington County,35,-96.39,30.22,1610.35,0.02,0.21,,,,55.0,10.0,3989.0,40.0,3.0,3256.0,713.0,111.0,36481.0,881.0,44.0,44520.0,175.0,18.0,5226.0,934.0,61.0,65017.0,188.0,43.0,8464.0,361.0,66.0,17898.0,,,,515.0,47.0,21104.0,34.0,9.0,1163.0,1828.0,91.0,62663.0,130.0,20.0,1719.0,1346.0,105.0,22142.0,608.0,99.0,14394.0,,,
48479,Webb County,275,-99.25,27.7,8743.06,0.03,0.03,14.0,4.0,453.0,898.0,44.0,50951.0,183.0,12.0,14139.0,1605.0,244.0,63815.0,3235.0,336.0,129486.0,752.0,78.0,31230.0,2838.0,305.0,129971.0,918.0,241.0,30414.0,2127.0,396.0,81305.0,185.0,16.0,10012.0,5010.0,188.0,141225.0,439.0,40.0,11811.0,17298.0,544.0,485281.0,1227.0,55.0,13318.0,10276.0,451.0,136942.0,1995.0,308.0,51509.0,7.0,3.0,83.0
48481,Wharton County,42,-96.23,29.25,2834.17,0.01,0.35,68.0,15.0,3746.0,563.0,30.0,27343.0,125.0,9.0,13349.0,684.0,98.0,31245.0,956.0,60.0,53476.0,94.0,17.0,3894.0,420.0,75.0,24779.0,158.0,42.0,7388.0,278.0,48.0,13612.0,,,,268.0,42.0,8629.0,95.0,7.0,1783.0,1790.0,85.0,53111.0,46.0,12.0,1050.0,1202.0,84.0,18529.0,481.0,121.0,10543.0,,,
48483,Wheeler County,5,-100.26,35.39,2370.26,0.0,0.01,,,,120.0,19.0,8247.0,,,,25.0,6.0,1021.0,29.0,7.0,1484.0,7.0,5.0,339.0,47.0,9.0,2290.0,9.0,5.0,229.0,68.0,10.0,2835.0,,,,11.0,3.0,419.0,,,,285.0,6.0,12146.0,,,,224.0,21.0,2908.0,66.0,23.0,2129.0,,,
48485,Wichita County,132,-98.71,33.95,1638.82,0.08,0.57,,,,697.0,110.0,41489.0,115.0,7.0,11329.0,1675.0,220.0,80381.0,1486.0,158.0,75413.0,745.0,54.0,34457.0,1775.0,207.0,111258.0,700.0,157.0,22665.0,990.0,215.0,53889.0,123.0,14.0,7138.0,2470.0,104.0,79220.0,251.0,32.0,6564.0,11348.0,412.0,493032.0,419.0,33.0,5479.0,6742.0,299.0,100826.0,2065.0,322.0,54546.0,,,
48487,Wilbarger County,13,-99.21,34.03,2533.02,0.01,0.69,,,,25.0,7.0,1338.0,108.0,8.0,10931.0,129.0,18.0,3865.0,25.0,7.0,920.0,113.0,10.0,5416.0,140.0,27.0,7842.0,58.0,12.0,1613.0,44.0,14.0,1665.0,,,,60.0,6.0,1626.0,,,,1628.0,30.0,61877.0,11.0,4.0,306.0,398.0,34.0,6421.0,167.0,32.0,3246.0,,,
48489,Willacy County,21,-97.59,26.46,1631.25,0.01,0.19,67.0,4.0,1819.0,,,,,,,9.0,4.0,412.0,59.0,4.0,2840.0,138.0,6.0,10035.0,59.0,16.0,2296.0,19.0,7.0,606.0,28.0,12.0,1044.0,,,,540.0,5.0,22007.0,,,,639.0,34.0,20464.0,9.0,4.0,312.0,284.0,25.0,3682.0,64.0,16.0,1824.0,,,
48491,Williamson County,570,-97.6,30.66,2931.6,0.19,0.3,20.0,8.0,340.0,712.0,32.0,46468.0,1133.0,17.0,118418.0,16969.0,1403.0,1108794.0,4530.0,431.0,518675.0,4773.0,240.0,361687.0,8826.0,790.0,902060.0,2493.0,698.0,134868.0,21529.0,1850.0,2557315.0,1729.0,50.0,131112.0,9564.0,596.0,404313.0,4596.0,264.0,108873.0,25896.0,1483.0,1341666.0,3854.0,190.0,60315.0,23949.0,1121.0,404674.0,9136.0,1167.0,277522.0,42.0,22.0,724.0
48493,Wilson County,50,-98.13,29.16,2093.7,0.02,0.4,,,,586.0,23.0,27505.0,52.0,8.0,2504.0,685.0,133.0,32780.0,152.0,20.0,9275.0,75.0,14.0,2669.0,183.0,44.0,8749.0,82.0,29.0,3611.0,240.0,79.0,12209.0,,,,104.0,28.0,3494.0,32.0,4.0,715.0,1323.0,70.0,47977.0,86.0,7.0,1537.0,917.0,72.0,12983.0,437.0,81.0,8695.0,,,
48495,Winkler County,8,-103.08,31.8,2178.84,0.0,0.0,,,,1240.0,38.0,122084.0,,,,187.0,16.0,10914.0,42.0,6.0,2475.0,,,,72.0,5.0,3836.0,484.0,12.0,15762.0,48.0,4.0,386.0,,,,,,,,,,97.0,7.0,5140.0,16.0,3.0,176.0,173.0,15.0,3903.0,64.0,17.0,1425.0,,,
48497,Wise County,68,-97.66,33.21,2389.6,0.03,0.65,5.0,3.0,205.0,2582.0,75.0,173509.0,99.0,4.0,8413.0,1213.0,191.0,63597.0,675.0,68.0,41462.0,121.0,16.0,4518.0,361.0,61.0,18004.0,184.0,56.0,7571.0,413.0,110.0,23098.0,,,,716.0,48.0,30747.0,23.0,9.0,444.0,3191.0,104.0,160512.0,62.0,20.0,1576.0,1755.0,119.0,27458.0,1292.0,150.0,54124.0,2.0,3.0,31.0
48499,Wood County,45,-95.38,32.76,1801.93,0.02,0.37,16.0,3.0,693.0,128.0,6.0,11004.0,262.0,13.0,24560.0,1019.0,100.0,58400.0,134.0,24.0,4813.0,159.0,15.0,9880.0,306.0,55.0,19147.0,92.0,42.0,3221.0,239.0,65.0,8492.0,,,,85.0,28.0,3844.0,424.0,5.0,8542.0,1082.0,73.0,42485.0,75.0,18.0,1770.0,1064.0,77.0,16275.0,544.0,106.0,11943.0,,,
48501,Yoakum County,9,-102.83,33.15,2071.61,0.0,0.76,,,,520.0,21.0,48300.0,,,,152.0,20.0,6500.0,90.0,9.0,5774.0,10.0,3.0,411.0,78.0,14.0,3786.0,47.0,3.0,2112.0,22.0,8.0,666.0,,,,43.0,6.0,1335.0,,,,307.0,9.0,13271.0,,,,241.0,21.0,3499.0,75.0,17.0,2566.0,,,
48503,Young County,18,-98.7,33.15,2410.78,0.01,0.0,,,,464.0,83.0,21679.0,83.0,9.0,8384.0,384.0,55.0,26050.0,95.0,24.0,4757.0,82.0,12.0,4023.0,196.0,26.0,10898.0,49.0,19.0,2001.0,191.0,37.0,9589.0,76.0,3.0,3635.0,115.0,16.0,4789.0,,,,951.0,52.0,36623.0,5.0,4.0,192.0,574.0,40.0,8208.0,331.0,67.0,8020.0,,,
48505,Zapata County,14,-99.17,26.99,2740.44,0.01,0.02,,,,175.0,12.0,12471.0,53.0,3.0,1631.0,124.0,10.0,4965.0,,,,11.0,4.0,325.0,88.0,10.0,2882.0,,,,3.0,3.0,156.0,,,,22.0,6.0,1189.0,,,,500.0,20.0,7104.0,,,,160.0,19.0,2107.0,27.0,7.0,429.0,,,
48507,Zavala County,12,-99.77,28.84,3370.9,0.0,0.34,,,,90.0,5.0,4889.0,,,,88.0,8.0,3458.0,54.0,3.0,2138.0,9.0,4.0,440.0,45.0,7.0,1240.0,,,,10.0,3.0,69.0,,,,,,,,,,635.0,18.0,10279.0,,,,127.0,14.0,1586.0,19.0,4.0,296.0,,,
